{"type":"Feature","properties":{"business_id":"5uZRV3u4n2tbmCAQh9_lpQ","name":"Panera Bread","categories":"Restaurants, Soup, Bagels, Sandwiches, Salad, Breakfast & Brunch, Food, Bakeries","state":"OH","city":"Bainbridge Township","review_count":28,"rank":1,"stars":2.0},"geometry":{"coordinates":[-81.3398024,41.4135825],"type":"Point"}}
{"type":"Feature","properties":{"business_id":"llgLD3ZpFF6qy4JE5mLdcw","name":"Loose Moose Saloon","categories":"Nightlife, Bars, Restaurants, Salad, Sandwiches, Burgers","state":"PA","city":"Baldwin","review_count":48,"rank":1,"stars":3.0},"geometry":{"coordinates":[-79.9847964,40.3439034],"type":"Point"}}
{"type":"Feature","properties":{"business_id":"qtsrM6Xxh1LqxG0X6K6tuQ","name":"The Pizza Company - Baldwin","categories":"Pizza, Restaurants, Chicken Wings, Sandwiches","state":"PA","city":"Baldwin","review_count":9,"rank":2,"stars":4.0},"geometry":{"coordinates":[-79.9855888,40.3432114],"type":"Point"}}
{"type":"Feature","properties":{"business_id":"iUn4w2x2eovKa6_pgbp8nA","name":"Koryo Korean BBQ","categories":"Korean, Fast Food, Restaurants","state":"AB","city":"Balzac","review_count":10,"rank":1,"stars":1.5},"geometry":{"coordinates":[-113.9934348,51.202806],"type":"Point"}}
{"type":"Feature","properties":{"business_id":"QGiqd6eT9808So5h3UXL4Q","name":"Balzac Diner","categories":"Cafes, Restaurants, Diners, Breakfast & Brunch","state":"AB","city":"Balzac","review_count":5,"rank":2,"stars":4.0},"geometry":{"coordinates":[-114.0077636,51.212748],"type":"Point"}}
{"type":"Feature","properties":{"business_id":"RbftLajeHKC0dULEKCaT5A","name":"Rocking Horse Cafe","categories":"Diners, Breakfast & Brunch, Food, Cafes, Restaurants","state":"AB","city":"Balzac","review_count":5,"rank":2,"stars":4.5},"geometry":{"coordinates":[-114.007862,51.212985],"type":"Point"}}
{"type":"Feature","properties":{"business_id":"hDspN9Uf6wE0jAhKMI1-xQ","name":"Savvy Spices","categories":"Herbs & Spices, Food, Specialty Food","state":"PA","city":"Banksville","review_count":4,"rank":1,"stars":3.5},"geometry":{"coordinates":[-80.0444159,40.3994662],"type":"Point"}}
{"type":"Feature","properties":{"business_id":"Ot2Ml1EHC6iEs_5JOUKA2w","name":"Casa Blanca Market","categories":"Food, Grocery","state":"AZ","city":"Bapchule","review_count":3,"rank":1,"stars":4.5},"geometry":{"coordinates":[-111.9143051202,33.1175552227],"type":"Point"}}
{"type":"Feature","properties":{"business_id":"p1eUTUB_5hf1enoKYBV3DA","name":"Ken Stewart's Tre Belle","categories":"Italian, Restaurants","state":"OH","city":"Bath","review_count":47,"rank":1,"stars":3.5},"geometry":{"coordinates":[-81.6357911,41.187547],"type":"Point"}}
{"type":"Feature","properties":{"business_id":"Gpm--ooVaO8bA2OCKcMSEg","name":"Da Vinci Pizzeria","categories":"Pizza, Restaurants","state":"PA","city":"Port Vue","review_count":6,"rank":1,"stars":3.5},"geometry":{"coordinates":[-79.879512,40.3341957],"type":"Point"}}
{"type":"Feature","properties":{"business_id":"inLDlmy0p2ZthCYQzGZVnw","name":"Two Brothers BBQ","categories":"Barbeque, Food Trucks, Restaurants, Chicken Wings, Sandwiches, Food, Cajun/Creole, Event Planning & Services, Caterers","state":"PA","city":"Presto","review_count":80,"rank":1,"stars":4.5},"geometry":{"coordinates":[-80.1195004,40.3727235],"type":"Point"}}
{"type":"Feature","properties":{"business_id":"AaayVF6TxHup_ZrNEyA-_Q","name":"Cookies by Design","categories":"Desserts, Shopping, Flowers & Gifts, Bakeries, Food","state":"PA","city":"Presto","review_count":5,"rank":2,"stars":5.0},"geometry":{"coordinates":[-80.1157941,40.374981],"type":"Point"}}
{"type":"Feature","properties":{"business_id":"rSwGkWTJkKfwjfOWHYr3mA","name":"Le Suki","categories":"Restaurants, Sushi Bars","state":"QC","city":"Prévost","review_count":4,"rank":1,"stars":3.0},"geometry":{"coordinates":[-74.0706908,45.8635429],"type":"Point"}}
{"type":"Feature","properties":{"business_id":"cSDoJLFh3Z9sXaPlIgUWGQ","name":"Pub Barils & Ardoises","categories":"Burgers, Pubs, Nightlife, Barbeque, Bistros, Bars, Restaurants","state":"QC","city":"Prévost","review_count":4,"rank":1,"stars":5.0},"geometry":{"coordinates":[-74.0701273178,45.8614677249],"type":"Point"}}
{"type":"Feature","properties":{"business_id":"Xhsmzmt6ciLQm71jlsupPg","name":"Cafe des Artisans","categories":"Restaurants, Coffee & Tea, Food, Breakfast & Brunch, Brasseries, Creperies, French","state":"QC","city":"Prévost","review_count":3,"rank":3,"stars":3.5},"geometry":{"coordinates":[-74.077105,45.874045],"type":"Point"}}
{"type":"Feature","properties":{"business_id":"StW-bPe_8nnuLI9S2Bgf1w","name":"Tim Hortons","categories":"Coffee & Tea, Restaurants, Breakfast & Brunch, Food, Cafes","state":"QC","city":"Prévost","review_count":3,"rank":3,"stars":4.0},"geometry":{"coordinates":[-74.0611622549,45.8417249557],"type":"Point"}}
{"type":"Feature","properties":{"business_id":"3DL4JKnxlQLCXhjNzDbI3w","name":"Bella Cleaners","categories":"Dry Cleaning & Laundry, Local Services, Pool Halls, Nightlife, Shopping, Pool & Billiards, Laundry Services","state":"WA","city":"Puyallup","review_count":4,"rank":1,"stars":2.0},"geometry":{"coordinates":[-115.241898,36.1263776],"type":"Point"}}
{"type":"Feature","properties":{"business_id":"EZdHp6hzzyU0R1Adb2VaGA","name":"South St. Burger","categories":"Restaurants, Burgers","state":"AB","city":"Rocky View","review_count":33,"rank":1,"stars":3.5},"geometry":{"coordinates":[-113.9957317513,51.201230335],"type":"Point"}}
{"type":"Feature","properties":{"business_id":"Zpydi0JmOp3XXL5hDGALXg","name":"Fionn MacCool's Irish Pub","categories":"Music Venues, Irish, Canadian (New), Nightlife, Beer, Wine & Spirits, Restaurants, Gastropubs, Arts & Entertainment, Bars, Food","state":"AB","city":"Rocky View","review_count":24,"rank":2,"stars":3.5},"geometry":{"coordinates":[-113.9930715,51.2032209],"type":"Point"}}
{"type":"Feature","properties":{"business_id":"jFWP4KI60eZ65DIwKs81mA","name":"Milestones","categories":"Restaurants, Canadian (New), Breakfast & Brunch, American (Traditional), Nightlife, Diners, Bars, Steakhouses, Comfort Food","state":"AB","city":"Rocky View","review_count":23,"rank":3,"stars":2.5},"geometry":{"coordinates":[-113.9930715,51.2032209],"type":"Point"}}
{"type":"Feature","properties":{"business_id":"N1Tx3qauMFXBAT3U7bENoQ","name":"Marble Slab Creamery","categories":"Ice Cream & Frozen Yogurt, Food","state":"AB","city":"Rocky View County","review_count":7,"rank":1,"stars":1.5},"geometry":{"coordinates":[-113.9921698085,51.201281054],"type":"Point"}}
{"type":"Feature","properties":{"business_id":"VeYLKz6hgEFz5q9EkiMxXA","name":"Gong Cha","categories":"Bubble Tea, Food","state":"AB","city":"Rocky View County","review_count":5,"rank":2,"stars":4.5},"geometry":{"coordinates":[-113.9930715,51.2032209],"type":"Point"}}
{"type":"Feature","properties":{"business_id":"ZTXXqVCoFpapqhSZer45bA","name":"Umi Sushi Express","categories":"Restaurants, Japanese, Sushi Bars","state":"AB","city":"Rocky View County","review_count":3,"rank":3,"stars":2.0},"geometry":{"coordinates":[-113.9930715,51.2032209],"type":"Point"}}
{"type":"Feature","properties":{"business_id":"fHUr3Va1Vgtmib4ZbNExwA","name":"Mangoland","categories":"Latin American, Food Stands, Colombian, Ice Cream & Frozen Yogurt, Specialty Food, Restaurants, Food","state":"AB","city":"Rocky View County","review_count":3,"rank":3,"stars":4.0},"geometry":{"coordinates":[-113.9930715,51.2032209],"type":"Point"}}
{"type":"Feature","properties":{"business_id":"MN1DGSE2aMrk5n4EFzbTNg","name":"Jimmy the Greek","categories":"Fast Food, Greek, Restaurants","state":"AB","city":"Rocky View No. 44","review_count":9,"rank":1,"stars":3.5},"geometry":{"coordinates":[-113.9930715,51.2032209],"type":"Point"}}
{"type":"Feature","properties":{"business_id":"g4x8w6HWBBZzrtMlcTDZ4w","name":"Second Cup","categories":"Food, Coffee & Tea","state":"AB","city":"Rocky View No. 44","review_count":7,"rank":2,"stars":3.0},"geometry":{"coordinates":[-113.9930715,51.2032209],"type":"Point"}}
{"type":"Feature","properties":{"business_id":"cjzoWZupFodS0L6FM20adw","name":"Domaine Labranche","categories":"Food, Arts & Entertainment, Wineries, Sugar Shacks","state":"QC","city":"Saint-Isidore-de-Laprairie","review_count":6,"rank":1,"stars":3.5},"geometry":{"coordinates":[-73.6627981,45.300531],"type":"Point"}}
{"type":"Feature","properties":{"business_id":"-sSUtare_A_jWarLr3B20A","name":"Restaurant Nic-Pic","categories":"French, Diners, Restaurants, Canadian (New)","state":"QC","city":"Saint-Jean-Sur-Richelieu","review_count":5,"rank":1,"stars":3.0},"geometry":{"coordinates":[-73.2667620275,45.3040228529],"type":"Point"}}
{"type":"Feature","properties":{"business_id":"h6rXCK5nXNDjvKs2975fIw","name":"Le Pois Chiche","categories":"Middle Eastern, Restaurants, Mediterranean, Buffets","state":"QC","city":"Saint-Jean-sur-Richelieu","review_count":10,"rank":1,"stars":4.0},"geometry":{"coordinates":[-73.2689933851,45.3335540971],"type":"Point"}}
{"type":"Feature","properties":{"business_id":"VV2yZ-4KJau3sWRfqzzosg","name":"Lagabiere","categories":"Pubs, Bars, Restaurants, Nightlife, Brasseries","state":"QC","city":"Saint-Jean-sur-Richelieu","review_count":9,"rank":2,"stars":4.5},"geometry":{"coordinates":[-73.2505816,45.3053471],"type":"Point"}}
{"type":"Feature","properties":{"business_id":"1Ru2m_TlbOWJ8dkZ_mskjA","name":"Le Dorchester Cuisine et Complicités","categories":"Canadian (New), Cocktail Bars, Restaurants, Pubs, Nightlife, Bars","state":"QC","city":"Saint-Jean-sur-Richelieu","review_count":9,"rank":2,"stars":4.5},"geometry":{"coordinates":[-73.2512184,45.306856],"type":"Point"}}
{"type":"Feature","properties":{"business_id":"x75JTJnN27jcBb3hGPSO1Q","name":"Manneken-Pis","categories":"Food","state":"QC","city":"Saint-Jean-sur-Richelieu","review_count":9,"rank":2,"stars":4.5},"geometry":{"coordinates":[-73.2524054,45.3108792],"type":"Point"}}
{"type":"Feature","properties":{"business_id":"w7eXEQb3xdGDD3RnF7eTPw","name":"Restaurant Johnny","categories":"Restaurants, Canadian (New)","state":"QC","city":"Saint-Jerome","review_count":8,"rank":1,"stars":4.0},"geometry":{"coordinates":[-74.0013400386,45.7840078093],"type":"Point"}}
{"type":"Feature","properties":{"business_id":"NP5K9KRnBckoOGInUbs-SQ","name":"Restaurant Arousse","categories":"Restaurants, Lebanese, Middle Eastern","state":"QC","city":"Saint-Jerome","review_count":7,"rank":2,"stars":4.0},"geometry":{"coordinates":[-74.002754263,45.7758941023],"type":"Point"}}
{"type":"Feature","properties":{"business_id":"fhcILBrz9r2vs8Y3l52hbg","name":"Pacini","categories":"Restaurants, Italian","state":"QC","city":"Saint-Jerome","review_count":5,"rank":3,"stars":4.0},"geometry":{"coordinates":[-74.0046216,45.7799936],"type":"Point"}}
{"type":"Feature","properties":{"business_id":"TlK6tkxuqO0dVaUNBqXV7w","name":"Allô! Mon Coco","categories":"Restaurants, Breakfast & Brunch","state":"QC","city":"RŽpentigny","review_count":3,"rank":1,"stars":3.0},"geometry":{"coordinates":[-73.4588496,45.7409613],"type":"Point"}}
{"type":"Feature","properties":{"business_id":"o10-_WmF3MF5uXwMWGg5VQ","name":"Wendy's","categories":"Fast Food, Burgers, Restaurants","state":"OH","city":"S.Euclid","review_count":25,"rank":1,"stars":1.0},"geometry":{"coordinates":[-81.5347328,41.5210219],"type":"Point"}}
{"type":"Feature","properties":{"business_id":"iFeMMBEXgRwb9HtVSAkdHg","name":"Dos Coronas - Sagamore Hills","categories":"Mexican, Restaurants","state":"OH","city":"Sagamore Hills","review_count":31,"rank":1,"stars":3.5},"geometry":{"coordinates":[-81.553946,41.315106],"type":"Point"}}
{"type":"Feature","properties":{"business_id":"K_LPRrt7GwuBbFIrCYG8Jw","name":"The Pit Stop Bar & Grille","categories":"Bars, American (New), Nightlife, Restaurants, American (Traditional)","state":"OH","city":"Sagamore Hills","review_count":6,"rank":2,"stars":3.0},"geometry":{"coordinates":[-81.5378373,41.3255404],"type":"Point"}}
{"type":"Feature","properties":{"business_id":"ltPbGal-SQrlKbWeLaGd4w","name":"Domino's Pizza","categories":"Pizza, Restaurants, Sandwiches, Chicken Wings","state":"OH","city":"Sagamore Hills","review_count":3,"rank":3,"stars":3.5},"geometry":{"coordinates":[-81.553914,41.3150936],"type":"Point"}}
{"type":"Feature","properties":{"business_id":"eNeBda4br3HMg15-_jwokA","name":"El Toro","categories":"Restaurants, Mexican","state":"IL","city":"Saint Joseph","review_count":19,"rank":1,"stars":3.5},"geometry":{"coordinates":[-88.0414944,40.1112277],"type":"Point"}}
{"type":"Feature","properties":{"business_id":"4wzfwVrijdT--mWTESjw9g","name":"China King","categories":"Chinese, Restaurants","state":"IL","city":"Saint Joseph","review_count":13,"rank":2,"stars":4.0},"geometry":{"coordinates":[-88.0422169,40.1129997],"type":"Point"}}
{"type":"Feature","properties":{"business_id":"f3X4w3u5HHLdmahEC0ElrQ","name":"Roch's Place","categories":"Bars, Burgers, Sports Bars, Nightlife, Restaurants","state":"IL","city":"Saint Joseph","review_count":10,"rank":3,"stars":3.0},"geometry":{"coordinates":[-88.0419235229,40.1115531921],"type":"Point"}}
{"type":"Feature","properties":{"business_id":"4osfUMSq3ynN1vcGMH05hw","name":"Chalet des Erables","categories":"Event Planning & Services, Food, Venues & Event Spaces","state":"QC","city":"Sainte-Anne-des-Plaines","review_count":16,"rank":1,"stars":3.0},"geometry":{"coordinates":[-73.8232365,45.7260762],"type":"Point"}}
{"type":"Feature","properties":{"business_id":"sXic21QymjKOt4_B7-2jBg","name":"FraiseBec","categories":"Farmers Market, Farms, Food, Arts & Entertainment","state":"QC","city":"Sainte-Anne-des-Plaines","review_count":3,"rank":2,"stars":4.5},"geometry":{"coordinates":[-73.7829677,45.726072],"type":"Point"}}
{"type":"Feature","properties":{"business_id":"PiRvXB0c1ufjFvUW8k7qNw","name":"Dilallo","categories":"Restaurants, Burgers, Hot Dogs, Fast Food","state":"QC","city":"Sainte-Catherine","review_count":7,"rank":1,"stars":4.5},"geometry":{"coordinates":[-73.5640972,45.3885607],"type":"Point"}}
{"type":"Feature","properties":{"business_id":"mFGV_SNc3XQhBBuRxD3xgw","name":"M Resto-Bar","categories":"Gastropubs, Restaurants, Nightlife, Bars","state":"QC","city":"Sainte-Catherine","review_count":4,"rank":2,"stars":4.0},"geometry":{"coordinates":[-73.5532468,45.3875309],"type":"Point"}}
{"type":"Feature","properties":{"business_id":"PtqUj4GX_7kGGBib6J5SNA","name":"Chin Chine","categories":"Restaurants, Chinese, Food, Specialty Food","state":"QC","city":"Sainte-Catherine","review_count":4,"rank":2,"stars":2.5},"geometry":{"coordinates":[-73.570994239,45.3896298879],"type":"Point"}}
{"type":"Feature","properties":{"business_id":"uZDalcDmw66_g1keb4fW7Q","name":"Le Vieux Canal","categories":"Restaurants, Breakfast & Brunch, Greek, Canadian (New), French","state":"QC","city":"Sainte-Catherine","review_count":4,"rank":2,"stars":4.0},"geometry":{"coordinates":[-73.5558404,45.4021447],"type":"Point"}}
{"type":"Feature","properties":{"business_id":"V8nnsjC0kEoWj7_x1oXUAg","name":"La Belle Province","categories":"Canadian (New), Restaurants","state":"QC","city":"Sainte-Dorothée","review_count":4,"rank":1,"stars":2.5},"geometry":{"coordinates":[-73.7838943559,45.5278543255],"type":"Point"}}
{"type":"Feature","properties":{"business_id":"0PYiFpintM3N3qf9Gdr1Zg","name":"La Roulotte","categories":"Canadian (New), Restaurants","state":"QC","city":"Sainte-Genevieve","review_count":9,"rank":1,"stars":4.5},"geometry":{"coordinates":[-73.8670091,45.4828313],"type":"Point"}}
{"type":"Feature","properties":{"business_id":"SapSZ8x9OQa2iirx-gh6yQ","name":"La Maison Verte","categories":"French, Restaurants, Event Planning & Services, Venues & Event Spaces","state":"QC","city":"Sainte-Geneviève","review_count":10,"rank":1,"stars":4.5},"geometry":{"coordinates":[-73.877733,45.471354],"type":"Point"}}
{"type":"Feature","properties":{"business_id":"M3sOd9i8X5ftmMO1sxfo0w","name":"Ristorante Tevere","categories":"Restaurants, Italian","state":"QC","city":"Sainte-Geneviève","review_count":3,"rank":2,"stars":3.5},"geometry":{"coordinates":[-73.8665884,45.4844126],"type":"Point"}}
{"type":"Feature","properties":{"business_id":"5NWOOCrCUH_FbA6_0NNkdg","name":"Rôtisserie St-Hubert","categories":"Chicken Shop, Barbeque, Restaurants","state":"QC","city":"Piedmont","review_count":5,"rank":1,"stars":3.5},"geometry":{"coordinates":[-74.1460249,45.8900853],"type":"Point"}}
{"type":"Feature","properties":{"business_id":"fPR-REx0FWU0Yd88MhUOlg","name":"Casse-Croute Arc-en-Ciel","categories":"Fast Food, Restaurants, Hot Dogs, Burgers","state":"QC","city":"Piedmont","review_count":3,"rank":2,"stars":4.5},"geometry":{"coordinates":[-74.137659,45.9039941],"type":"Point"}}
{"type":"Feature","properties":{"business_id":"U9IPxzMp4LbdoiBtTzBWLw","name":"Bombay Choupati","categories":"Indian, Restaurants","state":"QC","city":"Pierrefonds","review_count":81,"rank":1,"stars":4.5},"geometry":{"coordinates":[-73.8202876634,45.5083916318],"type":"Point"}}
{"type":"Feature","properties":{"business_id":"G-JLC51yZ536nGb3SQDzVQ","name":"Pho Binh","categories":"Vietnamese, Restaurants","state":"QC","city":"Pierrefonds","review_count":24,"rank":2,"stars":4.0},"geometry":{"coordinates":[-73.8744848,45.4667829],"type":"Point"}}
{"type":"Feature","properties":{"business_id":"sdO4fyWkFsZYHSj6yVwQIg","name":"Palais Shahi","categories":"Restaurants, Indian, Pets, Pakistani","state":"QC","city":"Pierrefonds","review_count":20,"rank":3,"stars":4.5},"geometry":{"coordinates":[-73.8164769,45.5037044],"type":"Point"}}
{"type":"Feature","properties":{"business_id":"Ynk1wrA4ILmAY576hs91pA","name":"L'Etoile de Pincourt","categories":"Pizza, Restaurants","state":"QC","city":"Pincourt","review_count":7,"rank":1,"stars":4.0},"geometry":{"coordinates":[-73.9916806,45.3825974],"type":"Point"}}
{"type":"Feature","properties":{"business_id":"YC7bQXB5qjfcxri-LDKYZw","name":"Tim Horton","categories":"Restaurants, Cafes, Coffee & Tea, Breakfast & Brunch, Food","state":"QC","city":"Pincourt","review_count":3,"rank":2,"stars":1.5},"geometry":{"coordinates":[-73.9929395,45.3833367],"type":"Point"}}
{"type":"Feature","properties":{"business_id":"V0bvQOJKi9FfK-SkWJoNWw","name":"YUM Frozen Yogurt","categories":"Ice Cream & Frozen Yogurt, Food","state":"PA","city":"Pine","review_count":22,"rank":1,"stars":3.0},"geometry":{"coordinates":[-80.0563681,40.6324345],"type":"Point"}}
{"type":"Feature","properties":{"business_id":"aIajaPfbBNER29FT6p7AbQ","name":"McDonald's","categories":"Fast Food, Restaurants, Burgers, Food, Coffee & Tea","state":"QC","city":"Saint-Sauveur-Des-Monts","review_count":3,"rank":1,"stars":1.0},"geometry":{"coordinates":[-74.1487519,45.8915103],"type":"Point"}}
{"type":"Feature","properties":{"business_id":"FsgF4JBv56pNpOT-2kAy8Q","name":"Cosi Cafe","categories":"Restaurants, Cafes","state":"QC","city":"Saint-Sauveur-des-Monts","review_count":4,"rank":1,"stars":2.0},"geometry":{"coordinates":[-74.1583896,45.8932427],"type":"Point"}}
{"type":"Feature","properties":{"business_id":"5dm1MO83RkKYsha6Ya_Hww","name":"Kojax Souvlaki","categories":"Greek, Restaurants, Comfort Food, Food Court","state":"QC","city":"Saint-laurent","review_count":3,"rank":1,"stars":4.0},"geometry":{"coordinates":[-73.7063315728,45.4964525157],"type":"Point"}}
{"type":"Feature","properties":{"business_id":"6enl-4CyN8SupYqM2mqZTw","name":"Microbrasserie Gueule de Loup","categories":"Food, Breweries","state":"QC","city":"Sainte- Adele","review_count":3,"rank":1,"stars":4.5},"geometry":{"coordinates":[-74.1352367,45.9516052],"type":"Point"}}
{"type":"Feature","properties":{"business_id":"Ax0knj61kCXX6eOm_7DT0Q","name":"La Farandole","categories":"Breakfast & Brunch, Caterers, Event Planning & Services, Food, Restaurants, Bakeries","state":"QC","city":"Sainte-Adele","review_count":12,"rank":1,"stars":3.5},"geometry":{"coordinates":[-74.1352122,45.9519897],"type":"Point"}}
{"type":"Feature","properties":{"business_id":"PwSHyuhGQu_YzeoB2dlu3Q","name":"Restaurant Traiteur Recto-Verso","categories":"Restaurants","state":"QC","city":"Sainte-Adele","review_count":5,"rank":2,"stars":4.5},"geometry":{"coordinates":[-74.124379,45.9627867],"type":"Point"}}
{"type":"Feature","properties":{"business_id":"Kbcq3L054KphtMWIySxOSQ","name":"Spago","categories":"Restaurants, Pizza, Italian","state":"QC","city":"Sainte-Adele","review_count":5,"rank":2,"stars":3.0},"geometry":{"coordinates":[-74.136547,45.951542],"type":"Point"}}
