{"type":"Feature","properties":{"business_id":"DOpO2-k_VrVK9AsbmivQfw","name":"IHOP","categories":"Burgers, Breakfast & Brunch, Restaurants, American (Traditional)","state":"AZ","city":"PHOENIX","review_count":49,"rank":1,"stars":2.5},"geometry":{"coordinates":[-112.148909,33.639428],"type":"Point"}}
{"type":"Feature","properties":{"business_id":"hc78bF7jF1BY42F5yQjDDQ","name":"Blimpie","categories":"Restaurants, Sandwiches","state":"AZ","city":"PHOENIX","review_count":27,"rank":2,"stars":4.5},"geometry":{"coordinates":[-111.974141,33.583618],"type":"Point"}}
{"type":"Feature","properties":{"business_id":"wKgbqx6FsFiDQyoICGfawg","name":"Blimpie","categories":"Fast Food, Delis, Sandwiches, Restaurants","state":"AZ","city":"PHOENIX","review_count":15,"rank":3,"stars":1.5},"geometry":{"coordinates":[-112.1429492,33.7139169],"type":"Point"}}
{"type":"Feature","properties":{"business_id":"OeC8N92aFVoCUQ6SolY2zg","name":"Hello Bistro","categories":"Restaurants, Burgers, American (New), Salad","state":"PA","city":"PIttsburgh","review_count":27,"rank":1,"stars":3.5},"geometry":{"coordinates":[-79.7668945,40.4376313],"type":"Point"}}
{"type":"Feature","properties":{"business_id":"9RyEN5mE_Qq10ZfCfUYV9A","name":"The Flying Pig","categories":"American (Traditional), Restaurants, Diners","state":"NV","city":"Pahrump","review_count":8,"rank":1,"stars":4.5},"geometry":{"coordinates":[-115.2122601494,36.220083657],"type":"Point"}}
{"type":"Feature","properties":{"business_id":"wiIVbG2ONHXBa5Vn-Y0fBQ","name":"Redhawk Grille","categories":"Pubs, Burgers, Bars, Nightlife, American (Traditional), Restaurants","state":"OH","city":"Painesville","review_count":120,"rank":1,"stars":3.5},"geometry":{"coordinates":[-81.243134,41.667478],"type":"Point"}}
{"type":"Feature","properties":{"business_id":"YBb-sAYuFv86MGfwQP5Ojg","name":"El Taco Macho","categories":"Fast Food, Latin American, Tacos, Mexican, New Mexican Cuisine, Food, Restaurants, Street Vendors","state":"OH","city":"Painesville","review_count":118,"rank":2,"stars":4.5},"geometry":{"coordinates":[-81.2779645622,41.6963743383],"type":"Point"}}
{"type":"Feature","properties":{"business_id":"Mk7ptSIjvcBPfCLf4PNGWA","name":"El Señor's Tacos","categories":"Mexican, Restaurants","state":"OH","city":"Painesville","review_count":65,"rank":3,"stars":4.5},"geometry":{"coordinates":[-81.240264,41.724179],"type":"Point"}}
{"type":"Feature","properties":{"business_id":"YAs-UVdVYj2ZtFLUaEnsew","name":"j.allen's Grocery Outlets","categories":"Food, Grocery","state":"OH","city":"Painesville Township","review_count":3,"rank":1,"stars":5.0},"geometry":{"coordinates":[-81.2712333,41.7043482],"type":"Point"}}
{"type":"Feature","properties":{"business_id":"SxS_XL_yi9c004nXvBuSjA","name":"Chipotle Mexican Grill","categories":"Restaurants, Mexican, Fast Food","state":"PA","city":"East Liberty","review_count":57,"rank":1,"stars":3.0},"geometry":{"coordinates":[-79.9258472,40.4592912],"type":"Point"}}
{"type":"Feature","properties":{"business_id":"Egwnk84ioGxzx6BsJmWkrw","name":"Garbarinos","categories":"Italian, Restaurants","state":"PA","city":"East Liberty","review_count":29,"rank":2,"stars":4.0},"geometry":{"coordinates":[-79.9270228,40.4605376],"type":"Point"}}
{"type":"Feature","properties":{"business_id":"7j4JCwpULz9oYb2eQb2dNg","name":"Capri Pizzeria and Bar","categories":"Italian, Restaurants, Arts & Entertainment, Pizza, Chicken Wings, Nightlife, Music Venues","state":"PA","city":"East Liberty","review_count":13,"rank":3,"stars":3.0},"geometry":{"coordinates":[-79.9245562,40.4616057],"type":"Point"}}
{"type":"Feature","properties":{"business_id":"2kE_CUc6tUR8FU5bjAO_Ag","name":"R-Time At Rene's","categories":"Nightlife, Restaurants, Cocktail Bars, Mexican, Beer, Wine & Spirits, American (Traditional), Bars, Lounges, Food, Italian, Seafood","state":"PA","city":"East Mc Keesport","review_count":23,"rank":1,"stars":4.0},"geometry":{"coordinates":[-79.8102765,40.3829966],"type":"Point"}}
{"type":"Feature","properties":{"business_id":"0rWZejXV6_iuxTqZg69PUQ","name":"Get Go Fuel Station","categories":"Convenience Stores, Grocery, Gas Stations, Food, Automotive","state":"PA","city":"East Mc Keesport","review_count":7,"rank":2,"stars":2.5},"geometry":{"coordinates":[-79.8113893,40.3807388],"type":"Point"}}
{"type":"Feature","properties":{"business_id":"6MAxxiW4ypEG4XtCyp9U7A","name":"Big Ross Hoagies","categories":"Sandwiches, Restaurants","state":"PA","city":"East Mc Keesport","review_count":7,"rank":2,"stars":4.0},"geometry":{"coordinates":[-79.8079397,40.3800374],"type":"Point"}}
{"type":"Feature","properties":{"business_id":"FLQLCrRlMMsMXOM0sESGWA","name":"Merlinos Pizza","categories":"Restaurants, Salad, Food, Food Delivery Services, Pizza, Sandwiches, Italian","state":"PA","city":"East McKeesport","review_count":9,"rank":1,"stars":3.0},"geometry":{"coordinates":[-79.8098286,40.3830682],"type":"Point"}}
{"type":"Feature","properties":{"business_id":"ADmJgVJ82zdLzffdaH1gVw","name":"Planet Organic Market","categories":"Health Markets, Food, Specialty Food, Organic Stores, Grocery","state":"ON","city":"East Mississauga","review_count":16,"rank":1,"stars":4.0},"geometry":{"coordinates":[-79.580702,43.557103],"type":"Point"}}
{"type":"Feature","properties":{"business_id":"fZadRslL_7WwgZfVD6DYnw","name":"Kar Hing","categories":"Restaurants, Chinese","state":"PA","city":"East Pittsburgh","review_count":15,"rank":1,"stars":4.0},"geometry":{"coordinates":[-79.8406982422,40.4083938599],"type":"Point"}}
{"type":"Feature","properties":{"business_id":"tkjfvkhz2pkXTcJ8ElxTLw","name":"Plaza Lounge","categories":"Nightlife, Lounges, Bars","state":"PA","city":"East Pittsburgh","review_count":4,"rank":2,"stars":3.5},"geometry":{"coordinates":[-79.840072,40.417025],"type":"Point"}}
{"type":"Feature","properties":{"business_id":"aKeH8qrjJICRh1UOqKlzHA","name":"Dollar General","categories":"Food, Shopping, Grocery, Discount Store","state":"PA","city":"East Pittsburgh","review_count":4,"rank":2,"stars":3.0},"geometry":{"coordinates":[-79.8398491813,40.4163362795],"type":"Point"}}
{"type":"Feature","properties":{"business_id":"e-tVn_DJs_t8ZIeM0Sq36w","name":"Bob's Lounge","categories":"Chicken Wings, American (New), Restaurants, Bars, Nightlife","state":"PA","city":"East Pittsburgh","review_count":4,"rank":2,"stars":4.0},"geometry":{"coordinates":[-79.83756,40.414243],"type":"Point"}}
{"type":"Feature","properties":{"business_id":"ts5Vjynp92Uvzyouj0NGFQ","name":"Popeyes Louisiana Kitchen","categories":"Restaurants, Fast Food, Chicken Wings","state":"NV","city":"Nellis AFB","review_count":23,"rank":1,"stars":3.0},"geometry":{"coordinates":[-115.049336,36.235882],"type":"Point"}}
{"type":"Feature","properties":{"business_id":"CukWZHDpnTAXRALZbLWvxw","name":"Papa John's Pizza","categories":"Pizza, Restaurants","state":"NV","city":"Nellis AFB","review_count":18,"rank":2,"stars":2.5},"geometry":{"coordinates":[-115.046445,36.2385481],"type":"Point"}}
{"type":"Feature","properties":{"business_id":"mLNigY641R0Exka68bc_gA","name":"The Club","categories":"Nightlife, Bars, Venues & Event Spaces, Breakfast & Brunch, Restaurants, Event Planning & Services","state":"NV","city":"Nellis AFB","review_count":9,"rank":3,"stars":4.0},"geometry":{"coordinates":[-115.046961,36.241971],"type":"Point"}}
{"type":"Feature","properties":{"business_id":"qqSVpvmWJ6NLRWjU4Z8Odg","name":"Starbucks","categories":"Food, Coffee & Tea","state":"NV","city":"Nellis Afb","review_count":5,"rank":1,"stars":3.0},"geometry":{"coordinates":[-115.050725,36.234365],"type":"Point"}}
{"type":"Feature","properties":{"business_id":"NwUyGwrVOJERJwLpT4o-OA","name":"Boston Market","categories":"Restaurants, Chicken Shop","state":"NV","city":"Nellis Air Force Base","review_count":9,"rank":1,"stars":4.0},"geometry":{"coordinates":[-115.0504914,36.2339074],"type":"Point"}}
{"type":"Feature","properties":{"business_id":"1EnBWu7jizm_NLEvLmFA4Q","name":"Crosswinds Inn Dining Facility","categories":"American (Traditional), Cafeteria, Restaurants","state":"NV","city":"Nellis Air Force Base","review_count":3,"rank":2,"stars":3.0},"geometry":{"coordinates":[-115.0430326,36.2403735],"type":"Point"}}
{"type":"Feature","properties":{"business_id":"LM3DK2j8W8mmD5_zEEku3Q","name":"Paradise Island Bowl and Beach","categories":"Nightlife, Active Life, Bowling, Bars, Beaches","state":"PA","city":"Neville Island","review_count":34,"rank":1,"stars":3.5},"geometry":{"coordinates":[-80.149468,40.516998],"type":"Point"}}
{"type":"Feature","properties":{"business_id":"ykzgSmJpXj5B5xcxPbBwUg","name":"Kings","categories":"American (Traditional), Restaurants, Burgers, Breakfast & Brunch","state":"PA","city":"Neville Island","review_count":21,"rank":2,"stars":3.0},"geometry":{"coordinates":[-80.1332183,40.5130698],"type":"Point"}}
{"type":"Feature","properties":{"business_id":"Wfbk7jzfcVanr7KKyQp8zQ","name":"Hills Restaurant","categories":"Diners, Breakfast & Brunch, Restaurants, American (Traditional)","state":"PA","city":"New Eagle","review_count":18,"rank":1,"stars":4.0},"geometry":{"coordinates":[-79.9407587,40.2072173],"type":"Point"}}
{"type":"Feature","properties":{"business_id":"dtwgOhP498xDsXv2vmdo7g","name":"Pizza Station","categories":"Restaurants, Food, Pizza","state":"PA","city":"New Eagle","review_count":10,"rank":2,"stars":4.0},"geometry":{"coordinates":[-79.9490691,40.2083707],"type":"Point"}}
{"type":"Feature","properties":{"business_id":"hebLCe1P_CVx-Y70qYvfYA","name":"The Twist","categories":"Ice Cream & Frozen Yogurt, Restaurants, Breakfast & Brunch, Food, American (Traditional)","state":"PA","city":"New Eagle","review_count":6,"rank":3,"stars":4.5},"geometry":{"coordinates":[-79.9495123699,40.2086336183],"type":"Point"}}
{"type":"Feature","properties":{"business_id":"8SSUZcJ5-WLIKW81zL6NOw","name":"Will's Doggn' It","categories":"Delis, Restaurants, Sandwiches, Hot Dogs","state":"NC","city":"Ranlo","review_count":41,"rank":1,"stars":4.5},"geometry":{"coordinates":[-81.1332070827,35.2806598656],"type":"Point"}}
{"type":"Feature","properties":{"business_id":"bvZHCeHIOMMzIIANFl2zEA","name":"C & C Kitchen","categories":"Sandwiches, Breakfast & Brunch, Restaurants, Delis, Food, Cafes, Coffee & Tea","state":"IL","city":"Rantoul","review_count":35,"rank":1,"stars":4.5},"geometry":{"coordinates":[-88.1585830406,40.3106540911],"type":"Point"}}
{"type":"Feature","properties":{"business_id":"AZuF4x7_CPZndrMcUQW7mg","name":"Ott's Drive In","categories":"American (Traditional), Restaurants","state":"IL","city":"Rantoul","review_count":31,"rank":2,"stars":4.0},"geometry":{"coordinates":[-88.1554787,40.3145097],"type":"Point"}}
{"type":"Feature","properties":{"business_id":"7eLUaZwipH_uwfvv-_WafQ","name":"Red Wheel Restaurant","categories":"Steakhouses, Restaurants, Breakfast & Brunch","state":"IL","city":"Rantoul","review_count":29,"rank":3,"stars":3.0},"geometry":{"coordinates":[-88.17422,40.30683],"type":"Point"}}
{"type":"Feature","properties":{"business_id":"x3LvDXTKMfUcstPJ6sMvqg","name":"Dos Coronas","categories":"Mexican, Salad, Restaurants","state":"OH","city":"Ravenna","review_count":34,"rank":1,"stars":4.0},"geometry":{"coordinates":[-81.2541719,41.1577649],"type":"Point"}}
{"type":"Feature","properties":{"business_id":"tx7h8kE4nOc1lFwhzvZDXw","name":"Birdie Shack","categories":"Active Life, Mini Golf, Desserts, Golf, Food","state":"OH","city":"Ravenna","review_count":9,"rank":2,"stars":3.5},"geometry":{"coordinates":[-81.3021063,41.158243],"type":"Point"}}
{"type":"Feature","properties":{"business_id":"dN4it9rxcfOVe280CamyPg","name":"Papa John's Pizza","categories":"Pizza, Restaurants","state":"OH","city":"Ravenna","review_count":4,"rank":3,"stars":2.0},"geometry":{"coordinates":[-81.261455,41.1588926],"type":"Point"}}
{"type":"Feature","properties":{"business_id":"37ZOiElpUXSrYyNpBn3HNQ","name":"La Lanterne","categories":"Canadian (New), Restaurants, Caribbean","state":"QC","city":"Rawdon","review_count":5,"rank":1,"stars":3.0},"geometry":{"coordinates":[-73.706638,46.042273],"type":"Point"}}
{"type":"Feature","properties":{"business_id":"Da62eopEzU1Rd9rmrIZpIA","name":"Les Copains d'Abord","categories":"French, Local Flavor, Restaurants, Creperies","state":"QC","city":"Rawdon","review_count":3,"rank":2,"stars":5.0},"geometry":{"coordinates":[-73.703425,46.043268],"type":"Point"}}
{"type":"Feature","properties":{"business_id":"SdL1nqANB-UVklmBHjGgLA","name":"Corner Pub","categories":"Pubs, Nightlife, Bars, Restaurants","state":"WI","city":"Reedsburg","review_count":14,"rank":1,"stars":4.0},"geometry":{"coordinates":[-89.2760620117,43.0802230835],"type":"Point"}}
{"type":"Feature","properties":{"business_id":"IdMz94Qd1DkpdYlD1O-5rw","name":"Décarie Hot Dogs","categories":"Restaurants, Burgers, Poutineries, Hot Dogs","state":"QC","city":"Saint-Laurent","review_count":88,"rank":1,"stars":4.0},"geometry":{"coordinates":[-73.6814824,45.5136173],"type":"Point"}}
{"type":"Feature","properties":{"business_id":"zzlZJVkEhOzR2tJOLHcF2A","name":"Maison Mignon","categories":"Taiwanese, Restaurants","state":"QC","city":"Saint-Laurent","review_count":43,"rank":2,"stars":4.0},"geometry":{"coordinates":[-73.677381,45.512144],"type":"Point"}}
{"type":"Feature","properties":{"business_id":"vf8MlA3N-nSCawo_9ZS3hw","name":"Pho Moderne","categories":"Vietnamese, Restaurants, Soup","state":"QC","city":"Saint-Laurent","review_count":40,"rank":3,"stars":4.0},"geometry":{"coordinates":[-73.6802011347,45.5123997587],"type":"Point"}}
{"type":"Feature","properties":{"business_id":"vIXMs0oxxY0-XLP2Osmzhw","name":"Mon Village Restaurant","categories":"Pubs, Bars, Nightlife, Canadian (New), Restaurants","state":"QC","city":"Saint-Lazare","review_count":32,"rank":1,"stars":4.0},"geometry":{"coordinates":[-74.175106,45.436635],"type":"Point"}}
{"type":"Feature","properties":{"business_id":"CCZrbW_8majCaFqni_OasA","name":"Epazote & Haricot","categories":"Food Delivery Services, Breakfast & Brunch, Event Planning & Services, Restaurants, Food, Caterers, Mexican, Coffee & Tea","state":"QC","city":"Saint-Lazare","review_count":8,"rank":2,"stars":5.0},"geometry":{"coordinates":[-74.1758324951,45.4284330828],"type":"Point"}}
{"type":"Feature","properties":{"business_id":"jTfUQxVzL1x7meAwkAgaxA","name":"Restaurant Bravo St-Lazare Pizzeria","categories":"Restaurants, Pizza","state":"QC","city":"Saint-Lazare","review_count":8,"rank":2,"stars":3.0},"geometry":{"coordinates":[-74.1379257,45.4002537],"type":"Point"}}
{"type":"Feature","properties":{"business_id":"hfzkyrcsEaRcQZoaTAt8ww","name":"Restaurant Phuket","categories":"Thai, Restaurants, Asian Fusion, Sushi Bars","state":"QC","city":"Saint-Leonard","review_count":18,"rank":1,"stars":4.0},"geometry":{"coordinates":[-73.5980355,45.5773657],"type":"Point"}}
{"type":"Feature","properties":{"business_id":"oRgFI-3KokA5C1xLqEkyPw","name":"Rockaberry","categories":"Coffee & Tea, Desserts, Restaurants, Comfort Food, Food","state":"QC","city":"Saint-Leonard","review_count":13,"rank":2,"stars":4.0},"geometry":{"coordinates":[-73.5698141,45.5905131],"type":"Point"}}
{"type":"Feature","properties":{"business_id":"i2TYogz_bCqCT9-0LtN8Dw","name":"Rôtisserie Scores","categories":"Chicken Shop, Restaurants, Canadian (New), Barbeque","state":"QC","city":"Saint-Leonard","review_count":10,"rank":3,"stars":3.0},"geometry":{"coordinates":[-73.573899,45.594185],"type":"Point"}}
{"type":"Feature","properties":{"business_id":"1zSIPwgzyR-OfMCVngsbtQ","name":"The Scoreboard","categories":"Nightlife, Bars, Pubs, Lounges, American (Traditional), Restaurants","state":"AB","city":"Medicine Hat","review_count":3,"rank":1,"stars":2.5},"geometry":{"coordinates":[-73.568619,45.502963],"type":"Point"}}
{"type":"Feature","properties":{"business_id":"-GOsHrWPC0meDRgkCEgC8w","name":"TWIISTED Burgers & Sushi","categories":"American (New), Sushi Bars, Burgers, Bars, American (Traditional), Nightlife, Restaurants, Breakfast & Brunch","state":"OH","city":"Medina","review_count":230,"rank":1,"stars":4.0},"geometry":{"coordinates":[-81.864609,41.153419],"type":"Point"}}
{"type":"Feature","properties":{"business_id":"7JOo6MO-bJMhfXobJG7SRQ","name":"Timber Lodge","categories":"Steakhouses, Seafood, Restaurants, American (Traditional)","state":"OH","city":"Medina","review_count":210,"rank":2,"stars":3.5},"geometry":{"coordinates":[-81.841278,41.198189],"type":"Point"}}
{"type":"Feature","properties":{"business_id":"tFCqpc9gvCtNVNOssJGa2Q","name":"Lagerheads","categories":"Barbeque, Restaurants","state":"OH","city":"Medina","review_count":159,"rank":3,"stars":4.0},"geometry":{"coordinates":[-81.8871139,41.1971333],"type":"Point"}}
{"type":"Feature","properties":{"business_id":"mQa_Rh-LykYTll9cPFJcKg","name":"Denny's","categories":"Specialty Food, Fast Food, American (Traditional), Fruits & Veggies, Restaurants, Diners, Food, Breakfast & Brunch","state":"OH","city":"Medina Township","review_count":21,"rank":1,"stars":3.5},"geometry":{"coordinates":[-81.798726,41.1368463],"type":"Point"}}
{"type":"Feature","properties":{"business_id":"tsx0bZbS4ciySrHZr8EFmw","name":"Melt Bar and Grilled","categories":"American (New), Beer, Wine & Spirits, Sandwiches, Comfort Food, American (Traditional), Restaurants, Food","state":"OH","city":"Mentor","review_count":211,"rank":1,"stars":4.0},"geometry":{"coordinates":[-81.3807544,41.6516659],"type":"Point"}}
{"type":"Feature","properties":{"business_id":"nybEvSB5y3deFPOP7rE46A","name":"Pastina Rustic Italian","categories":"Bars, Italian, Nightlife, Wine Bars, Cocktail Bars, Restaurants","state":"OH","city":"Mentor","review_count":158,"rank":2,"stars":4.0},"geometry":{"coordinates":[-81.30492948,41.6781850213],"type":"Point"}}
{"type":"Feature","properties":{"business_id":"nEMUUOvFB2Vi90uiF4rlCg","name":"Scooter's World Famous Dawg House","categories":"American (New), Food, Hot Dogs, Ice Cream & Frozen Yogurt, Restaurants","state":"OH","city":"Mentor","review_count":148,"rank":3,"stars":4.5},"geometry":{"coordinates":[-81.2944842269,41.7244786781],"type":"Point"}}
{"type":"Feature","properties":{"business_id":"8e5GF8w7rU6NKMPnh8JTjQ","name":"Hardy's Kitchen & Catering","categories":"Sandwiches, American (Traditional), American (New), Burgers, Chicken Wings, Restaurants","state":"OH","city":"Richmond Hts","review_count":8,"rank":1,"stars":4.5},"geometry":{"coordinates":[-81.4960748,41.5395662],"type":"Point"}}
{"type":"Feature","properties":{"business_id":"GWw20eZdI3jTlqJK0ClIWw","name":"Bachelor's II Lounge","categories":"Bars, Lounges, Nightlife","state":"OH","city":"Richmond Hts","review_count":3,"rank":2,"stars":4.0},"geometry":{"coordinates":[-81.495784,41.576726],"type":"Point"}}
{"type":"Feature","properties":{"business_id":"jyAhu2jqSMBoeJi-KQ5lZw","name":"Wendy's","categories":"Burgers, Fast Food, Restaurants","state":"OH","city":"Richmond Hts.","review_count":17,"rank":1,"stars":2.0},"geometry":{"coordinates":[-81.497616,41.5380238],"type":"Point"}}
{"type":"Feature","properties":{"business_id":"RegFo3YBn2AyKHFZ61SYfQ","name":"Sucrerie de la Montagne","categories":"Restaurants, Specialty Food, Canadian (New), Food","state":"QC","city":"Rigaud","review_count":28,"rank":1,"stars":3.5},"geometry":{"coordinates":[-74.3057589083,45.4545429992],"type":"Point"}}
{"type":"Feature","properties":{"business_id":"cxv3i8WQYs37WtvbDJtfhw","name":"Restaurant Rube","categories":"Canadian (New), Restaurants, Seafood, Steakhouses","state":"QC","city":"Rigaud","review_count":8,"rank":2,"stars":4.0},"geometry":{"coordinates":[-74.2293134,45.4508299],"type":"Point"}}
{"type":"Feature","properties":{"business_id":"PU6w0HlUmpZXxlbc31gqTQ","name":"Tim Hortons","categories":"Restaurants, Food, Donuts, Coffee & Tea, Cafes, Breakfast & Brunch, Sandwiches","state":"QC","city":"Rigaud","review_count":5,"rank":3,"stars":3.0},"geometry":{"coordinates":[-74.2264554,45.4611561],"type":"Point"}}
{"type":"Feature","properties":{"business_id":"VTdnlbOkEKWSsu_pzhInTA","name":"McNally's Cafe & 6 Pack Shoppe","categories":"Local Flavor, Restaurants, American (Traditional), Breakfast & Brunch, Sandwiches","state":"PA","city":"Rillton","review_count":12,"rank":1,"stars":4.5},"geometry":{"coordinates":[-79.7261849,40.2856077],"type":"Point"}}
{"type":"Feature","properties":{"business_id":"ZPwhlE8KXUruDnm85TukKw","name":"Needle Rock Kitchen and Tap","categories":"Bars, Pizza, Restaurants, Sandwiches, Nightlife, American (New), Cocktail Bars, Wraps","state":"AZ","city":"Rio Verde","review_count":36,"rank":1,"stars":4.0},"geometry":{"coordinates":[-111.702802,33.746873],"type":"Point"}}
{"type":"Feature","properties":{"business_id":"hIF6vmLGvBgjpit1NNjDGw","name":"Tatlows Broiler Bar","categories":"Beer, Wine & Spirits, Canadian (New), Breakfast & Brunch, Bars, Restaurants, American (Traditional), Food, Nightlife","state":"ON","city":"River Drive Park","review_count":16,"rank":1,"stars":4.5},"geometry":{"coordinates":[-79.5107264822,44.1254739657],"type":"Point"}}
{"type":"Feature","properties":{"business_id":"FhLkJcFWZmljl9DtmVb_Bw","name":"Dic Ann's","categories":"Fast Food, Burgers, Restaurants","state":"QC","city":"Montréal-Nord","review_count":24,"rank":1,"stars":4.0},"geometry":{"coordinates":[-73.6379367,45.5911236],"type":"Point"}}
{"type":"Feature","properties":{"business_id":"nMK88o5qijYTFi2WjqcIZQ","name":"Buona Sera","categories":"Restaurants, Italian, Pizza","state":"QC","city":"Montréal-Nord","review_count":6,"rank":2,"stars":3.0},"geometry":{"coordinates":[-73.6262883177,45.6049978713],"type":"Point"}}
{"type":"Feature","properties":{"business_id":"0D5LlGHJk-5NSSirPmLv-Q","name":"Trattoria Del Sud","categories":"Italian, Restaurants, Canadian (New)","state":"QC","city":"Montréal-Nord","review_count":5,"rank":3,"stars":4.0},"geometry":{"coordinates":[-73.6298818,45.5974693],"type":"Point"}}
{"type":"Feature","properties":{"business_id":"kfpaN4ookWht6XgJjGhHkg","name":"Burger de Ville","categories":"Burgers, Steakhouses, Filipino, Restaurants, Barbeque","state":"QC","city":"Montréal-Ouest","review_count":56,"rank":1,"stars":3.5},"geometry":{"coordinates":[-73.6459719,45.4532844],"type":"Point"}}
{"type":"Feature","properties":{"business_id":"0zabNTBrOgQLy0hYsi1Tpg","name":"Montréal Crêpes et Dumplings Chinois","categories":"Restaurants, Creperies, Chinese, Asian Fusion","state":"QC","city":"Montréal-Ouest","review_count":11,"rank":2,"stars":4.5},"geometry":{"coordinates":[-73.645094,45.45298],"type":"Point"}}
{"type":"Feature","properties":{"business_id":"CJqAQwalDOVoXBKDprIPug","name":"Chicago Pizza","categories":"Restaurants, Pizza","state":"QC","city":"Montréal-Ouest","review_count":7,"rank":3,"stars":2.5},"geometry":{"coordinates":[-73.646034,45.453018],"type":"Point"}}
{"type":"Feature","properties":{"business_id":"BV2pu4RpRr4XdcZd3dI3_A","name":"Pochiche","categories":"Sandwiches, Middle Eastern, Lebanese, Restaurants, Vegetarian, Mediterranean, Falafel, Vegan","state":"QC","city":"Montréal-West","review_count":6,"rank":1,"stars":3.0},"geometry":{"coordinates":[-73.646031,45.453015],"type":"Point"}}
{"type":"Feature","properties":{"business_id":"E79x4OB0G2BaSPytwDDCRg","name":"Le Planète","categories":"Wine Bars, Bars, Italian, Nightlife, Burgers, Salad, Restaurants, Canadian (New)","state":"QC","city":"Montéal","review_count":8,"rank":1,"stars":3.0},"geometry":{"coordinates":[-73.5543287,45.5206504],"type":"Point"}}
{"type":"Feature","properties":{"business_id":"jH19V2I9fIslnNhDzPmdkA","name":"Sandi's Kountry Kitchen","categories":"Diners, American (Traditional), Restaurants, Breakfast & Brunch, Sandwiches","state":"NY","city":"Mooers","review_count":10,"rank":1,"stars":5.0},"geometry":{"coordinates":[-73.5924597,44.9597306],"type":"Point"}}
{"type":"Feature","properties":{"business_id":"QqGMtc24VdCzYAajw1g4bA","name":"The Original Pancake House","categories":"Breakfast & Brunch, Restaurants","state":"PA","city":"Green Tree","review_count":106,"rank":1,"stars":3.5},"geometry":{"coordinates":[-80.0738196549,40.391166505],"type":"Point"}}
{"type":"Feature","properties":{"business_id":"pS1NtKoIiQ10fJX6YsBUbw","name":"The Melting Pot","categories":"Restaurants, Food, Fondue, American (New), Desserts","state":"NV","city":"Green Valley","review_count":14,"rank":1,"stars":4.0},"geometry":{"coordinates":[-115.1189425,36.0265303],"type":"Point"}}
{"type":"Feature","properties":{"business_id":"mK1kyseJjZgYCtzGByYfyA","name":"Jack Astor's Bar & Grill","categories":"Nightlife, Canadian (New), Bars, Pubs, Burgers, American (Traditional), Restaurants, Sports Bars","state":"QC","city":"Greenfield Park","review_count":29,"rank":1,"stars":3.0},"geometry":{"coordinates":[-73.4778727759,45.4912186491],"type":"Point"}}
{"type":"Feature","properties":{"business_id":"8EMU7d4pCkdqUnvlIW40CA","name":"Krispy Kreme Doughnuts","categories":"Food, Donuts","state":"QC","city":"Greenfield Park","review_count":23,"rank":2,"stars":4.0},"geometry":{"coordinates":[-73.463786,45.48492],"type":"Point"}}
{"type":"Feature","properties":{"business_id":"KpOIEyVlCGfoJA3iO6E2kQ","name":"Uni Sushi","categories":"Restaurants, Sushi Bars, Japanese","state":"QC","city":"Greenfield Park","review_count":21,"rank":3,"stars":4.5},"geometry":{"coordinates":[-73.467674,45.484529],"type":"Point"}}
{"type":"Feature","properties":{"business_id":"zlyq3TSd6Mpdr0RA_Ub2LQ","name":"Au Vieux Duluth","categories":"Restaurants, Seafood, Barbeque, Greek","state":"QC","city":"Greenfield-Park","review_count":3,"rank":1,"stars":2.5},"geometry":{"coordinates":[-73.4656517,45.482039],"type":"Point"}}
{"type":"Feature","properties":{"business_id":"8cF9YBFa-TkbAGfO81P4pg","name":"Ash & Kris Kitchen","categories":"Food, Sandwiches, Desserts, Mediterranean, Food Trucks, Restaurants","state":"PA","city":"Greensburg","review_count":4,"rank":1,"stars":3.5},"geometry":{"coordinates":[-79.953824,40.4366326],"type":"Point"}}
{"type":"Feature","properties":{"business_id":"X3NMHQqicl2ARwIjwNFERQ","name":"Waffle House","categories":"Breakfast & Brunch, Restaurants, Diners, Waffles, American (Traditional)","state":"AZ","city":"Guadalupe","review_count":160,"rank":1,"stars":3.0},"geometry":{"coordinates":[-111.9664326,33.3777627],"type":"Point"}}
{"type":"Feature","properties":{"business_id":"fZzgTEHDElm_R6gsYxmeBw","name":"San Diego Bay Restaurant","categories":"Restaurants, Mexican, Seafood","state":"AZ","city":"Guadalupe","review_count":102,"rank":2,"stars":4.0},"geometry":{"coordinates":[-111.962867,33.363353],"type":"Point"}}
{"type":"Feature","properties":{"business_id":"E3ODMVUoz27BJ17r58E-5g","name":"Popeyes Louisiana Kitchen","categories":"American (Traditional), Chicken Wings, Fast Food, Restaurants","state":"AZ","city":"Guadalupe","review_count":44,"rank":3,"stars":2.5},"geometry":{"coordinates":[-111.964622,33.377699],"type":"Point"}}
{"type":"Feature","properties":{"business_id":"H0xkoPI-WwbjY7r-Zt-arw","name":"Crave American Kitchen & Sushi Bar","categories":"Restaurants, Sushi Bars, Food, Desserts, American (New), Gluten-Free","state":"NV","city":"Summerlin","review_count":623,"rank":1,"stars":3.0},"geometry":{"coordinates":[-115.3328087367,36.1510974636],"type":"Point"}}
{"type":"Feature","properties":{"business_id":"JCWVuG4B4hvYoRg3EHA88w","name":"Zero Degrees","categories":"Restaurants, Juice Bars & Smoothies, Bubble Tea, Fast Food, Food","state":"NV","city":"Summerlin","review_count":151,"rank":2,"stars":4.0},"geometry":{"coordinates":[-115.2972443,36.124721],"type":"Point"}}
{"type":"Feature","properties":{"business_id":"ZD7ILpg1xsYoa3xCZus1uw","name":"Carluccio's","categories":"Italian, Restaurants","state":"NV","city":"Summerlin South","review_count":3,"rank":1,"stars":2.5},"geometry":{"coordinates":[-115.3151822,36.100263],"type":"Point"}}
{"type":"Feature","properties":{"business_id":"PNzir9TtJAD7U41GwR98-w","name":"Line Thai Restaurant","categories":"Thai, Restaurants","state":"AZ","city":"Sun City","review_count":238,"rank":1,"stars":4.0},"geometry":{"coordinates":[-112.270825,33.637504],"type":"Point"}}
{"type":"Feature","properties":{"business_id":"gRsMPQ8T44cEg2jnvS3omg","name":"Benny's Burgers & BBQ","categories":"Hot Dogs, American (Traditional), Burgers, Barbeque, Restaurants","state":"AZ","city":"Sun City","review_count":178,"rank":2,"stars":4.0},"geometry":{"coordinates":[-112.2743391366,33.6371946379],"type":"Point"}}
{"type":"Feature","properties":{"business_id":"rIhu4bA2CmSicOSJmTpGug","name":"New York West Pastry & Bake Shop","categories":"Restaurants, Food, Bakeries","state":"AZ","city":"Sun City","review_count":160,"rank":3,"stars":4.0},"geometry":{"coordinates":[-112.2775053978,33.5986960791],"type":"Point"}}
{"type":"Feature","properties":{"business_id":"oNptGQ-jHp4NG1HzO8I4_A","name":"Rosie's Italian Cafe","categories":"Italian, Restaurants","state":"AZ","city":"Sun City West","review_count":73,"rank":1,"stars":4.0},"geometry":{"coordinates":[-112.3614479,33.6582332],"type":"Point"}}
{"type":"Feature","properties":{"business_id":"-YUq9cyBDncEIDf5aUEGhw","name":"Hole 'n One","categories":"Barbeque, Restaurants, Breakfast & Brunch, American (Traditional)","state":"AZ","city":"Sun City West","review_count":71,"rank":2,"stars":4.0},"geometry":{"coordinates":[-112.3534643,33.6550266],"type":"Point"}}
{"type":"Feature","properties":{"business_id":"ieMz5kx4JFm0g0bmPzCC-A","name":"Nan Jing","categories":"Seafood, Restaurants, Chinese","state":"AZ","city":"Sun City West","review_count":66,"rank":3,"stars":3.0},"geometry":{"coordinates":[-112.355285791,33.6547866112],"type":"Point"}}
{"type":"Feature","properties":{"business_id":"zuomeUrtQzmmb8NJT4snrw","name":"Kim Heng","categories":"Restaurants, Asian Fusion, Chinese","state":"QC","city":"Sainte-Rose","review_count":3,"rank":1,"stars":3.5},"geometry":{"coordinates":[-73.7889851991,45.5979348625],"type":"Point"}}
{"type":"Feature","properties":{"business_id":"keiz3OBexkQ1gOZ7Ejl1Sg","name":"St-Charles Steak House","categories":"Restaurants, Steakhouses","state":"QC","city":"Sainte-Therese","review_count":3,"rank":1,"stars":3.5},"geometry":{"coordinates":[-73.8623392,45.6441888],"type":"Point"}}
{"type":"Feature","properties":{"business_id":"TP_tH4z4nm8oYUk_at0fMg","name":"Sushi Shop Rosemère","categories":"Sushi Bars, Restaurants, French","state":"QC","city":"Sainte-Therese","review_count":3,"rank":1,"stars":3.0},"geometry":{"coordinates":[-73.802502,45.623161],"type":"Point"}}
{"type":"Feature","properties":{"business_id":"Tn-nW7cqMqtocJWMXddIAw","name":"Restaurant L'ardoise","categories":"Restaurants, Canadian (New)","state":"QC","city":"Sainte-Thérèse","review_count":14,"rank":1,"stars":4.5},"geometry":{"coordinates":[-73.8401337,45.6474493],"type":"Point"}}
{"type":"Feature","properties":{"business_id":"55frSWq_Thx5iqN-S1Wd7w","name":"DEUX","categories":"Bars, Wine Bars, Comfort Food, Cafes, Tapas/Small Plates, Breakfast & Brunch, Restaurants, Nightlife, Tapas Bars, Food, French, Coffee & Tea","state":"QC","city":"Sainte-Thérèse","review_count":11,"rank":2,"stars":4.5},"geometry":{"coordinates":[-73.8418159,45.6393523],"type":"Point"}}
{"type":"Feature","properties":{"business_id":"XaA7ZLLCHg1VSgIv4W9oUw","name":"Les Allumées","categories":"Internet Cafes, Food, Cafes, Restaurants","state":"QC","city":"Sainte-Thérèse","review_count":11,"rank":2,"stars":4.5},"geometry":{"coordinates":[-73.8431036271,45.639761054],"type":"Point"}}
{"type":"Feature","properties":{"business_id":"bwE6ur74Gd4BTaXBHudsCQ","name":"Pomme Frite","categories":"Restaurants, Burgers, Fast Food","state":"QC","city":"Sainte-Thérèse-de-Blainville","review_count":10,"rank":1,"stars":4.5},"geometry":{"coordinates":[-73.8422780111,45.6394669309],"type":"Point"}}
{"type":"Feature","properties":{"business_id":"6DAASOZFUcHoZsRYxLF4SA","name":"Prohibition Bar a Biere","categories":"Restaurants, Pubs, Bars, Nightlife","state":"QC","city":"Sainte-Thérèse-de-Blainville","review_count":4,"rank":2,"stars":4.0},"geometry":{"coordinates":[-73.8428715,45.6397232],"type":"Point"}}
{"type":"Feature","properties":{"business_id":"uQ_W-peACo9W_jWK_kxjZg","name":"Makisu","categories":"Sushi Bars, Restaurants, Japanese, Vietnamese","state":"QC","city":"Sainte-thérèse","review_count":5,"rank":1,"stars":4.0},"geometry":{"coordinates":[-73.8410919407,45.6477448078],"type":"Point"}}
{"type":"Feature","properties":{"business_id":"ggOTDd1liUH_I25YT5qIWA","name":"Enoteca Monza","categories":"Restaurants, Pizza, Italian","state":"QC","city":"Saintt-Bruno-de-Montarville","review_count":7,"rank":1,"stars":4.5},"geometry":{"coordinates":[-73.3764710898,45.5021438918],"type":"Point"}}
{"type":"Feature","properties":{"business_id":"alfg8YykqggAUbeyd2nzmw","name":"Insurrection AleWorks","categories":"Nightlife, Bars, Breweries, American (Traditional), Food, Restaurants","state":"PA","city":"Heidelberg","review_count":124,"rank":1,"stars":4.5},"geometry":{"coordinates":[-80.0874269,40.3924666],"type":"Point"}}
{"type":"Feature","properties":{"business_id":"dYlBcBLp3KY5Tc78d8k0ow","name":"Brick N' Mortar Kitchen & Catering","categories":"Sandwiches, Restaurants, Burgers, Pizza, Food Trucks, Event Planning & Services, Hot Dogs, Salad, Caterers, Food","state":"PA","city":"Heidelberg","review_count":113,"rank":2,"stars":4.5},"geometry":{"coordinates":[-80.0876455,40.3915327],"type":"Point"}}
{"type":"Feature","properties":{"business_id":"gFsiHkTKeQ3Vt0o3Bs7oXw","name":"Herk's Pizza","categories":"Pizza, Restaurants","state":"PA","city":"Heidelberg","review_count":12,"rank":3,"stars":4.5},"geometry":{"coordinates":[-80.089117,40.38852],"type":"Point"}}
{"type":"Feature","properties":{"business_id":"pphZcn6M_UmatRtVjgJM1w","name":"Burger Bob","categories":"Burgers, Restaurants, Poutineries, Fast Food","state":"QC","city":"Hemmingford","review_count":5,"rank":1,"stars":4.0},"geometry":{"coordinates":[-73.5855202008,45.0529115987],"type":"Point"}}
{"type":"Feature","properties":{"business_id":"s8X2eXxdsFdg88wGP8Kbxw","name":"Witsend","categories":"Nightlife, Restaurants, Irish","state":"QC","city":"Hemmingford","review_count":5,"rank":1,"stars":4.0},"geometry":{"coordinates":[-73.5881044,45.0453573],"type":"Point"}}
{"type":"Feature","properties":{"business_id":"-F-M534mGht4I0H9dqlR9w","name":"Vergers Écologiques Philion","categories":"Food, Specialty Food, Arts & Entertainment, Wine Tasting Room, Local Flavor, Farms, Fruits & Veggies, Wineries","state":"QC","city":"Hemmingford","review_count":3,"rank":3,"stars":4.5},"geometry":{"coordinates":[-73.6099076976,45.0475777225],"type":"Point"}}
{"type":"Feature","properties":{"business_id":"5pOquN3q0CjQDTQRru-Tkw","name":"Cafe Hemmingford (Le)","categories":"Restaurants","state":"QC","city":"Hemmingford","review_count":3,"rank":3,"stars":5.0},"geometry":{"coordinates":[-73.58875,45.0450977],"type":"Point"}}
{"type":"Feature","properties":{"business_id":"LNGBEEelQx4zbfWnlc66cw","name":"Studio B Buffet","categories":"Desserts, Seafood, Specialty Food, Food, Restaurants, Buffets","state":"NV","city":"Henderson","review_count":2456,"rank":1,"stars":4.0},"geometry":{"coordinates":[-115.1679801,35.9650723],"type":"Point"}}
{"type":"Feature","properties":{"business_id":"eLFfWcdb7VkqNyTONksHiQ","name":"Gen Korean BBQ House","categories":"Buffets, Restaurants, Korean, Barbeque","state":"NV","city":"Henderson","review_count":2334,"rank":2,"stars":4.0},"geometry":{"coordinates":[-115.0424710484,36.0667760026],"type":"Point"}}
{"type":"Feature","properties":{"business_id":"TCoBE_BkDRrK0bWrh5VueQ","name":"Taco Y Taco","categories":"Mexican, Restaurants, Vegetarian","state":"NV","city":"Henderson","review_count":1442,"rank":3,"stars":4.0},"geometry":{"coordinates":[-115.1178946994,36.0175605896],"type":"Point"}}
{"type":"Feature","properties":{"business_id":"110iMPMPEEjFlf8HKVq84g","name":"131 MAIN Restaurant","categories":"Restaurants, American (New), American (Traditional), Seafood, Steakhouses","state":"NC","city":"Blakeney","review_count":352,"rank":1,"stars":4.0},"geometry":{"coordinates":[-80.808977,35.034145],"type":"Point"}}
{"type":"Feature","properties":{"business_id":"XXsZUNkdGxy_0_Jy4AYLhg","name":"Alta Via","categories":"Italian, Restaurants, American (New)","state":"PA","city":"Blawnox","review_count":76,"rank":1,"stars":4.0},"geometry":{"coordinates":[-79.882604,40.4883704],"type":"Point"}}
{"type":"Feature","properties":{"business_id":"mHvPsn0FMc_lg7rH4wvTfA","name":"Maenam Thai Restaurant","categories":"Thai, Restaurants","state":"PA","city":"Blawnox","review_count":51,"rank":2,"stars":5.0},"geometry":{"coordinates":[-79.8613549,40.4935685],"type":"Point"}}
{"type":"Feature","properties":{"business_id":"WxHgUs1JDtubttO3MkQR_Q","name":"Nonni's Pizza","categories":"Pizza, Restaurants, Soup, Chicken Wings","state":"PA","city":"Blawnox","review_count":15,"rank":3,"stars":3.0},"geometry":{"coordinates":[-79.8630663,40.4926174],"type":"Point"}}
{"type":"Feature","properties":{"business_id":"4DQ4lTgPz1oaaPLxRtkFQQ","name":"Ilario's Trattoria and Vino's Pub","categories":"Restaurants, Pubs, Nightlife, Italian, Bars","state":"PA","city":"Bloomfield","review_count":4,"rank":1,"stars":4.0},"geometry":{"coordinates":[-79.948524,40.461152],"type":"Point"}}
{"type":"Feature","properties":{"business_id":"Em0MDcxhSYZm7JVpR6WyJA","name":"Bonnie Springs Ranch","categories":"Zoos, Vacation Rentals, Horseback Riding, Active Life, Museums, Public Services & Government, Landmarks & Historical Buildings, Arts & Entertainment, Hotels & Travel, Pets, Event Planning & Services, Animal Shelters, Party & Event Planning, Venues & Event Spaces, Restaurants","state":"NV","city":"Blue Diamond","review_count":288,"rank":1,"stars":3.5},"geometry":{"coordinates":[-115.4529676196,36.0589679524],"type":"Point"}}
{"type":"Feature","properties":{"business_id":"sV2SXZF2ZySzYyMP5hMybw","name":"Cottonwood Station Eatery","categories":"Coffee & Tea, Pizza, Food, Bakeries, Sandwiches, Restaurants","state":"NV","city":"Blue Diamond","review_count":121,"rank":2,"stars":4.5},"geometry":{"coordinates":[-115.4071073,36.0468381],"type":"Point"}}
{"type":"Feature","properties":{"business_id":"rZUK25ho_Wmgv5tRAs7LMA","name":"Bonnie Springs Ranch Resort","categories":"Event Planning & Services, Venues & Event Spaces, Tours, Zoos, Hotels & Travel, Active Life, Restaurants, Barbeque","state":"NV","city":"Blue Diamond","review_count":93,"rank":3,"stars":3.5},"geometry":{"coordinates":[-115.4354310036,36.0657173614],"type":"Point"}}
{"type":"Feature","properties":{"business_id":"1I-x7VBy2GIHkCEDhOt0vA","name":"Caviar Sushi","categories":"Asian Fusion, Restaurants, Japanese, Sushi Bars","state":"QC","city":"Bois-des-Filion","review_count":4,"rank":1,"stars":3.0},"geometry":{"coordinates":[-73.7582051,45.6660123],"type":"Point"}}
{"type":"Feature","properties":{"business_id":"V629-yaXMAaqerbwoVVWXA","name":"Nubo Sushi","categories":"Restaurants, Sushi Bars","state":"QC","city":"Bois-des-Filion","review_count":3,"rank":2,"stars":3.0},"geometry":{"coordinates":[-73.7566170581,45.6676136872],"type":"Point"}}
{"type":"Feature","properties":{"business_id":"n-6NSy9JxV8qzNGlJ5OKYQ","name":"The Pickle Barrel","categories":"Canadian (New), Restaurants, Delis, American (New)","state":"ON","city":"Etibicoke","review_count":88,"rank":1,"stars":2.5},"geometry":{"coordinates":[-79.557183,43.6116933],"type":"Point"}}
{"type":"Feature","properties":{"business_id":"y9n2sy0gsmnAE-yiemhbtg","name":"Alioto's","categories":"Italian, Restaurants, Nightlife, Bars","state":"PA","city":"Etna","review_count":50,"rank":1,"stars":2.5},"geometry":{"coordinates":[-79.9488868,40.5036789],"type":"Point"}}
{"type":"Feature","properties":{"business_id":"hMH0K8ASyvUcK1dhvIRC-A","name":"The Shiny Bean","categories":"Coffee & Tea, Food","state":"PA","city":"Etna","review_count":25,"rank":2,"stars":4.5},"geometry":{"coordinates":[-79.9447659,40.4962795],"type":"Point"}}
{"type":"Feature","properties":{"business_id":"AfBmTieD9rNsas2VLMy-EQ","name":"Dunkin'","categories":"Coffee & Tea, Donuts, Food","state":"PA","city":"Etna","review_count":16,"rank":3,"stars":2.5},"geometry":{"coordinates":[-79.9482619,40.5115427],"type":"Point"}}
{"type":"Feature","properties":{"business_id":"UoiCvv12IfweIieRewC9pA","name":"Exit4pizza","categories":"Pizza, Restaurants","state":"PA","city":"Etna","review_count":16,"rank":3,"stars":4.5},"geometry":{"coordinates":[-79.9485199526,40.493369897],"type":"Point"}}
{"type":"Feature","properties":{"business_id":"l-Zjik0MbpabQPv-nNp9YQ","name":"Sanremo Bakery","categories":"Food, Coffee & Tea, Bakeries, Delis, Italian, Restaurants","state":"ON","city":"Etobicoke","review_count":403,"rank":1,"stars":4.5},"geometry":{"coordinates":[-79.4996952,43.6185225],"type":"Point"}}
{"type":"Feature","properties":{"business_id":"Pprj3lMHpSm_Q1Lw_j4xdQ","name":"Woody's Burger Bar and Grill","categories":"Restaurants, Burgers, Nightlife, Bars","state":"ON","city":"Etobicoke","review_count":215,"rank":2,"stars":4.0},"geometry":{"coordinates":[-79.541779,43.5922886],"type":"Point"}}
{"type":"Feature","properties":{"business_id":"fCkfyCr1gFczZC816a9pOA","name":"Spoon & Fork","categories":"Japanese, Restaurants, Thai","state":"ON","city":"Etobicoke","review_count":201,"rank":3,"stars":3.0},"geometry":{"coordinates":[-79.5244150981,43.620953856],"type":"Point"}}
{"type":"Feature","properties":{"business_id":"JHj_NvrGZ-hdaaJ0bx8s-g","name":"Pizzaiolo","categories":"Gluten-Free, Vegan, Pizza, Restaurants","state":"ON","city":"Etobiicoke","review_count":10,"rank":1,"stars":3.5},"geometry":{"coordinates":[-79.5215109135,43.6449557718],"type":"Point"}}
{"type":"Feature","properties":{"business_id":"3LHpTeRBLkBPqn1rP35hcA","name":"Pizzaiolo","categories":"Vegan, Gluten-Free, Pizza, Restaurants","state":"ON","city":"Etobiicoke","review_count":6,"rank":2,"stars":4.0},"geometry":{"coordinates":[-79.5185276174,43.5981043517],"type":"Point"}}
{"type":"Feature","properties":{"business_id":"kEbdBwyqucFNNi0iCEmmPA","name":"Wendy's","categories":"Restaurants, Burgers, Fast Food","state":"OH","city":"Cleveland Hts.","review_count":19,"rank":1,"stars":2.0},"geometry":{"coordinates":[-81.5634775,41.5010333],"type":"Point"}}
{"type":"Feature","properties":{"business_id":"Sy6Dt99WHN7nLCSdsJpUmQ","name":"Sunoco","categories":"Food, Automotive, Gas Stations, Professional Services, Convenience Stores","state":"PA","city":"Clinton","review_count":3,"rank":1,"stars":2.0},"geometry":{"coordinates":[-80.2673433057,40.4940794174],"type":"Point"}}
{"type":"Feature","properties":{"business_id":"yjMmDcNcqFn1tY2C7lXPlw","name":"Copper Premium Pub","categories":"Restaurants, Burgers, Bars, Sandwiches, Pubs, Mexican, Nightlife","state":"SC","city":"Clover","review_count":207,"rank":1,"stars":4.0},"geometry":{"coordinates":[-81.0552788526,35.116159911],"type":"Point"}}
{"type":"Feature","properties":{"business_id":"WUm3b5SMYPLSgeB0adjvuA","name":"Lake Wylie Pizza and Italian Resturant","categories":"Restaurants, Italian","state":"SC","city":"Clover","review_count":79,"rank":2,"stars":3.5},"geometry":{"coordinates":[-81.0438186673,35.1095995786],"type":"Point"}}
{"type":"Feature","properties":{"business_id":"lILhMKwJLZQlHcPG23axYQ","name":"Thai Fusion","categories":"Thai, Vegan, Soup, Restaurants, Noodles","state":"SC","city":"Clover","review_count":65,"rank":3,"stars":4.0},"geometry":{"coordinates":[-81.0764505342,35.1156317005],"type":"Point"}}
{"type":"Feature","properties":{"business_id":"RqzOWT44Tlt_OIqipAgKvw","name":"Gibbs Butcher Block","categories":"Seafood Markets, Butcher, Meat Shops, Restaurants, Delis, Specialty Food, Grocery, Food","state":"OH","city":"Columbia Station","review_count":45,"rank":1,"stars":4.0},"geometry":{"coordinates":[-81.9028309,41.3502973],"type":"Point"}}
{"type":"Feature","properties":{"business_id":"CSKLjqgN3ZsrihIvPsz5cA","name":"Bootleggers Bar & Grille","categories":"American (Traditional), American (New), Burgers, Bars, Nightlife, Restaurants","state":"OH","city":"Columbia Station","review_count":32,"rank":2,"stars":3.5},"geometry":{"coordinates":[-81.9819717407,41.3135185242],"type":"Point"}}
{"type":"Feature","properties":{"business_id":"-bRLmHs8R26dj_CaU8F5VA","name":"Red Wagon Farm","categories":"Food, Farmers Market, Specialty Food, Fruits & Veggies","state":"OH","city":"Columbia Station","review_count":18,"rank":3,"stars":4.0},"geometry":{"coordinates":[-81.911362,41.299335],"type":"Point"}}
{"type":"Feature","properties":{"business_id":"L7beXuTRZHy8ot7nTBQQKw","name":"Sassy Cow Creamery","categories":"Specialty Food, Ice Cream & Frozen Yogurt, Cheese Shops, Food, Farmers Market","state":"WI","city":"Columbus","review_count":36,"rank":1,"stars":4.5},"geometry":{"coordinates":[-89.210988,43.283213],"type":"Point"}}
{"type":"Feature","properties":{"business_id":"be_HDTc0Gy6dKWoWq_o7UQ","name":"Tbaar","categories":"Coffee & Tea, Bubble Tea, Juice Bars & Smoothies, Food","state":"NV","city":"Las vegas","review_count":9,"rank":1,"stars":3.0},"geometry":{"coordinates":[-115.1406844,36.1699879],"type":"Point"}}
{"type":"Feature","properties":{"business_id":"e5uitPniqC-ivkYmtlJrxg","name":"Sweet Fairy Brigadeiros","categories":"Chocolatiers & Shops, Cupcakes, Food, Specialty Food, Bakeries, Desserts","state":"NV","city":"Las vegas","review_count":9,"rank":1,"stars":5.0},"geometry":{"coordinates":[-115.1319412,36.071028],"type":"Point"}}
{"type":"Feature","properties":{"business_id":"OX6oIIr4ELW8aRjbHjXYEg","name":"Manzo Pizzeria","categories":"Pizza, Restaurants","state":"QC","city":"Lasalle","review_count":44,"rank":1,"stars":4.5},"geometry":{"coordinates":[-73.639156,45.4274059],"type":"Point"}}
{"type":"Feature","properties":{"business_id":"xgukCbvTpjLsGCxhYkLQcQ","name":"Restaurant  Kyomi","categories":"Restaurants, Asian Fusion, Pan Asian","state":"QC","city":"Lasalle","review_count":31,"rank":2,"stars":3.5},"geometry":{"coordinates":[-73.622699,45.43849],"type":"Point"}}
{"type":"Feature","properties":{"business_id":"Kl3mlPM1YeGQjcekJ1vZiw","name":"La Campagnola","categories":"Restaurants, Food, Delis, Italian, Specialty Food, Sandwiches, Steakhouses","state":"QC","city":"Lasalle","review_count":29,"rank":3,"stars":4.5},"geometry":{"coordinates":[-73.631159,45.428547],"type":"Point"}}
{"type":"Feature","properties":{"business_id":"sJVVPwW8iDow23gEJvyFkQ","name":"RUBS American BBQ","categories":"Barbeque, Southern, Sandwiches, Restaurants","state":"QC","city":"Laval","review_count":127,"rank":1,"stars":4.0},"geometry":{"coordinates":[-73.7873706673,45.589136835],"type":"Point"}}
{"type":"Feature","properties":{"business_id":"_H-pT9YEEaAKOSlpWFzk7Q","name":"La Belle et la Boeuf","categories":"Burgers, Restaurants","state":"QC","city":"Laval","review_count":105,"rank":2,"stars":3.5},"geometry":{"coordinates":[-73.7458148242,45.5611366083],"type":"Point"}}
{"type":"Feature","properties":{"business_id":"yGg7O0ATbMzoxrLvByzp2g","name":"Elixor","categories":"Mexican, Italian, Cajun/Creole, Restaurants, American (Traditional), French","state":"QC","city":"Laval","review_count":65,"rank":3,"stars":3.5},"geometry":{"coordinates":[-73.7422746962,45.561909912],"type":"Point"}}
{"type":"Feature","properties":{"business_id":"hqSgVJUBj4vlP9EvfPuyxQ","name":"La Vita","categories":"Restaurants, Pizza, Italian","state":"QC","city":"Laval, Pont Viau","review_count":3,"rank":1,"stars":4.5},"geometry":{"coordinates":[-73.6977717,45.5753568],"type":"Point"}}
{"type":"Feature","properties":{"business_id":"kFYRsNyfERwp9_Yc6xV6qg","name":"L'Etoile","categories":"Restaurants, Breakfast & Brunch, Pizza, Canadian (New)","state":"QC","city":"Lavaltrie","review_count":3,"rank":1,"stars":2.5},"geometry":{"coordinates":[-73.283094,45.8879369],"type":"Point"}}
{"type":"Feature","properties":{"business_id":"1DSEqxx6wxF2zwpPDBwtOg","name":"Sugar Cafe","categories":"Coffee & Tea, Food, Desserts, Local Flavor","state":"PA","city":"Dormont","review_count":40,"rank":1,"stars":4.5},"geometry":{"coordinates":[-80.0357506,40.3968899],"type":"Point"}}
{"type":"Feature","properties":{"business_id":"InE6wV7onXpC0-RwHGukIg","name":"Albert's Lounge","categories":"Bars, Dive Bars, Nightlife, Lounges, Sports Bars","state":"PA","city":"Dormont","review_count":13,"rank":2,"stars":4.0},"geometry":{"coordinates":[-80.0358083,40.3977871],"type":"Point"}}
{"type":"Feature","properties":{"business_id":"rwJ-Ft24MZc1zWLTaOQmKw","name":"Paulie’s Smokehouse","categories":"Restaurants, Barbeque","state":"PA","city":"Dormont","review_count":12,"rank":3,"stars":3.0},"geometry":{"coordinates":[-80.0346904,40.3957318],"type":"Point"}}
{"type":"Feature","properties":{"business_id":"Y2xUJHyWzHwuYg9_dxhJiw","name":"YUL Pizza","categories":"Delicatessen, Food, Pizza, Restaurants","state":"AB","city":"Dorval","review_count":7,"rank":1,"stars":3.5},"geometry":{"coordinates":[-73.7472,45.45816],"type":"Point"}}
{"type":"Feature","properties":{"business_id":"2aWV8Rx4TwtB0x2pfIPNxA","name":"Restaurant Houston Steaks et Cotes Levees","categories":"Restaurants, Steakhouses","state":"QC","city":"Dorval","review_count":106,"rank":1,"stars":2.0},"geometry":{"coordinates":[-73.7531246953,45.4560993506],"type":"Point"}}
{"type":"Feature","properties":{"business_id":"OJUTch0E4ZLtN8hQH2oFYg","name":"Archibald Microbrasserie","categories":"Restaurants, Salad, Brasseries, Pizza, Burgers","state":"QC","city":"Dorval","review_count":82,"rank":2,"stars":3.5},"geometry":{"coordinates":[-73.7508919,45.4578596],"type":"Point"}}
{"type":"Feature","properties":{"business_id":"iXGqaPR7ucNdwK-HapDnCw","name":"Restaurant Focaccio","categories":"Indian, Restaurants, Italian","state":"QC","city":"Dorval","review_count":50,"rank":3,"stars":4.0},"geometry":{"coordinates":[-73.7356223,45.4529986],"type":"Point"}}
{"type":"Feature","properties":{"business_id":"ap8z-jsvpmU-_hc2DfxGBA","name":"McDonald's","categories":"Fast Food, Burgers, Restaurants, Coffee & Tea, Food","state":"ON","city":"Downsview","review_count":7,"rank":1,"stars":1.5},"geometry":{"coordinates":[-79.5078661,43.7156627],"type":"Point"}}
{"type":"Feature","properties":{"business_id":"KpV6b0zw8YtfD4l8EsQd_w","name":"McDonald's","categories":"Burgers, Restaurants, Coffee & Tea, Fast Food, Food","state":"ON","city":"Downsview","review_count":5,"rank":2,"stars":1.0},"geometry":{"coordinates":[-79.5140458,43.757176],"type":"Point"}}
{"type":"Feature","properties":{"business_id":"yCpF7GJIAYs6XSSauQ1g9w","name":"Dairy Queen Canada","categories":"Food, Fast Food, Ice Cream & Frozen Yogurt, Restaurants","state":"ON","city":"Downsview","review_count":4,"rank":3,"stars":4.0},"geometry":{"coordinates":[-79.440446198,43.7557084229],"type":"Point"}}
{"type":"Feature","properties":{"business_id":"oozIL8eYhtkvdhOhoa7Lfw","name":"Blazin Bills","categories":"Barbeque, Restaurants","state":"OH","city":"Burton","review_count":107,"rank":1,"stars":3.5},"geometry":{"coordinates":[-81.176968,41.3862911],"type":"Point"}}
{"type":"Feature","properties":{"business_id":"p-7tiC02sUp1JtQNtPL31g","name":"Welshfield Inn","categories":"American (Traditional), Restaurants, Breakfast & Brunch, Comfort Food","state":"OH","city":"Burton","review_count":72,"rank":2,"stars":4.0},"geometry":{"coordinates":[-81.139843,41.384742],"type":"Point"}}
{"type":"Feature","properties":{"business_id":"gadckpdnMe4GgU8FPyw9QA","name":"Warren's Spirited Kitchen","categories":"Wine Bars, Restaurants, Gastropubs, Supper Clubs, American (Traditional), American (New), Bars, Cocktail Bars, Nightlife","state":"OH","city":"Burton","review_count":70,"rank":3,"stars":4.0},"geometry":{"coordinates":[-81.1441246793,41.4710188384],"type":"Point"}}
{"type":"Feature","properties":{"business_id":"GcOSwe8tNvWfRH-gp2UQYQ","name":"Starbucks","categories":"Food, Coffee & Tea","state":"OH","city":"CLEVELAND","review_count":9,"rank":1,"stars":4.5},"geometry":{"coordinates":[-81.690176,41.507082],"type":"Point"}}
{"type":"Feature","properties":{"business_id":"vQPGlMB8T2wHm_vyrX9REQ","name":"Spirit Tree Estate Cidery","categories":"Arts & Entertainment, Wineries, Farmers Market, Bakeries, Food, Cideries","state":"ON","city":"Caledon","review_count":50,"rank":1,"stars":3.5},"geometry":{"coordinates":[-79.944491,43.7570703],"type":"Point"}}
{"type":"Feature","properties":{"business_id":"DBfwBed1QzEDFCZbe5xHiw","name":"Downey's Farm Market","categories":"Arts & Entertainment, Wineries, Farmers Market, Food, Fruits & Veggies, Specialty Food","state":"ON","city":"Caledon","review_count":31,"rank":2,"stars":4.0},"geometry":{"coordinates":[-79.8484415,43.7859775],"type":"Point"}}
{"type":"Feature","properties":{"business_id":"Ejfl3uZKDbZPkmwW5rplJw","name":"Red Onion","categories":"Breakfast & Brunch, Restaurants, Fast Food, American (Traditional)","state":"ON","city":"Caledon","review_count":23,"rank":3,"stars":2.5},"geometry":{"coordinates":[-79.8783351505,43.7731486753],"type":"Point"}}
{"type":"Feature","properties":{"business_id":"-KXpGfcnGexOXUzJmfLUKg","name":"Rock Garden Farms","categories":"Fruits & Veggies, Specialty Food, Food","state":"ON","city":"Caledon East","review_count":8,"rank":1,"stars":3.5},"geometry":{"coordinates":[-79.892787,43.887245],"type":"Point"}}
{"type":"Feature","properties":{"business_id":"ueQCSnUmb6Rg8-7yOJk_Rw","name":"Tom's Family Restaurant","categories":"Food, Restaurants, Coffee & Tea, Comfort Food, Breakfast & Brunch","state":"ON","city":"Caledon East","review_count":7,"rank":2,"stars":4.0},"geometry":{"coordinates":[-79.8678424,43.870904],"type":"Point"}}
{"type":"Feature","properties":{"business_id":"9xLWpBR6eMqoRoK9Jf0WZg","name":"Albion Orchards & Country Market","categories":"Food, Active Life, Parks, Farmers Market","state":"ON","city":"Caledon East","review_count":6,"rank":3,"stars":3.0},"geometry":{"coordinates":[-79.8228516,43.8543576],"type":"Point"}}
{"type":"Feature","properties":{"business_id":"KlfmffxBzMpAf7PaYPNflQ","name":"Mr. Wonderful's Chicken & Waffle","categories":"Chicken Shop, Caterers, Restaurants, Event Planning & Services","state":"OH","city":"Maple Heights","review_count":31,"rank":1,"stars":3.5},"geometry":{"coordinates":[-81.566325,41.415783],"type":"Point"}}
{"type":"Feature","properties":{"business_id":"ynEyJ9dzHAHASnYSSYfmDQ","name":"Baraona's Baking Co","categories":"Restaurants, Bakeries, Wedding Planning, Food, Ice Cream & Frozen Yogurt, Event Planning & Services","state":"OH","city":"Maple Heights","review_count":22,"rank":2,"stars":4.0},"geometry":{"coordinates":[-81.569797,41.4167734],"type":"Point"}}
{"type":"Feature","properties":{"business_id":"2TmOcEavT5T4aeu8J6ItRA","name":"Reddi's Pizza Parlor-Family Restaurant","categories":"Pizza, Restaurants","state":"OH","city":"Maple Heights","review_count":19,"rank":3,"stars":3.5},"geometry":{"coordinates":[-81.5747096,41.4023906],"type":"Point"}}
{"type":"Feature","properties":{"business_id":"f1rTfiLVW5oofYlhTSEkYg","name":"Wendy's","categories":"Fast Food, Restaurants, Burgers","state":"OH","city":"Maple Hts.","review_count":8,"rank":1,"stars":2.0},"geometry":{"coordinates":[-81.537954,41.414767],"type":"Point"}}
{"type":"Feature","properties":{"business_id":"05_7B831_L5ZZeefA-31oQ","name":"Subway","categories":"Food, Restaurants, Fast Food, Sandwiches","state":"AZ","city":"Maricopa","review_count":6,"rank":1,"stars":1.0},"geometry":{"coordinates":[-111.924692877,33.7002514855],"type":"Point"}}
{"type":"Feature","properties":{"business_id":"F9OQYxKip7BbgtS6ok5M8Q","name":"Café Loca Loca","categories":"Cafes, Restaurants","state":"QC","city":"Marieville","review_count":3,"rank":1,"stars":4.0},"geometry":{"coordinates":[-73.1624512,45.4326109],"type":"Point"}}
{"type":"Feature","properties":{"business_id":"8uinWc830J3RYgKlshd1Jw","name":"Subway","categories":"Sandwiches, Restaurants","state":"BC","city":"Markham","review_count":3,"rank":1,"stars":1.5},"geometry":{"coordinates":[-79.3708428,43.8856934],"type":"Point"}}
{"type":"Feature","properties":{"business_id":"QGTqGNLZbBA1QD8L_fO9ZA","name":"Kaka All You Can Eat","categories":"Sushi Bars, Japanese, Restaurants","state":"ON","city":"Markham","review_count":638,"rank":1,"stars":3.0},"geometry":{"coordinates":[-79.3485477355,43.8485401524],"type":"Point"}}
{"type":"Feature","properties":{"business_id":"fzHBvd0HZm1yB3UIMqZ3bA","name":"Ding Tai Fung","categories":"Dim Sum, Specialty Food, Food, Chinese, Ethnic Food, Restaurants, Chicken Wings, Seafood","state":"ON","city":"Markham","review_count":507,"rank":2,"stars":3.5},"geometry":{"coordinates":[-79.348627,43.848501],"type":"Point"}}
{"type":"Feature","properties":{"business_id":"5XVabANkehj7oH-Z7YZkwg","name":"Alchemy Coffee","categories":"Restaurants, Coffee & Tea, Tapas/Small Plates, Breakfast & Brunch, Cafes, American (Traditional), Food","state":"ON","city":"Markham","review_count":499,"rank":3,"stars":4.0},"geometry":{"coordinates":[-79.312339,43.860529],"type":"Point"}}
{"type":"Feature","properties":{"business_id":"_GYPM66Y86j2xIHLUyjjLA","name":"Di Dee's Diner","categories":"Diners, Restaurants","state":"SC","city":"Lancaster","review_count":7,"rank":1,"stars":3.5},"geometry":{"coordinates":[-80.854678452,34.9654715414],"type":"Point"}}
{"type":"Feature","properties":{"business_id":"MX2OYa2sS5ys_6AiK-gs3A","name":"Pho Sing Sing","categories":"Restaurants, Vietnamese","state":"NV","city":"Las  Vegas","review_count":330,"rank":1,"stars":4.0},"geometry":{"coordinates":[-115.2419443,36.1431042],"type":"Point"}}
{"type":"Feature","properties":{"business_id":"7RR1rbyEKKo2G-RACqAfoA","name":"King's  Sausage","categories":"Restaurants, Food Trucks, Food, Burgers, Fast Food, Sandwiches, Hot Dogs, Modern European","state":"NV","city":"Las  Vegas","review_count":102,"rank":2,"stars":5.0},"geometry":{"coordinates":[-115.1236952,36.1697096],"type":"Point"}}
{"type":"Feature","properties":{"business_id":"Rmiv34SGRqJDm_5Db29IrQ","name":"El Pollo Mobile","categories":"Tacos, Mexican, Chicken Shop, Food, Restaurants","state":"NV","city":"Las  Vegas","review_count":56,"rank":3,"stars":4.5},"geometry":{"coordinates":[-115.084287,36.195983],"type":"Point"}}
{"type":"Feature","properties":{"business_id":"RESDUcs7fIiihp38-d6_6g","name":"Bacchanal Buffet","categories":"Sandwiches, Breakfast & Brunch, Food, Restaurants, Buffets","state":"NV","city":"Las Vegas","review_count":10129,"rank":1,"stars":4.0},"geometry":{"coordinates":[-115.1762385,36.1159291],"type":"Point"}}
{"type":"Feature","properties":{"business_id":"4JNXUYY8wbaaDmk3BPzlWw","name":"Mon Ami Gabi","categories":"Restaurants, French, Steakhouses, Food, Breakfast & Brunch","state":"NV","city":"Las Vegas","review_count":9264,"rank":2,"stars":4.0},"geometry":{"coordinates":[-115.172434,36.112859],"type":"Point"}}
{"type":"Feature","properties":{"business_id":"K7lWdNUhCbcnEvI0NhGewg","name":"Wicked Spoon","categories":"Buffets, Breakfast & Brunch, Restaurants","state":"NV","city":"Las Vegas","review_count":7383,"rank":3,"stars":3.5},"geometry":{"coordinates":[-115.176155,36.10955],"type":"Point"}}
{"type":"Feature","properties":{"business_id":"QSM3w1AAdFDQXGE26vNsZA","name":"Pizza Hut","categories":"Chicken Wings, Pizza, Restaurants","state":"PA","city":"Las Vegas","review_count":79,"rank":1,"stars":2.0},"geometry":{"coordinates":[-115.2863973,36.2915214],"type":"Point"}}
{"type":"Feature","properties":{"business_id":"sa9eylPTl5VEx2xHQ8Bx4w","name":"Pizza Hut","categories":"Restaurants, Pizza, Chicken Wings, Italian","state":"IL","city":"Chicago","review_count":5,"rank":1,"stars":3.5},"geometry":{"coordinates":[-87.7294771,41.9768786],"type":"Point"}}
{"type":"Feature","properties":{"business_id":"AJUw1SrpvxwR-WmYpllaaw","name":"Chejoys","categories":"Delicatessen, Food, Pizza, Delis, Steakhouses, Poutineries, Restaurants","state":"QC","city":"Chomedey, Laval","review_count":3,"rank":1,"stars":3.0},"geometry":{"coordinates":[-73.73412,45.538789],"type":"Point"}}
{"type":"Feature","properties":{"business_id":"r6tNDARvVhHcRD88DEND0Q","name":"El Cactus","categories":"Bars, Nightlife, Cocktail Bars, Restaurants, Mexican","state":"QC","city":"Châteauguay","review_count":13,"rank":1,"stars":4.0},"geometry":{"coordinates":[-73.7477481,45.3615938],"type":"Point"}}
{"type":"Feature","properties":{"business_id":"ia0OwGueTqaXHs4bRHF-iA","name":"Nouilles Zen","categories":"Thai, Restaurants","state":"QC","city":"Châteauguay","review_count":8,"rank":2,"stars":4.0},"geometry":{"coordinates":[-73.7234678,45.3594093],"type":"Point"}}
{"type":"Feature","properties":{"business_id":"clq6ziplldA2D19RlEUSxQ","name":"Indi Express","categories":"Restaurants, Indian","state":"QC","city":"Châteauguay","review_count":6,"rank":3,"stars":4.0},"geometry":{"coordinates":[-73.7125311,45.3615229],"type":"Point"}}
{"type":"Feature","properties":{"business_id":"e5lUODtid2iv9Ei2gkqRBw","name":"Di Burger","categories":"Burgers, Hot Dogs, Fast Food, Italian, Restaurants","state":"QC","city":"Châteauguay","review_count":6,"rank":3,"stars":2.5},"geometry":{"coordinates":[-73.729966,45.367179],"type":"Point"}}
{"type":"Feature","properties":{"business_id":"ckCa7zH6tJUMiZvgP6IbMA","name":"Bottle Service Vegas","categories":"Travel Services, Event Planning & Services, Limos, Party & Event Planning, Dance Clubs, Nightlife, Hotels & Travel, Bars, Transportation","state":"NV","city":"City Center","review_count":21,"rank":1,"stars":5.0},"geometry":{"coordinates":[-115.174673,36.107406],"type":"Point"}}
{"type":"Feature","properties":{"business_id":"T1J9PQXqfeG_skaaDV6O0Q","name":"Ciccanti Ristorante","categories":"Italian, Restaurants","state":"PA","city":"Clairton","review_count":66,"rank":1,"stars":4.0},"geometry":{"coordinates":[-79.938576,40.312262],"type":"Point"}}
{"type":"Feature","properties":{"business_id":"XQszdAN4UqqN7OiO_qilxg","name":"Interchange Lounge","categories":"Nightlife, American (Traditional), Lounges, Bars, Restaurants","state":"PA","city":"Clairton","review_count":33,"rank":2,"stars":3.0},"geometry":{"coordinates":[-79.9095516,40.2923639],"type":"Point"}}
{"type":"Feature","properties":{"business_id":"iMkmThdmq4pgUu3MQNeOkA","name":"Elliott's Back Street Barbeque","categories":"Barbeque, Restaurants","state":"PA","city":"Clairton","review_count":30,"rank":3,"stars":3.0},"geometry":{"coordinates":[-79.9408483,40.3252524],"type":"Point"}}
{"type":"Feature","properties":{"business_id":"rZkEXb-5mksvN8H8K-YaBA","name":"Tim Horton's","categories":"Food, Donuts, Coffee & Tea, Internet Cafes","state":"ON","city":"Gormley","review_count":4,"rank":1,"stars":1.5},"geometry":{"coordinates":[-79.37959,43.942877],"type":"Point"}}
{"type":"Feature","properties":{"business_id":"-Qw0PpNfOQ94LpSbxH-fcg","name":"Petro Canada","categories":"Food, Automotive, Convenience Stores, Gas Stations","state":"ON","city":"Gormley","review_count":3,"rank":2,"stars":3.5},"geometry":{"coordinates":[-79.378751997,43.941348726],"type":"Point"}}
{"type":"Feature","properties":{"business_id":"hQEv42cdsFcxGGi4Nnr6yA","name":"Sunrise Grill Restaurant","categories":"Burgers, Fish & Chips, Breakfast & Brunch, Restaurants","state":"ON","city":"Gormley","review_count":3,"rank":2,"stars":4.0},"geometry":{"coordinates":[-79.3729656,43.908952],"type":"Point"}}
{"type":"Feature","properties":{"business_id":"h8MMgum-XUQhU4xWCyQWLQ","name":"The Jailhouse Taverne","categories":"Nightlife, Bars, American (New), American (Traditional), Sandwiches, Pizza, Restaurants","state":"OH","city":"Grafton","review_count":121,"rank":1,"stars":4.0},"geometry":{"coordinates":[-82.022644,41.260574],"type":"Point"}}
{"type":"Feature","properties":{"business_id":"PaIhgplSaX7nxR5XR1yatQ","name":"Check Please Cafe","categories":"American (New), Breakfast & Brunch, Cafes, American (Traditional), Restaurants, Burgers","state":"OH","city":"Grafton","review_count":29,"rank":2,"stars":4.0},"geometry":{"coordinates":[-82.0623137,41.2772677],"type":"Point"}}
{"type":"Feature","properties":{"business_id":"Q5flK4fxR2roE0aCjqF_gw","name":"Nancy's Main Street Diner","categories":"Restaurants, Diners","state":"OH","city":"Grafton","review_count":28,"rank":3,"stars":4.0},"geometry":{"coordinates":[-82.0637393,41.2853848],"type":"Point"}}
{"type":"Feature","properties":{"business_id":"w6F502EKMyn3ONbGT2bQxw","name":"Pickle Bill's Lobster House","categories":"Bars, Nightlife, Beer, Wine & Spirits, Seafood, Food, Restaurants, American (Traditional), Dive Bars, Steakhouses","state":"OH","city":"Grand River","review_count":220,"rank":1,"stars":3.0},"geometry":{"coordinates":[-81.2812566164,41.7422812666],"type":"Point"}}
{"type":"Feature","properties":{"business_id":"zhBkNLn2KPnh5-NIueXVHA","name":"Brennan's Fish House","categories":"Seafood, American (New), Restaurants, American (Traditional)","state":"OH","city":"Grand River","review_count":101,"rank":2,"stars":3.5},"geometry":{"coordinates":[-81.281914,41.742478],"type":"Point"}}
{"type":"Feature","properties":{"business_id":"21UO0mP1EgEDZyFUFFI9Mg","name":"The Wild Hare","categories":"Pubs, Bars, Nightlife, American (Traditional), Restaurants","state":"IL","city":"Fisher","review_count":6,"rank":1,"stars":4.0},"geometry":{"coordinates":[-88.3498269,40.317181],"type":"Point"}}
{"type":"Feature","properties":{"business_id":"hUkFlWp3YR_7OZ9MT9BbGQ","name":"Buzzard's Place","categories":"Desserts, Restaurants, American (Traditional), Food, Bars, Nightlife","state":"IL","city":"Fisher","review_count":6,"rank":1,"stars":4.0},"geometry":{"coordinates":[-88.3499029,40.3170136],"type":"Point"}}
{"type":"Feature","properties":{"business_id":"aqCOsEhjCHVqaFPRt8MCRg","name":"Liliana's Restaurant","categories":"Restaurants, Cajun/Creole, Bars, Caterers, Event Planning & Services, Gluten-Free, Nightlife, Vegetarian, Cocktail Bars","state":"WI","city":"Fitchburg","review_count":289,"rank":1,"stars":3.5},"geometry":{"coordinates":[-89.4301101,43.0153015],"type":"Point"}}
{"type":"Feature","properties":{"business_id":"Zzvjuyxr1iudPN_heAAygw","name":"Quivey's Grove","categories":"Fish & Chips, American (New), American (Traditional), Restaurants","state":"WI","city":"Fitchburg","review_count":180,"rank":2,"stars":3.5},"geometry":{"coordinates":[-89.4792573,43.00922],"type":"Point"}}
{"type":"Feature","properties":{"business_id":"0kzPQQL8wVcHlBQzMdRdWQ","name":"The Thirsty Goat","categories":"Sandwiches, Restaurants, American (Traditional), Barbeque, Burgers","state":"WI","city":"Fitchburg","review_count":159,"rank":3,"stars":3.5},"geometry":{"coordinates":[-89.4191253,43.0202667],"type":"Point"}}
{"type":"Feature","properties":{"business_id":"_cikN23Q9cpWHrSoeXXTGg","name":"Ludwig Farmstead Creamery","categories":"Specialty Food, Arts & Entertainment, Farms, Cheese Shops, Farmers Market, Food","state":"IL","city":"Fithian","review_count":4,"rank":1,"stars":4.5},"geometry":{"coordinates":[-87.8314877,40.1233884],"type":"Point"}}
{"type":"Feature","properties":{"business_id":"uqxrc-R7h-MMMgBrcITycw","name":"Jake & Sons Pizzeria","categories":"Pizza, Restaurants","state":"PA","city":"Forest Hills","review_count":23,"rank":1,"stars":3.5},"geometry":{"coordinates":[-79.8485484,40.4181914],"type":"Point"}}
{"type":"Feature","properties":{"business_id":"F2CdVtudYJlSgTAqWDX8gA","name":"Pizza Hut","categories":"Pizza, Restaurants, Italian, Chicken Wings","state":"PA","city":"Forest Hills","review_count":23,"rank":1,"stars":1.5},"geometry":{"coordinates":[-79.8485054076,40.4163101361],"type":"Point"}}
{"type":"Feature","properties":{"business_id":"1fMXFNFwZEtTy9p8sEmiNw","name":"Taco Bell","categories":"Restaurants, Fast Food, Mexican, Tex-Mex, Tacos","state":"PA","city":"Forest Hills","review_count":21,"rank":3,"stars":2.0},"geometry":{"coordinates":[-79.848131,40.417218],"type":"Point"}}
{"type":"Feature","properties":{"business_id":"i3h5UxWFUC9cqhYbfsAO3A","name":"49 Street Tavern","categories":"Bars, Nightlife, American (Traditional), Sports Bars, Restaurants, Comfort Food","state":"OH","city":"Cuyahoga Heights","review_count":13,"rank":1,"stars":5.0},"geometry":{"coordinates":[-81.656540595,41.4461488847],"type":"Point"}}
{"type":"Feature","properties":{"business_id":"uVOHHPTWWNHWLCXxsAxt_w","name":"Dollar Cinéma","categories":"Arts & Entertainment, Cinema, Nightlife, Music Venues, Performing Arts","state":"QC","city":"Côte Saint-Luc","review_count":37,"rank":1,"stars":4.5},"geometry":{"coordinates":[-73.650743,45.490949],"type":"Point"}}
{"type":"Feature","properties":{"business_id":"Rup1oKBJnKWuMo1uhg4iyQ","name":"Ernie & Ellie's Place","categories":"Kosher, Restaurants","state":"QC","city":"Côte Saint-Luc","review_count":7,"rank":2,"stars":2.0},"geometry":{"coordinates":[-73.6507432,45.4909446],"type":"Point"}}
{"type":"Feature","properties":{"business_id":"5Tvp3XO42UKK04TNosqJpQ","name":"M.T.L. Bagel","categories":"Food, Bakeries, Bagels","state":"QC","city":"Côte Saint-Luc","review_count":5,"rank":3,"stars":5.0},"geometry":{"coordinates":[-73.660824,45.458584],"type":"Point"}}
{"type":"Feature","properties":{"business_id":"YunTxr_kLfRJdW0MlFsF8Q","name":"J&R Kosher Meat & Delicatessen","categories":"Food, Delicatessen, Restaurants, Kosher, Butcher","state":"QC","city":"Côte-Saint-Luc","review_count":4,"rank":1,"stars":5.0},"geometry":{"coordinates":[-73.663827,45.4769307],"type":"Point"}}
{"type":"Feature","properties":{"business_id":"w1ZaGNJdwMQa3QvIxAW4Sg","name":"Pita Wheel","categories":"Food, Food Trucks, Restaurants, Greek","state":"NC","city":"Dallas","review_count":51,"rank":1,"stars":4.5},"geometry":{"coordinates":[-81.1609268188,35.312618],"type":"Point"}}
{"type":"Feature","properties":{"business_id":"dUhYjBM3QHkPKV7Z63ottQ","name":"Long Creek Fish Fry","categories":"Seafood, Restaurants","state":"NC","city":"Dallas","review_count":32,"rank":2,"stars":4.0},"geometry":{"coordinates":[-81.1581376,35.3044133],"type":"Point"}}
{"type":"Feature","properties":{"business_id":"vm17ueG3HPdlC0CQy82Wxw","name":"Riverside Fish House","categories":"Fish & Chips, Southern, Restaurants, Seafood","state":"NC","city":"Dallas","review_count":23,"rank":3,"stars":4.0},"geometry":{"coordinates":[-81.134431,35.329852],"type":"Point"}}
{"type":"Feature","properties":{"business_id":"7j5yndEexyQn9cpVXLIIpw","name":"Texas de Brazil","categories":"Brazilian, Gluten-Free, Restaurants, Buffets, Steakhouses","state":"TX","city":"Dallas","review_count":987,"rank":1,"stars":4.0},"geometry":{"coordinates":[-115.1753479,36.0701358],"type":"Point"}}
{"type":"Feature","properties":{"business_id":"wr6z01f4jcGQkRQMSw7nLg","name":"Pizza Hut","categories":"Pizza, Restaurants, Chicken Wings, Italian","state":"TX","city":"Dallas","review_count":10,"rank":2,"stars":2.0},"geometry":{"coordinates":[-80.679853,35.436997],"type":"Point"}}
{"type":"Feature","properties":{"business_id":"829Kv1uZJj5q8sr2G0mnvA","name":"Samosky's Homestyle Pizzeria","categories":"Italian, Pizza, Restaurants","state":"OH","city":"Valley City","review_count":121,"rank":1,"stars":4.0},"geometry":{"coordinates":[-81.9300996019,41.2375023387],"type":"Point"}}
{"type":"Feature","properties":{"business_id":"gp0lkqiaQ-LQFUPwztYl0Q","name":"Gandalf's Pub","categories":"Restaurants, Bars, Music Venues, Pubs, Nightlife, Arts & Entertainment, American (Traditional)","state":"OH","city":"Valley City","review_count":60,"rank":2,"stars":4.0},"geometry":{"coordinates":[-81.9306887,41.2378406],"type":"Point"}}
{"type":"Feature","properties":{"business_id":"Jc5TLi7cGKNlxfs2HF3GhA","name":"Knotts Family Diner","categories":"Diners, Breakfast & Brunch, American (Traditional), Restaurants","state":"OH","city":"Valley City","review_count":53,"rank":3,"stars":4.5},"geometry":{"coordinates":[-81.9288165,41.2377194],"type":"Point"}}
{"type":"Feature","properties":{"business_id":"cF98fzqrMnikhXhuSz6ruQ","name":"The Oak Barrel","categories":"Restaurants, Gastropubs, Bars, American (New), Nightlife, Brasseries, Pubs","state":"OH","city":"Valley View","review_count":444,"rank":1,"stars":4.0},"geometry":{"coordinates":[-81.6257270298,41.399805723],"type":"Point"}}
{"type":"Feature","properties":{"business_id":"Tc511yME8axDPq2J6woxkg","name":"LockKeepers","categories":"Seafood, Italian, American (New), Restaurants","state":"OH","city":"Valley View","review_count":208,"rank":2,"stars":4.5},"geometry":{"coordinates":[-81.6286991484,41.3939765178],"type":"Point"}}
{"type":"Feature","properties":{"business_id":"oq9bF1KUzSldObMSQ_aalQ","name":"Quaker Steak & Lube","categories":"Chicken Wings, Nightlife, American (Traditional), American (New), Restaurants, Steakhouses, Burgers, Bars","state":"OH","city":"Valley View","review_count":137,"rank":3,"stars":3.0},"geometry":{"coordinates":[-81.625622,41.400715],"type":"Point"}}
{"type":"Feature","properties":{"business_id":"_sq4KNmk0dZTixS_fIW1zw","name":"Rôtisserie St-Hubert","categories":"Barbeque, Restaurants, Chicken Shop","state":"QC","city":"Valleyfield","review_count":4,"rank":1,"stars":3.0},"geometry":{"coordinates":[-74.131689,45.270726],"type":"Point"}}
{"type":"Feature","properties":{"business_id":"UcjkMUsguCsYihmzjYdlUg","name":"Mikes","categories":"Noodles, Restaurants, Italian, Breakfast & Brunch, Pizza","state":"QC","city":"Varennes","review_count":4,"rank":1,"stars":3.0},"geometry":{"coordinates":[-73.4311511,45.6869295],"type":"Point"}}
{"type":"Feature","properties":{"business_id":"QMerql_DNFleKFvYXgtP2Q","name":"Restaurant M Patate","categories":"Restaurants","state":"QC","city":"Varennes","review_count":3,"rank":2,"stars":3.5},"geometry":{"coordinates":[-73.433321,45.6670657],"type":"Point"}}
{"type":"Feature","properties":{"business_id":"M5rnBQaFtjYTn3T9NIZwcA","name":"China Dragon","categories":"Chinese, Restaurants","state":"PA","city":"Mc Donald","review_count":9,"rank":1,"stars":3.5},"geometry":{"coordinates":[-80.2347236,40.3687253],"type":"Point"}}
{"type":"Feature","properties":{"business_id":"p1CagWItb9RwQd1WL-ilwQ","name":"Gianni's Pizza","categories":"Pizza, Restaurants, Food Delivery Services, Food","state":"PA","city":"Mc Donald","review_count":8,"rank":2,"stars":2.0},"geometry":{"coordinates":[-80.2351132,40.3679379],"type":"Point"}}
{"type":"Feature","properties":{"business_id":"4svZRamnXS5aFatqggQezA","name":"Pizza Capri","categories":"Pizza, Restaurants, Breakfast & Brunch","state":"PA","city":"Mc Donald","review_count":7,"rank":3,"stars":2.5},"geometry":{"coordinates":[-80.2347812003,40.3681082798],"type":"Point"}}
{"type":"Feature","properties":{"business_id":"Tvw-7siA6FtCSwRikb5FVA","name":"Green Lantern Restaurant","categories":"Venues & Event Spaces, Bars, Restaurants, Event Planning & Services, Nightlife, American (Traditional)","state":"WI","city":"Mc Farland","review_count":77,"rank":1,"stars":3.5},"geometry":{"coordinates":[-89.3065327726,43.0257076757],"type":"Point"}}
{"type":"Feature","properties":{"business_id":"ZU5o262dKYRKb-8VXEqZtg","name":"Beach House Restaurant & Lounge","categories":"Restaurants, Bars, Lounges, Nightlife, American (Traditional)","state":"WI","city":"Mc Farland","review_count":39,"rank":2,"stars":3.5},"geometry":{"coordinates":[-89.3038349,43.0177797],"type":"Point"}}
{"type":"Feature","properties":{"business_id":"c5mnoNYWzsw_gJSZ0C4b6w","name":"Spartan Pizza","categories":"Pizza, Restaurants, Bars, Burgers, Nightlife","state":"WI","city":"Mc Farland","review_count":18,"rank":3,"stars":3.5},"geometry":{"coordinates":[-89.2886944,43.0141369],"type":"Point"}}
{"type":"Feature","properties":{"business_id":"8kL_Z36p2HtSe6-lh0naEQ","name":"Downey's House","categories":"American (Traditional), Restaurants","state":"PA","city":"Mc Kees Rocks","review_count":104,"rank":1,"stars":4.0},"geometry":{"coordinates":[-80.1453121118,40.4437226904],"type":"Point"}}
{"type":"Feature","properties":{"business_id":"tZB8K6RP7BPou0X2tZ-hDg","name":"China City","categories":"Restaurants, Chinese","state":"PA","city":"Mc Kees Rocks","review_count":32,"rank":2,"stars":3.0},"geometry":{"coordinates":[-80.1450877457,40.4433533463],"type":"Point"}}
{"type":"Feature","properties":{"business_id":"xw2mHGjTOs-VheN8707czQ","name":"Bronze Hood Lounge","categories":"Restaurants, Sandwiches, Pizza, Bars, Salad, Nightlife","state":"PA","city":"Mc Kees Rocks","review_count":28,"rank":3,"stars":3.5},"geometry":{"coordinates":[-80.1420651,40.4488859],"type":"Point"}}
{"type":"Feature","properties":{"business_id":"pL-lWHt4sIxkaCqtwI5-jw","name":"Pizza Hut","categories":"Pizza, Restaurants, Food, Italian, Food Delivery Services","state":"QC","city":"De l'Eglise","review_count":5,"rank":1,"stars":1.5},"geometry":{"coordinates":[-73.6758868,45.5132734],"type":"Point"}}
{"type":"Feature","properties":{"business_id":"eRIgaUA3JFOxKXKH4mvshQ","name":"Norske Nook Restaurant & Bakery","categories":"Desserts, Restaurants, Comfort Food, Food","state":"WI","city":"DeForest","review_count":124,"rank":1,"stars":3.0},"geometry":{"coordinates":[-89.343562,43.24795],"type":"Point"}}
{"type":"Feature","properties":{"business_id":"yVYteK2Ootg37Gh2SIPihA","name":"Aranda's","categories":"Mexican, Restaurants","state":"WI","city":"DeForest","review_count":95,"rank":2,"stars":4.5},"geometry":{"coordinates":[-89.3417749,43.2466663],"type":"Point"}}
{"type":"Feature","properties":{"business_id":"kWeggWMMkFRF7qoW_zSpgQ","name":"North and South Seafood & Smokehouse","categories":"Nightlife, Restaurants, Food, Seafood, Barbeque, Bars, Smokehouse","state":"WI","city":"DeForest","review_count":66,"rank":3,"stars":4.5},"geometry":{"coordinates":[-89.3423709,43.2415391],"type":"Point"}}
{"type":"Feature","properties":{"business_id":"A6Qtui6I2ltvzI213zWTtQ","name":"Schuster's Farm","categories":"Local Flavor, Attraction Farms, Event Planning & Services, Bakeries, Venues & Event Spaces, Pumpkin Patches, Home & Garden, Food, Active Life, Arts & Entertainment, Farms, Shopping","state":"WI","city":"Deerfield","review_count":10,"rank":1,"stars":4.5},"geometry":{"coordinates":[-89.113431,43.03683],"type":"Point"}}
{"type":"Feature","properties":{"business_id":"ewsYllWspvnP8aP0C4ctLQ","name":"McDonald's","categories":"Restaurants, Fast Food, Food, Burgers, Coffee & Tea","state":"WI","city":"Deforest","review_count":15,"rank":1,"stars":1.5},"geometry":{"coordinates":[-89.3754141033,43.2498818862],"type":"Point"}}
{"type":"Feature","properties":{"business_id":"kDBMJ3USbGbRa5MI1Bez5g","name":"Yofresh Frozen Yogurt Cafe","categories":"Desserts, Food, Ice Cream & Frozen Yogurt, Juice Bars & Smoothies","state":"WI","city":"Deforest","review_count":5,"rank":2,"stars":4.0},"geometry":{"coordinates":[-89.342509,43.2396012],"type":"Point"}}
{"type":"Feature","properties":{"business_id":"TaN3mCTC2PV-F9jchnI3ZA","name":"Como Pizzeria","categories":"Pizza, Restaurants","state":"QC","city":"Delson","review_count":27,"rank":1,"stars":4.5},"geometry":{"coordinates":[-73.5422322838,45.382763],"type":"Point"}}
{"type":"Feature","properties":{"business_id":"csDrjCYpINQtnIu7xA9oqw","name":"Diya","categories":"Restaurants, Indian","state":"QC","city":"Delson","review_count":6,"rank":2,"stars":4.0},"geometry":{"coordinates":[-73.5462677,45.3836749],"type":"Point"}}
{"type":"Feature","properties":{"business_id":"9CZXLDXOZJHkVbSKnwib5g","name":"Rouge Boeuf","categories":"Steakhouses, Canadian (New), Restaurants, Food","state":"QC","city":"Delson","review_count":5,"rank":3,"stars":2.5},"geometry":{"coordinates":[-73.5423711,45.3840169],"type":"Point"}}
{"type":"Feature","properties":{"business_id":"e_yxY8iYwK6WDnUSz3v8ng","name":"Flour Italian Kitchen","categories":"Restaurants, Bars, Italian, Wine Bars, Nightlife","state":"OH","city":"Moreland Hills","review_count":204,"rank":1,"stars":3.5},"geometry":{"coordinates":[-81.443116,41.455111],"type":"Point"}}
{"type":"Feature","properties":{"business_id":"J4fxdRNWmqckOHTPJocWEw","name":"ML Tavern","categories":"Steakhouses, Beer, Wine & Spirits, Food, Nightlife, Restaurants, Bars","state":"OH","city":"Moreland Hills","review_count":71,"rank":2,"stars":4.0},"geometry":{"coordinates":[-81.4437063,41.4547126],"type":"Point"}}
{"type":"Feature","properties":{"business_id":"yCa7CSRK65U_ZtzRB3XtGw","name":"Cru Uncorked","categories":"Bars, Restaurants, American (New), French, Wine Bars, Nightlife","state":"OH","city":"Moreland Hills","review_count":38,"rank":3,"stars":4.5},"geometry":{"coordinates":[-81.4428984,41.4540237],"type":"Point"}}
{"type":"Feature","properties":{"business_id":"3QYC-r_bhbWcOIF0Ma6rIg","name":"O Petit Restaurant","categories":"Canadian (New), Restaurants, Breakfast & Brunch","state":"QC","city":"Morin-Heights","review_count":5,"rank":1,"stars":3.5},"geometry":{"coordinates":[-74.2540761,45.9065258],"type":"Point"}}
{"type":"Feature","properties":{"business_id":"tBqEJA8Wh843Ei-jCJwypw","name":"L'Héritage","categories":"Fondue, Modern European, Restaurants","state":"QC","city":"Morin-Heights","review_count":5,"rank":1,"stars":5.0},"geometry":{"coordinates":[-74.2513521162,45.9027911839],"type":"Point"}}
{"type":"Feature","properties":{"business_id":"ED_A7aBEHyzdwn1qLPOl4A","name":"Mickey's Café","categories":"Coffee & Tea, Food","state":"QC","city":"Morin-Heights","review_count":4,"rank":3,"stars":4.5},"geometry":{"coordinates":[-74.2518791,45.9019935],"type":"Point"}}
{"type":"Feature","properties":{"business_id":"5WovPPr_N2QPDXf4hLWYsQ","name":"Twisted Fork","categories":"Canadian (New), Restaurants","state":"ON","city":"Mount Albert","review_count":16,"rank":1,"stars":3.5},"geometry":{"coordinates":[-79.310353,44.1359331],"type":"Point"}}
{"type":"Feature","properties":{"business_id":"Z5DutCK53uyTsnjp3Ljh5w","name":"Rose Family Farm","categories":"Food Stands, Farmers Market, Specialty Food, Food, Fruits & Veggies, Restaurants","state":"ON","city":"Mount Albert","review_count":11,"rank":2,"stars":4.5},"geometry":{"coordinates":[-79.297598064,44.0968907789],"type":"Point"}}
{"type":"Feature","properties":{"business_id":"emdpiN_7eQxlERFenw5HWg","name":"Zucca's Restaurant and Pizzeria","categories":"Italian, Pizza, Restaurants, Canadian (New)","state":"ON","city":"Mount Albert","review_count":9,"rank":3,"stars":4.0},"geometry":{"coordinates":[-79.4754408527,44.0552978952],"type":"Point"}}
{"type":"Feature","properties":{"business_id":"dWju7gfRvVAjj22Eah2zfA","name":"Le Feu de Bois","categories":"Pizza, Restaurants","state":"AB","city":"Sainte-Adèle","review_count":8,"rank":1,"stars":4.5},"geometry":{"coordinates":[-74.135853,45.952061],"type":"Point"}}
{"type":"Feature","properties":{"business_id":"hQRzxCiSJ4OBHVwQgJecsA","name":"Les Tetes De Cochon","categories":"Breakfast & Brunch, Food, Steakhouses, Butcher, French, Gastropubs, Restaurants, Brasseries","state":"QC","city":"Sainte-Adèle","review_count":21,"rank":1,"stars":4.0},"geometry":{"coordinates":[-74.1297092,45.9485823],"type":"Point"}}
{"type":"Feature","properties":{"business_id":"-FfmSy7kw1MOqVB8Xs_1VQ","name":"Esmeralda Sur-Lac","categories":"Restaurants, Italian","state":"QC","city":"Sainte-Adèle","review_count":10,"rank":2,"stars":4.5},"geometry":{"coordinates":[-74.1409002,45.9503754],"type":"Point"}}
{"type":"Feature","properties":{"business_id":"l0Ke1C2T53SxyBJdPJpjbg","name":"Ste-Adèle Sushi","categories":"Sushi Bars, Restaurants, Japanese","state":"QC","city":"Sainte-Adèle","review_count":7,"rank":3,"stars":4.0},"geometry":{"coordinates":[-74.126125,45.94826],"type":"Point"}}
{"type":"Feature","properties":{"business_id":"YQpYAsqBFQiOJB0hDBaO6g","name":"John le Grec II","categories":"Restaurants, Pizza, Greek","state":"QC","city":"Sainte-Adèle","review_count":7,"rank":3,"stars":3.5},"geometry":{"coordinates":[-74.1334242,45.9505766],"type":"Point"}}
{"type":"Feature","properties":{"business_id":"Zz1XokOCfCV4zx-47ur6YA","name":"Restaurant Chalet Thai","categories":"Thai, Restaurants","state":"QC","city":"Sainte-Anne-De-Bellevue","review_count":13,"rank":1,"stars":4.5},"geometry":{"coordinates":[-73.9516507,45.4033582],"type":"Point"}}
{"type":"Feature","properties":{"business_id":"aQfNlf9j9QreSlbsacIXXQ","name":"Marco Bar & Grill","categories":"Restaurants, Seafood, Italian, Pizza","state":"QC","city":"Sainte-Anne-De-Bellevue","review_count":12,"rank":2,"stars":3.0},"geometry":{"coordinates":[-73.9511366,45.4033431],"type":"Point"}}
{"type":"Feature","properties":{"business_id":"HbYjtf2nkwd2aoNPDgMtzg","name":"Surcouf","categories":"Restaurants, French","state":"QC","city":"Sainte-Anne-De-Bellevue","review_count":11,"rank":3,"stars":5.0},"geometry":{"coordinates":[-73.9493816,45.4033437],"type":"Point"}}
{"type":"Feature","properties":{"business_id":"-3Haoc0l9DZRSXxIHi9oJg","name":"Klondike","categories":"International, Italian, Steakhouses, Restaurants","state":"QC","city":"Sainte-Anne-de-Bellevue","review_count":29,"rank":1,"stars":2.0},"geometry":{"coordinates":[-73.9518165,45.4033441],"type":"Point"}}
{"type":"Feature","properties":{"business_id":"kkXmJbAzH3PlxSVRWcNiyg","name":"Tandoori Bellevue","categories":"Restaurants, Indian","state":"QC","city":"Sainte-Anne-de-Bellevue","review_count":25,"rank":2,"stars":4.5},"geometry":{"coordinates":[-73.9501345,45.4033354],"type":"Point"}}
{"type":"Feature","properties":{"business_id":"q7kbg_M3RMYKNFD5CMc4FA","name":"Café Twigs","categories":"Cafes, Restaurants, French","state":"QC","city":"Sainte-Anne-de-Bellevue","review_count":20,"rank":3,"stars":4.5},"geometry":{"coordinates":[-73.951165,45.4034945],"type":"Point"}}
{"type":"Feature","properties":{"business_id":"YMeWjOd1svHDGdDCKoiGgg","name":"Electric Daisy Carnival","categories":"Adult Entertainment, Arts & Entertainment, Nightlife, Festivals, Local Flavor","state":"CA","city":"Los Angeles","review_count":35,"rank":1,"stars":4.5},"geometry":{"coordinates":[-115.0094303,36.2732597],"type":"Point"}}
{"type":"Feature","properties":{"business_id":"H199XZknFNHInBW7qap1-g","name":"Kyle Fletcher's BBQ & Catering","categories":"Barbeque, Restaurants","state":"NC","city":"Lowell","review_count":87,"rank":1,"stars":4.0},"geometry":{"coordinates":[-81.1006218,35.2562685],"type":"Point"}}
{"type":"Feature","properties":{"business_id":"3oTml4zlPaI7l3-TDKxwkg","name":"Grits N Greens","categories":"Cafes, Restaurants, Southern, Food, Breakfast & Brunch, Coffee & Tea","state":"NC","city":"Lowell","review_count":79,"rank":2,"stars":3.5},"geometry":{"coordinates":[-81.1009377112,35.2674644068],"type":"Point"}}
{"type":"Feature","properties":{"business_id":"2aLZjt3Pkg7WvoJq2LtckA","name":"Hillbilly's Barbeque & Steaks","categories":"Barbeque, Restaurants, Steakhouses","state":"NC","city":"Lowell","review_count":45,"rank":3,"stars":3.5},"geometry":{"coordinates":[-81.091149,35.263714],"type":"Point"}}
{"type":"Feature","properties":{"business_id":"eMM-RgsmMGDxs353XpC3fw","name":"Around Back Cafe","categories":"Restaurants, Bars, Chicken Wings, Sandwiches, Nightlife, Seafood, Burgers","state":"PA","city":"Lower Burrell","review_count":19,"rank":1,"stars":3.0},"geometry":{"coordinates":[-79.710627,40.5818773],"type":"Point"}}
{"type":"Feature","properties":{"business_id":"oqVcCVbwjcA1LXzGfR2z9w","name":"McDonald's","categories":"Restaurants, Coffee & Tea, Burgers, Food, Fast Food","state":"PA","city":"Lower Burrell","review_count":14,"rank":2,"stars":1.5},"geometry":{"coordinates":[-79.7355616093,40.5910240674],"type":"Point"}}
{"type":"Feature","properties":{"business_id":"gv9Qi4vgna2UuE7q4qK3vA","name":"Ida's Restaurant","categories":"Italian, Restaurants","state":"PA","city":"Lower Burrell","review_count":14,"rank":2,"stars":4.5},"geometry":{"coordinates":[-79.7302944,40.5920086],"type":"Point"}}
{"type":"Feature","properties":{"business_id":"4LLNNwkveVoH1m6z_9jLGQ","name":"Franktuary","categories":"Poutineries, Restaurants, Hot Dogs, Vegetarian","state":"PA","city":"Lower Lawrenceville","review_count":349,"rank":1,"stars":3.5},"geometry":{"coordinates":[-79.96398,40.467054],"type":"Point"}}
{"type":"Feature","properties":{"business_id":"FvJtjO5nuIy5erGbkJpJXw","name":"Villa Ballanca","categories":"Restaurants, Italian","state":"PA","city":"Lower burrell","review_count":56,"rank":1,"stars":4.0},"geometry":{"coordinates":[-79.7356728,40.5902852],"type":"Point"}}
{"type":"Feature","properties":{"business_id":"l0pf71mxpV1f_po1W5w1Lw","name":"TGI Fridays","categories":"Bars, American (Traditional), Nightlife, Restaurants","state":"PA","city":"Crafton","review_count":47,"rank":1,"stars":2.0},"geometry":{"coordinates":[-80.1637465,40.451084],"type":"Point"}}
{"type":"Feature","properties":{"business_id":"pv-bAsIJc6s31dYHxjKpvQ","name":"Hanlon's Cafe","categories":"Restaurants, Diners, Breakfast & Brunch","state":"PA","city":"Crafton","review_count":40,"rank":2,"stars":4.0},"geometry":{"coordinates":[-80.0689034403,40.4408775184],"type":"Point"}}
{"type":"Feature","properties":{"business_id":"VEusQnnMJW6e8wuiW2_H0Q","name":"Portofino's Pizza & Pasta","categories":"Specialty Food, Pasta Shops, Italian, Food, Restaurants, Pizza, Sandwiches, Salad","state":"PA","city":"Crafton","review_count":34,"rank":3,"stars":2.5},"geometry":{"coordinates":[-80.0682068,40.4382419],"type":"Point"}}
{"type":"Feature","properties":{"business_id":"NRAmrbIGgXgH5uYv8GGJ5A","name":"Mayworth's Public House","categories":"American (Traditional), Restaurants","state":"NC","city":"Cramerton","review_count":117,"rank":1,"stars":4.5},"geometry":{"coordinates":[-81.072555,35.2357602],"type":"Point"}}
{"type":"Feature","properties":{"business_id":"BaOZC2pK8H_ixlheytgUaA","name":"South Fork Deli Cafe & Market","categories":"Restaurants, Delis","state":"NC","city":"Cramerton","review_count":108,"rank":2,"stars":4.5},"geometry":{"coordinates":[-81.072685,35.23598],"type":"Point"}}
{"type":"Feature","properties":{"business_id":"c-YmL07i_4Q0cvCUxl11VQ","name":"Doffer's Canteen","categories":"Tex-Mex, Delis, Sandwiches, American (New), Restaurants","state":"NC","city":"Cramerton","review_count":71,"rank":3,"stars":4.5},"geometry":{"coordinates":[-81.0726800188,35.2359799521],"type":"Point"}}
{"type":"Feature","properties":{"business_id":"O2OYKd7YYq9tPHDzKpI4SA","name":"Killian's Pub","categories":"Burgers, Restaurants, American (New)","state":"PA","city":"Creighton","review_count":12,"rank":1,"stars":4.0},"geometry":{"coordinates":[-79.7783281,40.5758904],"type":"Point"}}
{"type":"Feature","properties":{"business_id":"smU1X4U3vN9r4VQ5TdBCUQ","name":"Sheetz","categories":"Food, Convenience Stores, Coffee & Tea, Automotive, Gas Stations","state":"PA","city":"Creighton","review_count":3,"rank":2,"stars":3.0},"geometry":{"coordinates":[-79.778802,40.58204],"type":"Point"}}
{"type":"Feature","properties":{"business_id":"lNh_U1fEfxtcLRpT1RpX8g","name":"Cafe Notte","categories":"Restaurants, American (New), Wine Bars, Bars, Nightlife, Italian","state":"PA","city":"Emsworth","review_count":76,"rank":1,"stars":4.0},"geometry":{"coordinates":[-80.0916677,40.5096442],"type":"Point"}}
{"type":"Feature","properties":{"business_id":"yrQyg1Ap8EyxQ1ulu3QStg","name":"Chev & Rachel's Family Diner","categories":"Diners, Restaurants, American (Traditional), Burgers","state":"PA","city":"Emsworth","review_count":51,"rank":2,"stars":4.5},"geometry":{"coordinates":[-80.0988166,40.5131271],"type":"Point"}}
{"type":"Feature","properties":{"business_id":"SlXPlhPcmptknTcGg2dTGA","name":"Aurochs Brewing","categories":"Food, Gluten-Free, Restaurants, Breweries","state":"PA","city":"Emsworth","review_count":20,"rank":3,"stars":5.0},"geometry":{"coordinates":[-80.1034333,40.5117529],"type":"Point"}}
{"type":"Feature","properties":{"business_id":"-X_w25LQmz6SDcJIFyAPJw","name":"Roberto's Taco Shop","categories":"Restaurants, Mexican","state":"NV","city":"Enterprise","review_count":142,"rank":1,"stars":3.0},"geometry":{"coordinates":[-115.1716950908,36.0553440107],"type":"Point"}}
{"type":"Feature","properties":{"business_id":"ByXko9JQ6Jne7v8t4IaQjg","name":"McDonald's","categories":"Food, Restaurants, Coffee & Tea, Burgers, Fast Food","state":"NV","city":"Enterprise","review_count":113,"rank":2,"stars":1.5},"geometry":{"coordinates":[-115.2779283375,36.0208827927],"type":"Point"}}
{"type":"Feature","properties":{"business_id":"sueADCkf8a4m3Exnd-4qeQ","name":"QDOBA Mexican Eats","categories":"Event Planning & Services, Caterers, Mexican, Fast Food, Restaurants","state":"NV","city":"Enterprise","review_count":81,"rank":3,"stars":3.5},"geometry":{"coordinates":[-115.2434985,36.0621158],"type":"Point"}}
{"type":"Feature","properties":{"business_id":"Os3a60TJwtSruMLz-qpZ1g","name":"Eat'n Park","categories":"Restaurants, American (Traditional), Diners, Breakfast & Brunch","state":"OH","city":"Erie","review_count":22,"rank":1,"stars":3.5},"geometry":{"coordinates":[-81.4398915,41.6042711],"type":"Point"}}
{"type":"Feature","properties":{"business_id":"zfOr5aAUtWqrVbgzvSASbg","name":"Estérel Resort","categories":"Day Spas, Hotels & Travel, Beauty & Spas, Active Life, Resorts, Canadian (New), Golf, Event Planning & Services, Restaurants, Hotels","state":"QC","city":"Estérel","review_count":21,"rank":1,"stars":3.5},"geometry":{"coordinates":[-74.0262889,46.0356362],"type":"Point"}}
