{"type":"Feature","properties":{"business_id":"6hvyazuMI9vSm3JTL1tHfQ","name":"A Taste of Soul","categories":"Restaurants, Soul Food","state":"NC","city":"Westport","review_count":16,"rank":1,"stars":4.0},"geometry":{"coordinates":[-80.9947137,35.4828494],"type":"Point"}}
{"type":"Feature","properties":{"business_id":"RUxAdd3mmNkejoTAX2YIDw","name":"Patron Mexican Grill","categories":"Fast Food, Mexican, Restaurants","state":"PA","city":"Wexford","review_count":184,"rank":1,"stars":3.5},"geometry":{"coordinates":[-80.0555442,40.6267065],"type":"Point"}}
{"type":"Feature","properties":{"business_id":"e8kK01COAK614-RuKlXHug","name":"Emporio: A Meatball Joint","categories":"Restaurants, Venues & Event Spaces, Breweries, Beer Bar, Event Planning & Services, Italian, American (Traditional), Nightlife, Gluten-Free, American (New), Food, Bars","state":"PA","city":"Wexford","review_count":179,"rank":2,"stars":4.0},"geometry":{"coordinates":[-80.0588346093,40.6331082834],"type":"Point"}}
{"type":"Feature","properties":{"business_id":"SeQlCrKvyM2j8m_75gtouQ","name":"Totin's Diner","categories":"Restaurants, Diners","state":"PA","city":"Wexford","review_count":153,"rank":3,"stars":4.0},"geometry":{"coordinates":[-80.0500627,40.6026018],"type":"Point"}}
{"type":"Feature","properties":{"business_id":"jurypgAYmCOd69X69nTbDA","name":"Shoeless Joe's Sports Grill - Whitby","categories":"Canadian (New), Bars, Sports Bars, Restaurants, Wigs, Beer Bar, Chicken Wings, Burgers, Nightlife, Shopping","state":"ON","city":"Whiitby","review_count":17,"rank":1,"stars":2.5},"geometry":{"coordinates":[-78.912635,43.869696],"type":"Point"}}
{"type":"Feature","properties":{"business_id":"ESEsb1mSiX9uFCNULFOVIA","name":"House Of Soul Catering","categories":"Restaurants, Chicken Wings, Caribbean, Soul Food","state":"PA","city":"Whitaker","review_count":4,"rank":1,"stars":5.0},"geometry":{"coordinates":[-79.8867978,40.4004521],"type":"Point"}}
{"type":"Feature","properties":{"business_id":"kA2EMJl7F0UrSP4xqFtEhw","name":"Butchies","categories":"Restaurants, Burgers, Ice Cream & Frozen Yogurt, Salad, Food, Barbeque, Seafood, Diners","state":"ON","city":"Whitby","review_count":84,"rank":1,"stars":4.0},"geometry":{"coordinates":[-78.9595591,43.8755958],"type":"Point"}}
{"type":"Feature","properties":{"business_id":"Pj4Ui2Az4mkUkqC4zMw-vQ","name":"KB","categories":"Diners, Local Flavor, Wine Bars, Bars, Restaurants, Canadian (New), Nightlife, Vegetarian, Gluten-Free, American (Traditional), Seafood, Burgers, Gastropubs, Fast Food","state":"ON","city":"Whitby","review_count":81,"rank":2,"stars":4.5},"geometry":{"coordinates":[-78.9424631,43.8803171],"type":"Point"}}
{"type":"Feature","properties":{"business_id":"6Eks3cn0UGUqQjXxXpSPDg","name":"Baldwin Street Burger","categories":"Burgers, Restaurants","state":"ON","city":"Whitby","review_count":70,"rank":3,"stars":4.0},"geometry":{"coordinates":[-78.9605312,43.9569244],"type":"Point"}}
{"type":"Feature","properties":{"business_id":"0044Q4cVBcHBgXPmhGgtcQ","name":"The King's Landing","categories":"Canadian (New), Restaurants, Chicken Wings, Burgers","state":"ON","city":"Whitchurch-Stouffville","review_count":113,"rank":1,"stars":4.5},"geometry":{"coordinates":[-79.258327,43.969368],"type":"Point"}}
{"type":"Feature","properties":{"business_id":"ZeVZ0R7Go_1ZRxZPIfCStQ","name":"Main Street Burger Shoppe","categories":"Burgers, Restaurants, Food","state":"ON","city":"Whitchurch-Stouffville","review_count":71,"rank":2,"stars":4.0},"geometry":{"coordinates":[-79.2596221,43.9684226],"type":"Point"}}
{"type":"Feature","properties":{"business_id":"iwSKt_VNOsflxngfOJLUaw","name":"The Smokery Kitchen & Bar","categories":"Canadian (New), Cocktail Bars, Restaurants, Sandwiches, Breakfast & Brunch, Bars, Nightlife, Barbeque, Beer, Wine & Spirits, Food, Southern","state":"ON","city":"Whitchurch-Stouffville","review_count":63,"rank":3,"stars":3.5},"geometry":{"coordinates":[-79.2510948,43.970551],"type":"Point"}}
{"type":"Feature","properties":{"business_id":"B1nx3iQSafeHjN0uhpW4Kg","name":"Mabel's BBQ","categories":"Breakfast & Brunch, Barbeque, Restaurants","state":"NV","city":"4321 W Flamingo Rd","review_count":292,"rank":1,"stars":4.0},"geometry":{"coordinates":[-115.1965118,36.1141275],"type":"Point"}}
{"type":"Feature","properties":{"business_id":"LixFCMGKdptI8WRsjAl5cQ","name":"McDonald's","categories":"Restaurants, Fast Food, Burgers, Food, Coffee & Tea","state":"ON","city":"Agincourt","review_count":7,"rank":1,"stars":2.0},"geometry":{"coordinates":[-79.3299646,43.7942953],"type":"Point"}}
{"type":"Feature","properties":{"business_id":"U_ihDw5JhfmSKBUUkpEQqw","name":"McDonald's","categories":"Fast Food, Restaurants, Burgers, Food, Coffee & Tea","state":"ON","city":"Agincourt","review_count":4,"rank":2,"stars":2.0},"geometry":{"coordinates":[-79.291325,43.784517],"type":"Point"}}
{"type":"Feature","properties":{"business_id":"qJf61TR4Jq9Xph5RiXPS9A","name":"Cupz N' Crepes","categories":"Desserts, Food, Creperies, Restaurants, Coffee & Tea","state":"AZ","city":"Ahwatukee","review_count":332,"rank":1,"stars":4.0},"geometry":{"coordinates":[-111.9913269,33.3058597],"type":"Point"}}
{"type":"Feature","properties":{"business_id":"oi6mahpAmEuikfihFVDmCw","name":"Biscuits","categories":"Restaurants, Breakfast & Brunch, Pizza, Indoor Playcentre, Burgers, Arcades, American (Traditional), Active Life, Arts & Entertainment","state":"AZ","city":"Ahwatukee","review_count":279,"rank":2,"stars":4.0},"geometry":{"coordinates":[-111.9838858135,33.3483620084],"type":"Point"}}
{"type":"Feature","properties":{"business_id":"-v8Z3mdbbPs1ljLziHr2DA","name":"My Wine Cellar","categories":"Restaurants, Beer, Wine & Spirits, Tapas/Small Plates, Food, Gastropubs, Wine Bars, Breakfast & Brunch, Nightlife, Bars","state":"AZ","city":"Ahwatukee","review_count":234,"rank":3,"stars":4.5},"geometry":{"coordinates":[-111.977843,33.3339455],"type":"Point"}}
{"type":"Feature","properties":{"business_id":"M-npfYXNr025JWPnkgGkWg","name":"Pauls Pizza Steakhouse & Lounge","categories":"Italian, Restaurants, Steakhouses, Shopping, Pizza, Bars, Sports Wear, Nightlife, Sporting Goods, Sports Bars, Fashion","state":"AB","city":"Airdrie","review_count":41,"rank":1,"stars":3.5},"geometry":{"coordinates":[-114.0028105,51.2901919],"type":"Point"}}
{"type":"Feature","properties":{"business_id":"rc0X8RD-zgm_qEmVNZOj9Q","name":"Abe's Modern Diner","categories":"Food, Restaurants, Comfort Food, Breakfast & Brunch, Juice Bars & Smoothies, Coffee & Tea, Burgers, Diners, American (Traditional), Canadian (New)","state":"AB","city":"Airdrie","review_count":40,"rank":2,"stars":3.5},"geometry":{"coordinates":[-113.994037,51.268707],"type":"Point"}}
{"type":"Feature","properties":{"business_id":"k89T_99fj_x-rhYZ4z81mA","name":"Mio Stone Grill & Sushi","categories":"Sushi Bars, Food, Japanese, Restaurants","state":"AB","city":"Airdrie","review_count":33,"rank":3,"stars":5.0},"geometry":{"coordinates":[-113.9944303949,51.2694205739],"type":"Point"}}
{"type":"Feature","properties":{"business_id":"-YGQwikbX2fXUIjyegR7pw","name":"Angelique's Family Restaurant","categories":"Breakfast & Brunch, Restaurants","state":"ON","city":"Ajax","review_count":130,"rank":1,"stars":4.5},"geometry":{"coordinates":[-79.0221525274,43.8299638248],"type":"Point"}}
{"type":"Feature","properties":{"business_id":"tD7_aIUTlfzyMoMkXXwiZA","name":"Pizza Pino","categories":"Restaurants, Pizza","state":"ON","city":"Ajax","review_count":101,"rank":2,"stars":4.0},"geometry":{"coordinates":[-79.0208452,43.8305142],"type":"Point"}}
{"type":"Feature","properties":{"business_id":"5Kh5i4VhXj-Leg8gujIzjQ","name":"Maimana Naan & Kabab","categories":"Afghan, Restaurants, Middle Eastern","state":"ON","city":"Ajax","review_count":90,"rank":3,"stars":4.5},"geometry":{"coordinates":[-79.012061,43.8632915],"type":"Point"}}
{"type":"Feature","properties":{"business_id":"PgdQrTSOX132EgNj8VPNlg","name":"Mad Mex - Robinson","categories":"Tex-Mex, Restaurants, Mexican","state":"PA","city":"Robinson","review_count":199,"rank":1,"stars":3.5},"geometry":{"coordinates":[-80.1646211,40.448973],"type":"Point"}}
{"type":"Feature","properties":{"business_id":"7xHbnGo4MXFkBm6gYSu_xg","name":"Anthony's Coal Fired Pizza","categories":"Pizza, Restaurants, American (Traditional), Italian","state":"PA","city":"Robinson Township","review_count":154,"rank":1,"stars":3.5},"geometry":{"coordinates":[-80.1464259305,40.4381208892],"type":"Point"}}
{"type":"Feature","properties":{"business_id":"HI6af2H4gZyXszxfYsuloQ","name":"Saga Hibachi Steakhouse & Sushi Bar","categories":"Japanese, Restaurants","state":"PA","city":"Robinson Township","review_count":122,"rank":2,"stars":3.0},"geometry":{"coordinates":[-80.1485145092,40.4405129529],"type":"Point"}}
{"type":"Feature","properties":{"business_id":"3kBa6YUwQP4A8CSt_EApIQ","name":"Walnut Grill - Robinson","categories":"Nightlife, Bars, Restaurants, Wine Bars, Gluten-Free, American (Traditional)","state":"PA","city":"Robinson Township","review_count":114,"rank":3,"stars":3.0},"geometry":{"coordinates":[-80.148535,40.439191],"type":"Point"}}
{"type":"Feature","properties":{"business_id":"DIdvV0HZUMZWiYg4OXyGJg","name":"Juliano's Restaurant & Pizzeria","categories":"Pizza, Restaurants, Food Delivery Services, Food, Italian","state":"PA","city":"Robinson Twp.","review_count":143,"rank":1,"stars":4.5},"geometry":{"coordinates":[-80.1261475,40.4502266],"type":"Point"}}
{"type":"Feature","properties":{"business_id":"08n9bygXHb837Fm74Bvqxw","name":"The Pump House","categories":"Bars, Nightlife, American (New), Restaurants, Southern","state":"SC","city":"Rock Hill","review_count":614,"rank":1,"stars":4.0},"geometry":{"coordinates":[-80.973208,34.983887],"type":"Point"}}
{"type":"Feature","properties":{"business_id":"KgbCvPJpFLN78VVkeJMbzw","name":"The Dixie Pig Rock Hill","categories":"American (Traditional), Restaurants, Food, Barbeque, Coffee & Tea","state":"SC","city":"Rock Hill","review_count":487,"rank":2,"stars":4.5},"geometry":{"coordinates":[-81.0055751626,34.9760960721],"type":"Point"}}
{"type":"Feature","properties":{"business_id":"Vih800xJAsL7L5cF7gUIkA","name":"The Yolk","categories":"Restaurants, American (Traditional), Breakfast & Brunch","state":"SC","city":"Rock Hill","review_count":243,"rank":3,"stars":4.0},"geometry":{"coordinates":[-81.002446,34.9779557],"type":"Point"}}
{"type":"Feature","properties":{"business_id":"as_fyujgsdwtV56n31z-Sw","name":"Bomba Tacos & Rum","categories":"Latin American, Restaurants, Tacos, Mexican","state":"OH","city":"Rocky River","review_count":327,"rank":1,"stars":3.5},"geometry":{"coordinates":[-81.841648,41.480194],"type":"Point"}}
{"type":"Feature","properties":{"business_id":"F80c5w4dUF1QoFcJG4JrmQ","name":"Sweet Melissa","categories":"American (Traditional), Diners, Salad, Desserts, Food, Restaurants, Breakfast & Brunch, Event Planning & Services, Caterers","state":"OH","city":"Rocky River","review_count":322,"rank":2,"stars":3.5},"geometry":{"coordinates":[-81.8366502362,41.4813363086],"type":"Point"}}
{"type":"Feature","properties":{"business_id":"sWucpMb_MDdqAthWFFisow","name":"Joe's Deli","categories":"Lebanese, Restaurants, Middle Eastern, Delis, American (Traditional), American (New)","state":"OH","city":"Rocky River","review_count":282,"rank":3,"stars":4.0},"geometry":{"coordinates":[-81.8358972759,41.4711936929],"type":"Point"}}
{"type":"Feature","properties":{"business_id":"dIUHCuiAlzkxfgCEOtky8w","name":"Triptych Brewing","categories":"Nightlife, Bars, Breweries, Food","state":"IL","city":"Savoy","review_count":86,"rank":1,"stars":4.5},"geometry":{"coordinates":[-88.249369,40.076844],"type":"Point"}}
{"type":"Feature","properties":{"business_id":"A_wn7gdvQAv5F2-0CBjgEA","name":"Buffalo Wild Wings","categories":"Nightlife, Bars, Sports Bars, Restaurants, American (Traditional), Burgers, Chicken Wings","state":"IL","city":"Savoy","review_count":80,"rank":2,"stars":3.0},"geometry":{"coordinates":[-88.251885,40.071707],"type":"Point"}}
{"type":"Feature","properties":{"business_id":"wpDJUu8Ty_eyQJENUy7fIw","name":"Smoky's House BBQ","categories":"Chicken Wings, Restaurants, Barbeque","state":"IL","city":"Savoy","review_count":69,"rank":3,"stars":3.5},"geometry":{"coordinates":[-88.2517381982,40.0713235719],"type":"Point"}}
{"type":"Feature","properties":{"business_id":"fKr2Vip-yNCxgJmps-iOTA","name":"Ten-Ichi Japanese Restaurant","categories":"Japanese, Restaurants, Sushi Bars","state":"ON","city":"Scarborough","review_count":313,"rank":1,"stars":3.5},"geometry":{"coordinates":[-79.2509165,43.7915878],"type":"Point"}}
{"type":"Feature","properties":{"business_id":"A7_Rhwhi5Xv_PvBbKGJ_ng","name":"Pho Metro","categories":"Vietnamese, Restaurants","state":"ON","city":"Scarborough","review_count":282,"rank":2,"stars":4.0},"geometry":{"coordinates":[-79.2940485477,43.745266184],"type":"Point"}}
{"type":"Feature","properties":{"business_id":"I6oxEn1HT41S2GPrDKPPvA","name":"Perfect Chinese Restaurant","categories":"Seafood, Restaurants, Chinese, Education, Dim Sum","state":"ON","city":"Scarborough","review_count":270,"rank":3,"stars":2.5},"geometry":{"coordinates":[-79.270282,43.787379],"type":"Point"}}
{"type":"Feature","properties":{"business_id":"dSPR-58U95ufvmbvxMpKZg","name":"Cupcakes A La Carte","categories":"Desserts, Food","state":"ON","city":"Scarbrough","review_count":4,"rank":1,"stars":2.0},"geometry":{"coordinates":[-79.2575963,43.7760621],"type":"Point"}}
{"type":"Feature","properties":{"business_id":"jiVbuskwGD1uu46eAha0pQ","name":"Pioneers Pizza","categories":"Italian, Restaurants, Pizza, Food Delivery Services, Food, Chicken Wings, Sandwiches, Burgers","state":"ON","city":"Scarobrough","review_count":25,"rank":1,"stars":4.0},"geometry":{"coordinates":[-79.2584838,43.7868606],"type":"Point"}}
{"type":"Feature","properties":{"business_id":"5m-WYdtIUgfvZdStqmSiRA","name":"The Grackle Coffee Company","categories":"Coffee & Tea, Food, Cafes, Restaurants","state":"ON","city":"Schomberg","review_count":12,"rank":1,"stars":4.5},"geometry":{"coordinates":[-79.683573,44.001998],"type":"Point"}}
{"type":"Feature","properties":{"business_id":"Ynqk7hPNHHS68woewNj-Mg","name":"The Scruffy Duck","categories":"Pubs, Nightlife, Bars, Restaurants, American (Traditional)","state":"ON","city":"Schomberg","review_count":7,"rank":2,"stars":3.0},"geometry":{"coordinates":[-79.6845531,44.004794],"type":"Point"}}
{"type":"Feature","properties":{"business_id":"AYle9bIhjpA-Sk94N8W7VA","name":"Leonardo's on Main","categories":"Pizza, Restaurants","state":"ON","city":"Schomberg","review_count":5,"rank":3,"stars":5.0},"geometry":{"coordinates":[-79.6842669,44.0032453],"type":"Point"}}
{"type":"Feature","properties":{"business_id":"QQZsiFm7Xf8yStnVdYmHxA","name":"Port Soiree","categories":"Restaurants, Seafood, Portuguese","state":"ON","city":"Schomberg","review_count":5,"rank":3,"stars":4.5},"geometry":{"coordinates":[-79.6830585935,44.0008593069],"type":"Point"}}
{"type":"Feature","properties":{"business_id":"UkP3C7j66p3nsTstQ3MovQ","name":"Tim Hortons","categories":"Food, Sandwiches, Coffee & Tea, Bakeries, Restaurants, Delis","state":"ON","city":"Schomberg","review_count":5,"rank":3,"stars":4.5},"geometry":{"coordinates":[-79.677823,44.0054717],"type":"Point"}}
{"type":"Feature","properties":{"business_id":"6QCjUr7SmNCSDD7jKJPFYg","name":"Sheena's Kitchen","categories":"Event Planning & Services, American (Traditional), Restaurants, Caterers","state":"ON","city":"Schomberg","review_count":5,"rank":3,"stars":3.0},"geometry":{"coordinates":[-79.6844226122,44.004487755],"type":"Point"}}
{"type":"Feature","properties":{"business_id":"HZRTSC7R0JWThNTCqVLnsQ","name":"Cenacolo Restaurant","categories":"Restaurants, Italian","state":"PA","city":"North Huntingdon","review_count":170,"rank":1,"stars":4.5},"geometry":{"coordinates":[-79.724001,40.311108],"type":"Point"}}
{"type":"Feature","properties":{"business_id":"LDAOmVcTQH8-tRYO8oV0ZQ","name":"Rivertowne Pub","categories":"Bars, Pubs, Nightlife, Restaurants, American (Traditional)","state":"PA","city":"North Huntingdon","review_count":53,"rank":2,"stars":3.0},"geometry":{"coordinates":[-79.771281,40.361029],"type":"Point"}}
{"type":"Feature","properties":{"business_id":"6IZuuJdMqjNVTvOVRxoJ-Q","name":"The Wooden Nickel","categories":"Seafood, American (Traditional), Lounges, Nightlife, Steakhouses, American (New), Bars, Restaurants","state":"PA","city":"North Huntingdon","review_count":27,"rank":3,"stars":3.0},"geometry":{"coordinates":[-79.742718,40.330275],"type":"Point"}}
{"type":"Feature","properties":{"business_id":"o8TpuB5PmdXXYQhG_SxmhQ","name":"Grande Pizza","categories":"Restaurants, Pizza","state":"PA","city":"North Huntington","review_count":23,"rank":1,"stars":2.5},"geometry":{"coordinates":[-79.7418295507,40.332425364],"type":"Point"}}
{"type":"Feature","properties":{"business_id":"Hqs4YNST_ZHbshwyi4bnsQ","name":"Old School Pizzeria","categories":"Pizza, Italian, Restaurants, American (Traditional)","state":"NV","city":"North Las Vegas","review_count":815,"rank":1,"stars":4.5},"geometry":{"coordinates":[-115.120791,36.240227],"type":"Point"}}
{"type":"Feature","properties":{"business_id":"wKA2y-F_fPcBDOkpzDB9eQ","name":"Viva Zapatas Mexican Restaurant & Cantina","categories":"Mexican, Restaurants, Nightlife, Sports Bars, Bars","state":"NV","city":"North Las Vegas","review_count":785,"rank":2,"stars":4.0},"geometry":{"coordinates":[-115.0961299,36.2406953],"type":"Point"}}
{"type":"Feature","properties":{"business_id":"eDdhZZBHEi-TRWQ2xhRI5g","name":"Kaizen Fusion Roll & Sushi","categories":"Asian Fusion, Restaurants, Japanese, Sushi Bars","state":"NV","city":"North Las Vegas","review_count":621,"rank":3,"stars":3.5},"geometry":{"coordinates":[-115.1787461226,36.2842149358],"type":"Point"}}
{"type":"Feature","properties":{"business_id":"Wsk9CyM-FhybMA48I38JKg","name":"Popeyes Louisiana Kitchen","categories":"Chicken Wings, American (Traditional), Restaurants, Fast Food, Seafood","state":"OH","city":"North Olmstead","review_count":43,"rank":1,"stars":1.5},"geometry":{"coordinates":[-81.91255,41.420126],"type":"Point"}}
{"type":"Feature","properties":{"business_id":"CuT2Xh3vAYvRfxUWlUo6oA","name":"Fat Heads Brewery and Saloon","categories":"Food, Breweries, Brewpubs, American (Traditional), Restaurants","state":"OH","city":"North Olmsted","review_count":640,"rank":1,"stars":4.0},"geometry":{"coordinates":[-81.8942255,41.426338],"type":"Point"}}
{"type":"Feature","properties":{"business_id":"OFhlZImG34476xPfyCtQCw","name":"Wild Mango Restaurant & Bar","categories":"Asian Fusion, American (New), Restaurants","state":"OH","city":"North Olmsted","review_count":272,"rank":2,"stars":4.0},"geometry":{"coordinates":[-81.9045362044,41.4175495753],"type":"Point"}}
{"type":"Feature","properties":{"business_id":"QDTM1i1Q8RW559sfhZDbtQ","name":"The Rail - North Olmsted","categories":"Sandwiches, Nightlife, American (New), Restaurants, Bars, Burgers","state":"OH","city":"North Olmsted","review_count":249,"rank":3,"stars":4.0},"geometry":{"coordinates":[-81.904532,41.416442],"type":"Point"}}
{"type":"Feature","properties":{"business_id":"ngqQHvtrT8QxGF3e6yrmeg","name":"Stagecoach At Gordyville","categories":"Food, Pizza, American (New), Barbeque, Restaurants","state":"IL","city":"Gifford","review_count":9,"rank":1,"stars":3.0},"geometry":{"coordinates":[-88.039695,40.312407],"type":"Point"}}
{"type":"Feature","properties":{"business_id":"Wn8QXr2VdAR9J4JPsrlfgg","name":"Bibbs","categories":"American (Traditional), Restaurants","state":"IL","city":"Gifford","review_count":4,"rank":2,"stars":3.0},"geometry":{"coordinates":[-88.0213274062,40.3068808596],"type":"Point"}}
{"type":"Feature","properties":{"business_id":"0FUtlsQrJI7LhqDPxLumEw","name":"Joe's Farm Grill","categories":"Restaurants, Local Flavor, Pizza, American (Traditional), Salad, Italian","state":"AZ","city":"Gilbert","review_count":2369,"rank":1,"stars":4.0},"geometry":{"coordinates":[-111.726244,33.321866],"type":"Point"}}
{"type":"Feature","properties":{"business_id":"3N9U549Zse8UP-MwKZAjAQ","name":"Liberty Market","categories":"Grocery, Food, American (New), Local Flavor, Breakfast & Brunch, Restaurants, Coffee & Tea","state":"AZ","city":"Gilbert","review_count":1429,"rank":2,"stars":4.0},"geometry":{"coordinates":[-111.7898327,33.354768],"type":"Point"}}
{"type":"Feature","properties":{"business_id":"sJNcipFYElitBrtiJx0ezQ","name":"Arizona Wilderness Brewing","categories":"Burgers, Restaurants, Food, Breweries, American (New)","state":"AZ","city":"Gilbert","review_count":1405,"rank":3,"stars":4.0},"geometry":{"coordinates":[-111.8410686,33.3629811],"type":"Point"}}
{"type":"Feature","properties":{"business_id":"yauL5BpUTGukejbJskXl_g","name":"China Park","categories":"Restaurants, Chinese","state":"PA","city":"Glassport","review_count":13,"rank":1,"stars":4.0},"geometry":{"coordinates":[-79.8926996,40.3264474],"type":"Point"}}
{"type":"Feature","properties":{"business_id":"R2hVz1386VvoPFLdUbJyDQ","name":"Mama Pepino's Pizza & Pub","categories":"Pizza, Restaurants, Italian","state":"PA","city":"Glassport","review_count":12,"rank":2,"stars":3.5},"geometry":{"coordinates":[-79.8911938,40.334864],"type":"Point"}}
{"type":"Feature","properties":{"business_id":"Fq3JQOd0b_8MqENnxSwMDA","name":"Falorio's","categories":"Italian, Salad, Burgers, Pizza, Restaurants","state":"PA","city":"Glassport","review_count":8,"rank":3,"stars":4.0},"geometry":{"coordinates":[-79.8922217,40.32692],"type":"Point"}}
{"type":"Feature","properties":{"business_id":"gSMzra7SUF_Q52m_eMH6Vw","name":"Copper Kettle Pub","categories":"Restaurants, Nightlife, Bars, Pubs","state":"ON","city":"Glen Williams","review_count":24,"rank":1,"stars":4.0},"geometry":{"coordinates":[-79.9256576226,43.6701714779],"type":"Point"}}
{"type":"Feature","properties":{"business_id":"RtnTbhWYw4QjKhoTBV37OA","name":"Yard House","categories":"Asian Fusion, Vegetarian, Restaurants, Cocktail Bars, Bars, American (Traditional), American (New), Nightlife, Steakhouses, Seafood, Beer Bar, Wine Bars","state":"AZ","city":"Glendale","review_count":1075,"rank":1,"stars":3.5},"geometry":{"coordinates":[-112.261268,33.534123],"type":"Point"}}
{"type":"Feature","properties":{"business_id":"fOnpoMXToa5Qiyg95E6ENg","name":"Mike and Ronda's The Place","categories":"Restaurants, Breakfast & Brunch, American (Traditional), Diners","state":"AZ","city":"Glendale","review_count":794,"rank":2,"stars":4.0},"geometry":{"coordinates":[-112.1709837877,33.6386733386],"type":"Point"}}
{"type":"Feature","properties":{"business_id":"oGASRzKGpuiP12ilQH_nKg","name":"Haus Murphy's","categories":"Wine Bars, Restaurants, Food, Desserts, German, Nightlife, Sandwiches, Beer Bar, Bars","state":"AZ","city":"Glendale","review_count":748,"rank":3,"stars":4.0},"geometry":{"coordinates":[-112.1830044,33.5383092],"type":"Point"}}
{"type":"Feature","properties":{"business_id":"AnEHKt7--uzAIU9R3SIRnA","name":"Norval Pancake Factory","categories":"Breakfast & Brunch, Restaurants","state":"ON","city":"Halton Hills","review_count":36,"rank":1,"stars":3.0},"geometry":{"coordinates":[-79.9081194,43.6543162],"type":"Point"}}
{"type":"Feature","properties":{"business_id":"niMVuOKPbKDb7jjBu5sn2Q","name":"Norval Pancake Factory","categories":"Restaurants, Breakfast & Brunch","state":"ON","city":"Halton Hills","review_count":27,"rank":2,"stars":3.5},"geometry":{"coordinates":[-79.8586399,43.6468092],"type":"Point"}}
{"type":"Feature","properties":{"business_id":"2b8FvqlTImnwZ0AF2DhT9w","name":"The Glen Tavern","categories":"Restaurants, Gastropubs","state":"ON","city":"Halton Hills","review_count":16,"rank":3,"stars":5.0},"geometry":{"coordinates":[-79.9261349,43.6697935],"type":"Point"}}
{"type":"Feature","properties":{"business_id":"2DIWhkvQompY-QngcIZ02w","name":"Buffalo Bill Wings","categories":"Poutineries, Burgers, Fast Food, Chicken Wings, Restaurants","state":"QC","city":"Hampstead","review_count":13,"rank":1,"stars":2.5},"geometry":{"coordinates":[-73.628348,45.484082],"type":"Point"}}
{"type":"Feature","properties":{"business_id":"BRntjnHS-Xak_mGY6eokhQ","name":"Primanti Bros","categories":"Restaurants, American (New), Nightlife, Sports Bars, Sandwiches, Bars","state":"PA","city":"Hampton Township","review_count":58,"rank":1,"stars":3.0},"geometry":{"coordinates":[-79.9483264983,40.5928492679],"type":"Point"}}
{"type":"Feature","properties":{"business_id":"roL1Ns-9qNmiIlP9KA2efQ","name":"Route 8 BBQ","categories":"Sandwiches, Restaurants, Burgers, Barbeque","state":"PA","city":"Hampton Township","review_count":40,"rank":2,"stars":4.0},"geometry":{"coordinates":[-79.9590061111,40.5603892947],"type":"Point"}}
{"type":"Feature","properties":{"business_id":"KwfKAnIRcLFXotqVsR-6Xw","name":"UPtown Diner","categories":"Breakfast & Brunch, American (Traditional), Diners, Restaurants","state":"PA","city":"Hampton Township","review_count":30,"rank":3,"stars":3.0},"geometry":{"coordinates":[-79.9476787,40.5964879],"type":"Point"}}
{"type":"Feature","properties":{"business_id":"nwN2iLdDDEYU5-qkLEsPNw","name":"Ginos  Petit Dejeuner Breakfast","categories":"French, Restaurants, Coffee & Tea, Breakfast & Brunch, Creperies, Cafes, Food","state":"PA","city":"Harmarville","review_count":59,"rank":1,"stars":4.5},"geometry":{"coordinates":[-79.8355861,40.5388926],"type":"Point"}}
{"type":"Feature","properties":{"business_id":"58Io3pVWsT-RQxGgcYb-vQ","name":"Bob Evans","categories":"Salad, Comfort Food, Hotels & Travel, Breakfast & Brunch, American (New), Restaurants, Bed & Breakfast, American (Traditional)","state":"PA","city":"Harmarville","review_count":16,"rank":2,"stars":2.5},"geometry":{"coordinates":[-79.8406867683,40.5383419269],"type":"Point"}}
{"type":"Feature","properties":{"business_id":"WVi8G1QuTYsaIuOLUAfG-Q","name":"Harrisburg Family House","categories":"American (Traditional), Restaurants, Italian, Greek","state":"NC","city":"Harrisburg","review_count":165,"rank":1,"stars":3.5},"geometry":{"coordinates":[-80.667621,35.320054],"type":"Point"}}
{"type":"Feature","properties":{"business_id":"oMt3FrXtmYiP2ayn46PHtQ","name":"Zafran Kabab Palace - Harrisburg","categories":"Halal, Indian, Restaurants, Pakistani","state":"NC","city":"Harrisburg","review_count":126,"rank":2,"stars":4.5},"geometry":{"coordinates":[-80.6466085,35.3264399],"type":"Point"}}
{"type":"Feature","properties":{"business_id":"WpI8HWOVoHtCOOinszWDYQ","name":"Captain Steve's","categories":"Seafood, Food, Restaurants","state":"NC","city":"Harrisburg","review_count":114,"rank":3,"stars":3.5},"geometry":{"coordinates":[-80.6720951,35.3183876],"type":"Point"}}
{"type":"Feature","properties":{"business_id":"_ecuzP8HBsuQfYy7IR8Jyg","name":"Vento La Trattoria","categories":"Wine Bars, Bars, Nightlife, Restaurants, Italian","state":"OH","city":"Bay Village","review_count":82,"rank":1,"stars":3.5},"geometry":{"coordinates":[-81.937159,41.488526],"type":"Point"}}
{"type":"Feature","properties":{"business_id":"dpJbQLWxCgbNd9sboaed1w","name":"Mojo's Coffee and More","categories":"Sandwiches, Vegetarian, Coffee & Tea, Breakfast & Brunch, Food, Desserts, Restaurants","state":"OH","city":"Bay Village","review_count":71,"rank":2,"stars":4.5},"geometry":{"coordinates":[-81.9213891,41.4785882],"type":"Point"}}
{"type":"Feature","properties":{"business_id":"FoVasFoCvniz8j26uwA_Hg","name":"Bay Diner","categories":"Breakfast & Brunch, Restaurants, American (Traditional), Diners","state":"OH","city":"Bay Village","review_count":71,"rank":2,"stars":4.0},"geometry":{"coordinates":[-81.9218828,41.477813],"type":"Point"}}
{"type":"Feature","properties":{"business_id":"zRs1RRYfRJQOA0nFwpJ4NQ","name":"Bahama Breeze","categories":"Laotian, Latin American, American (New), Nightlife, Restaurants, Seafood, Caribbean, Bars","state":"OH","city":"Beachwood","review_count":227,"rank":1,"stars":3.0},"geometry":{"coordinates":[-81.4896052103,41.4554605666],"type":"Point"}}
{"type":"Feature","properties":{"business_id":"6LtbAtQKXWFj7QcqBnr6SA","name":"Wasabi Japanese Steakhouse","categories":"Food, Steakhouses, Restaurants, Sushi Bars, Japanese","state":"OH","city":"Beachwood","review_count":182,"rank":2,"stars":3.5},"geometry":{"coordinates":[-81.4873233,41.4579772],"type":"Point"}}
{"type":"Feature","properties":{"business_id":"JY4kqpElqfflV51PGttFNA","name":"Slyman's Tavern East","categories":"Breakfast & Brunch, American (Traditional), Nightlife, Restaurants, Bars, Beer Bar","state":"OH","city":"Beachwood","review_count":182,"rank":2,"stars":3.0},"geometry":{"coordinates":[-81.4887716,41.4516566],"type":"Point"}}
{"type":"Feature","properties":{"business_id":"CVQQrCoONWAHTpuPQGaPyQ","name":"Famiglia & Co.","categories":"Restaurants, Italian","state":"QC","city":"Beaconsfield","review_count":17,"rank":1,"stars":3.0},"geometry":{"coordinates":[-73.8522999752,45.4466980116],"type":"Point"}}
{"type":"Feature","properties":{"business_id":"KZp4sxZR1qmDZvFqVO46DQ","name":"Cugini's Pizza Café","categories":"Restaurants, Pizza","state":"QC","city":"Beaconsfield","review_count":16,"rank":2,"stars":4.5},"geometry":{"coordinates":[-73.8648099,45.43205],"type":"Point"}}
{"type":"Feature","properties":{"business_id":"zY0ADAggoPSYv6F48lj64g","name":"Duke and Devines","categories":"Pubs, Irish Pub, Restaurants, Bars, Nightlife, Irish","state":"QC","city":"Beaconsfield","review_count":14,"rank":3,"stars":4.0},"geometry":{"coordinates":[-73.88143,45.419878],"type":"Point"}}
{"type":"Feature","properties":{"business_id":"mmB7aFsF_zpGdMaiqRCF2w","name":"Patate Mallette","categories":"Fast Food, Burgers, Restaurants, Food Trucks, Food","state":"QC","city":"Beauharnois","review_count":6,"rank":1,"stars":4.0},"geometry":{"coordinates":[-73.874844,45.315634],"type":"Point"}}
{"type":"Feature","properties":{"business_id":"qBONOt_C9EMn3DS6-3SuXQ","name":"Restaurant Chez Leo","categories":"Restaurants, Burgers","state":"QC","city":"Beauharnois","review_count":3,"rank":2,"stars":2.0},"geometry":{"coordinates":[-73.8727677,45.3155241],"type":"Point"}}
{"type":"Feature","properties":{"business_id":"c68PE5Ds2pbP2veFO5OVPA","name":"Pizzeria Maya","categories":"Pizza, Restaurants","state":"QC","city":"Beauharnois","review_count":3,"rank":2,"stars":4.5},"geometry":{"coordinates":[-73.8758886,45.3139224],"type":"Point"}}
{"type":"Feature","properties":{"business_id":"oDz72mVeyKe59j28YmG8mA","name":"Choco Choc Café","categories":"Restaurants, Cafes, Comfort Food","state":"QC","city":"Lacolle","review_count":4,"rank":1,"stars":4.0},"geometry":{"coordinates":[-73.3726096256,45.0816015064],"type":"Point"}}
{"type":"Feature","properties":{"business_id":"P7HC1ep3bR2R8Sbk6OKAUQ","name":"Choo Choo's Coffee Shop","categories":"Breakfast & Brunch, Restaurants, Sandwiches, Food, Coffee & Tea","state":"OH","city":"Lagrange","review_count":14,"rank":1,"stars":4.0},"geometry":{"coordinates":[-82.1163809,41.2364707],"type":"Point"}}
{"type":"Feature","properties":{"business_id":"kvGkveYKwjk-ilqXCl_Log","name":"LaGrange Village Pizza","categories":"Restaurants, Pizza","state":"OH","city":"Lagrange","review_count":12,"rank":2,"stars":4.0},"geometry":{"coordinates":[-82.1195411682,41.2375116295],"type":"Point"}}
{"type":"Feature","properties":{"business_id":"pSXHnUevkD7ByBVbY2aNvQ","name":"Michelle's Cafe","categories":"Restaurants, Diners, Burgers, Breakfast & Brunch, Cafes","state":"OH","city":"Lagrange","review_count":9,"rank":3,"stars":3.5},"geometry":{"coordinates":[-82.118348,41.246141],"type":"Point"}}
{"type":"Feature","properties":{"business_id":"tqfOdHE_ukIjuhZct_6CWw","name":"Puerto Vallarta","categories":"Mexican, Seafood, Restaurants","state":"NC","city":"Lake Park","review_count":16,"rank":1,"stars":4.5},"geometry":{"coordinates":[-80.634331394,35.0848352268],"type":"Point"}}
{"type":"Feature","properties":{"business_id":"A40fb5_bt_tXNYwMPnDltw","name":"Southern Kitchen","categories":"Restaurants, American (Traditional), Sandwiches, Breakfast & Brunch, Southern","state":"NC","city":"Lake Park","review_count":6,"rank":2,"stars":2.0},"geometry":{"coordinates":[-80.6344088814,35.0849158761],"type":"Point"}}
{"type":"Feature","properties":{"business_id":"-wOeFi_j4YG2GNixI9CRCA","name":"Papa Doc's Shore Club","categories":"American (New), Seafood, Restaurants","state":"SC","city":"Lake Wylie","review_count":190,"rank":1,"stars":3.0},"geometry":{"coordinates":[-81.0405927,35.1069966],"type":"Point"}}
{"type":"Feature","properties":{"business_id":"aC6uSPaLuxdO0hYIRtanIw","name":"T-Bones On the Lake","categories":"Dive Bars, Nightlife, Restaurants, Beer, Wine & Spirits, Bars, Food, Steakhouses, American (Traditional)","state":"SC","city":"Lake Wylie","review_count":188,"rank":2,"stars":2.5},"geometry":{"coordinates":[-81.0405927,35.1069966],"type":"Point"}}
{"type":"Feature","properties":{"business_id":"MAugaG_RkNvT0ojmkTvexw","name":"Sweetwater Sports Bar & Grill","categories":"American (Traditional), Sports Bars, Bars, Burgers, Nightlife, Restaurants","state":"SC","city":"Lake Wylie","review_count":148,"rank":3,"stars":4.0},"geometry":{"coordinates":[-81.0588632,35.1159434],"type":"Point"}}
{"type":"Feature","properties":{"business_id":"JFaTPxWQC14VmFnXLv7W1g","name":"Melt Bar and Grilled","categories":"Pubs, Bars, Sandwiches, Nightlife, Comfort Food, Restaurants, American (Traditional)","state":"OH","city":"Lakewood","review_count":926,"rank":1,"stars":4.0},"geometry":{"coordinates":[-81.799077,41.485336],"type":"Point"}}
{"type":"Feature","properties":{"business_id":"0qsarzXaZau8REdE0rToxA","name":"Angelo's Pizza","categories":"Chicken Wings, Sandwiches, Pizza, Restaurants","state":"OH","city":"Lakewood","review_count":653,"rank":2,"stars":4.0},"geometry":{"coordinates":[-81.7882587118,41.4769930169],"type":"Point"}}
{"type":"Feature","properties":{"business_id":"le3JWiS5uZTkofP90Rm0pA","name":"Barroco","categories":"Sandwiches, Gluten-Free, Restaurants, American (Traditional), Nightlife, Colombian, Latin American, Bars","state":"OH","city":"Lakewood","review_count":627,"rank":3,"stars":4.5},"geometry":{"coordinates":[-81.7783377,41.4770749],"type":"Point"}}
{"type":"Feature","properties":{"business_id":"V7J9VuX5k5MI8MV7Ld2dMQ","name":"Tinkers Creek Road Tavern","categories":"American (Traditional), Restaurants","state":"OH","city":"Walton Hills","review_count":98,"rank":1,"stars":3.5},"geometry":{"coordinates":[-81.584214,41.372981],"type":"Point"}}
{"type":"Feature","properties":{"business_id":"barsB4JPYMT7UDI_-O-KkQ","name":"Hot Grillz Diner","categories":"Sandwiches, Diners, American (New), Breakfast & Brunch, Restaurants","state":"OH","city":"Walton Hills","review_count":24,"rank":2,"stars":4.5},"geometry":{"coordinates":[-81.527114,41.3662887],"type":"Point"}}
{"type":"Feature","properties":{"business_id":"EpwwKgTt97JL43_dryuSSA","name":"GetGo Fuel Station","categories":"Food, Convenience Stores, Automotive, Gas Stations","state":"OH","city":"Warrensville","review_count":7,"rank":1,"stars":3.0},"geometry":{"coordinates":[-81.4987954,41.4246172],"type":"Point"}}
{"type":"Feature","properties":{"business_id":"kZ36LGvnwetEq-seqwhkkw","name":"Abuelo's Mexican Restaurant","categories":"Tex-Mex, Mexican, Restaurants","state":"OH","city":"Warrensville Heights","review_count":134,"rank":1,"stars":3.5},"geometry":{"coordinates":[-81.496501,41.4490313],"type":"Point"}}
{"type":"Feature","properties":{"business_id":"eLYhQ_SK0KXEiREGu_PCIQ","name":"Cafe Avalaun","categories":"Cafes, Event Planning & Services, Caterers, Restaurants, Breakfast & Brunch, Food, Gluten-Free, Sandwiches, Coffee & Tea, Bakeries","state":"OH","city":"Warrensville Heights","review_count":130,"rank":2,"stars":4.0},"geometry":{"coordinates":[-81.4984835,41.4338948],"type":"Point"}}
{"type":"Feature","properties":{"business_id":"WD64Zr_LUXITJVAOFnT5Aw","name":"Buffalo Wild Wings","categories":"Nightlife, Bars, American (New), Food, Chicken Wings, Restaurants, Sports Bars, American (Traditional)","state":"OH","city":"Warrensville Heights","review_count":113,"rank":3,"stars":2.0},"geometry":{"coordinates":[-81.4958645403,41.449011307],"type":"Point"}}
{"type":"Feature","properties":{"business_id":"Y28XY3fko-Sdb9RBBgCDRQ","name":"DiBella's Subs","categories":"Restaurants, Delis, Salad, Sandwiches","state":"OH","city":"Warrensville Hts.","review_count":47,"rank":1,"stars":3.5},"geometry":{"coordinates":[-81.4967985,41.4472295],"type":"Point"}}
{"type":"Feature","properties":{"business_id":"mUGUWCImAJM3_pQUJP_aPw","name":"Itamae AYCE Sushi","categories":"Sushi Bars, Restaurants, Japanese","state":"ON","city":"Waterloo","review_count":40,"rank":1,"stars":2.5},"geometry":{"coordinates":[-79.3350121018,43.714041171],"type":"Point"}}
{"type":"Feature","properties":{"business_id":"HmRI5esljcm7kjWM--7Uyg","name":"The Lone Girl Brewing Company","categories":"Event Planning & Services, Nightlife, American (Traditional), Venues & Event Spaces, Food, American (New), Pubs, Bars, Restaurants, Breweries","state":"WI","city":"Waunakee","review_count":164,"rank":1,"stars":3.5},"geometry":{"coordinates":[-89.4542749669,43.1917721102],"type":"Point"}}
{"type":"Feature","properties":{"business_id":"gN8H5X-k7GHbAXm97q0kkg","name":"Blowin' Smoke BBQ","categories":"Sandwiches, Restaurants, Food Trucks, Food, Barbeque","state":"WI","city":"Waunakee","review_count":88,"rank":2,"stars":3.5},"geometry":{"coordinates":[-89.4134032,43.174189],"type":"Point"}}
{"type":"Feature","properties":{"business_id":"ZjvEgk0VrOsiV21ceex_Yw","name":"Athens Grill","categories":"Food, Nightlife, Bars, Burgers, Mediterranean, Convenience Stores, Restaurants, Greek","state":"WI","city":"Waunakee","review_count":80,"rank":3,"stars":4.0},"geometry":{"coordinates":[-89.415007,43.150747],"type":"Point"}}
{"type":"Feature","properties":{"business_id":"wxL9wgxLeuMMfI6SAXIzJw","name":"Smash Kitchen & Bar","categories":"Seafood, Comfort Food, Restaurants, American (Traditional)","state":"ON","city":"Unionville","review_count":697,"rank":1,"stars":4.0},"geometry":{"coordinates":[-79.31473,43.85912],"type":"Point"}}
{"type":"Feature","properties":{"business_id":"UkWme3kwg6L9rd4tCNB15w","name":"Moji Japanese Eatery","categories":"Seafood, Japanese, Food, Ice Cream & Frozen Yogurt, Ramen, Restaurants, Desserts, Asian Fusion, Sushi Bars","state":"ON","city":"Unionville","review_count":316,"rank":2,"stars":3.5},"geometry":{"coordinates":[-79.3035075,43.8600193],"type":"Point"}}
{"type":"Feature","properties":{"business_id":"68m1zLbNCERY2b4eQegQUg","name":"Old Firehall Confectionery","categories":"Specialty Food, Chocolatiers & Shops, Bakeries, Ice Cream & Frozen Yogurt, Desserts, Food","state":"ON","city":"Unionville","review_count":165,"rank":3,"stars":4.0},"geometry":{"coordinates":[-79.3123264313,43.8676990745],"type":"Point"}}
{"type":"Feature","properties":{"business_id":"pOhX1XjbBdPoO2Fyy8RGJg","name":"Geraci's Restaurant","categories":"Pizza, Italian, Restaurants","state":"OH","city":"University Heights","review_count":255,"rank":1,"stars":3.5},"geometry":{"coordinates":[-81.5367861,41.4982162],"type":"Point"}}
{"type":"Feature","properties":{"business_id":"RWP9WWl7xpRgboblHh0VGg","name":"Lox, Stock and Brisket","categories":"Delis, Restaurants, Sandwiches","state":"OH","city":"University Heights","review_count":130,"rank":2,"stars":4.5},"geometry":{"coordinates":[-81.5392720079,41.5012260455],"type":"Point"}}
{"type":"Feature","properties":{"business_id":"bhwWkioO5ROkyYQhABESfg","name":"Sweet Melissa","categories":"Restaurants, American (Traditional), American (New), Breakfast & Brunch, Sandwiches","state":"OH","city":"University Heights","review_count":117,"rank":3,"stars":3.0},"geometry":{"coordinates":[-81.535031,41.487133],"type":"Point"}}
{"type":"Feature","properties":{"business_id":"pqsNkM5pgbio1x-2HQoefw","name":"BJ's Restaurant & Brewhouse","categories":"Pubs, American (New), Nightlife, Restaurants, Bars, Pizza","state":"PA","city":"Upper Saint Clair","review_count":250,"rank":1,"stars":3.5},"geometry":{"coordinates":[-80.055458,40.345052],"type":"Point"}}
{"type":"Feature","properties":{"business_id":"T45qonnG40PTVex3Ua2Q9w","name":"The Porch at Siena","categories":"Nightlife, Restaurants, American (New), Bars, Pizza","state":"PA","city":"Upper Saint Clair","review_count":136,"rank":2,"stars":3.5},"geometry":{"coordinates":[-80.058578,40.347835],"type":"Point"}}
{"type":"Feature","properties":{"business_id":"djVSTqO5Kn3LT6s6tWVeSw","name":"Hello Bistro","categories":"Burgers, Salad, Cafes, Restaurants","state":"PA","city":"Upper Saint Clair","review_count":55,"rank":3,"stars":3.0},"geometry":{"coordinates":[-80.0574215,40.3471534],"type":"Point"}}
{"type":"Feature","properties":{"business_id":"r78AHYzmDKDffJAwrB5aIg","name":"Bonefish Grill","categories":"Seafood, Restaurants, American (New), Cocktail Bars, Bars, Nightlife","state":"PA","city":"Upper St Clair","review_count":142,"rank":1,"stars":3.5},"geometry":{"coordinates":[-80.056861396,40.3451178158],"type":"Point"}}
{"type":"Feature","properties":{"business_id":"F4zjU9iYXWtZdrTT4ECEVg","name":"Nothing Bundt Cakes","categories":"Desserts, Cupcakes, Food, Bakeries","state":"PA","city":"Upper St Clair","review_count":31,"rank":2,"stars":4.5},"geometry":{"coordinates":[-80.057416,40.347164],"type":"Point"}}
{"type":"Feature","properties":{"business_id":"7A6mfqSfG3AG3WZcr45m-Q","name":"Dunkin'","categories":"Coffee & Tea, Breakfast & Brunch, Donuts, Food, Restaurants","state":"PA","city":"Upper St Clair","review_count":6,"rank":3,"stars":2.5},"geometry":{"coordinates":[-80.0651702,40.3259311],"type":"Point"}}
{"type":"Feature","properties":{"business_id":"OEMTOWaemuov7TFD1sW3lw","name":"Forgotten Taste Pierogies","categories":"Desserts, Food, Polish, Russian, American (New), Restaurants","state":"PA","city":"Moon","review_count":93,"rank":1,"stars":4.5},"geometry":{"coordinates":[-80.2153930664,40.5120582581],"type":"Point"}}
{"type":"Feature","properties":{"business_id":"L3ysePkSGjp11VIcmA3A-Q","name":"Buford's Kitchen","categories":"Restaurants, Southern, Breakfast & Brunch, Burgers, Nightlife, Bars","state":"PA","city":"Moon","review_count":61,"rank":2,"stars":3.0},"geometry":{"coordinates":[-80.2182092,40.5203151],"type":"Point"}}
{"type":"Feature","properties":{"business_id":"xOYJ5-WqKdGy5l4nviDU-A","name":"Mike & Tony's Gyros","categories":"Restaurants, Greek, American (New), Salad, Sandwiches","state":"PA","city":"Moon","review_count":50,"rank":3,"stars":3.5},"geometry":{"coordinates":[-80.2181983246,40.520346757],"type":"Point"}}
{"type":"Feature","properties":{"business_id":"CqNRlHAz0LIVobHR4tYqnw","name":"Brighton Hot Dog Shoppe","categories":"Hot Dogs, Restaurants","state":"PA","city":"Moon TWP","review_count":19,"rank":1,"stars":3.5},"geometry":{"coordinates":[-80.2197775,40.5212671],"type":"Point"}}
{"type":"Feature","properties":{"business_id":"F44RugAixD4yauHlTGXGug","name":"Primanti Bros","categories":"Chicken Wings, Restaurants, American (Traditional), American (New), Sports Bars, Pizza, Nightlife, Bars, Sandwiches","state":"PA","city":"Moon Township","review_count":255,"rank":1,"stars":3.5},"geometry":{"coordinates":[-80.2227049,40.506615],"type":"Point"}}
{"type":"Feature","properties":{"business_id":"1hqOjPxgH8IXE4bNq6DFiw","name":"Wings Suds & Spuds","categories":"Event Planning & Services, Dive Bars, Nightlife, American (Traditional), Caterers, Restaurants, Chicken Wings, Bars","state":"PA","city":"Moon Township","review_count":125,"rank":2,"stars":3.5},"geometry":{"coordinates":[-80.2231591,40.505375],"type":"Point"}}
{"type":"Feature","properties":{"business_id":"DwSFTVUZX0xIE6T54yp2JQ","name":"Patrick's Pub and Grille","categories":"Restaurants, Nightlife, American (New), Bars, Pubs, Gastropubs","state":"PA","city":"Moon Township","review_count":104,"rank":3,"stars":4.0},"geometry":{"coordinates":[-80.2421342698,40.5466245751],"type":"Point"}}
{"type":"Feature","properties":{"business_id":"PxZBTBvhKcTQ0pXhCdy4Ng","name":"Wendy's","categories":"Restaurants, Burgers, Fast Food","state":"PA","city":"Moon Twp","review_count":9,"rank":1,"stars":2.5},"geometry":{"coordinates":[-80.2226549,40.5060071],"type":"Point"}}
{"type":"Feature","properties":{"business_id":"AT5NZHqoLeP4rhWMM2OWBA","name":"Novanta 90 Pizzeria Napoletana","categories":"Restaurants, Italian, Pizza","state":"NC","city":"Mooresville","review_count":120,"rank":1,"stars":4.0},"geometry":{"coordinates":[-80.866654,35.5279],"type":"Point"}}
{"type":"Feature","properties":{"business_id":"CY2fHhckU6EYqG2fNP0WUA","name":"Sun Up Cafe","categories":"Breakfast & Brunch, Sandwiches, Restaurants, American (Traditional)","state":"NC","city":"Mooresville","review_count":105,"rank":2,"stars":3.5},"geometry":{"coordinates":[-80.8664743244,35.5278076019],"type":"Point"}}
{"type":"Feature","properties":{"business_id":"0cDKiKwsE6NAlfhx-cAWkA","name":"Table 31","categories":"Restaurants, American (New), Steakhouses","state":"NC","city":"Mooresville","review_count":65,"rank":3,"stars":4.0},"geometry":{"coordinates":[-80.8675443112,35.527089694],"type":"Point"}}
{"type":"Feature","properties":{"business_id":"dcrL22ant20s1thjdVGhLw","name":"Smokin' Q's BBQ and Beer House","categories":"Nightlife, Beer Bar, Bars, Event Planning & Services, Restaurants, Caterers, Sandwiches, Barbeque","state":"OH","city":"Mayfield","review_count":120,"rank":1,"stars":3.5},"geometry":{"coordinates":[-81.43913,41.543775],"type":"Point"}}
{"type":"Feature","properties":{"business_id":"Y3RWEmu4ykuc2LvG3Qv9Ew","name":"Pizza Roma","categories":"Pizza, Restaurants","state":"OH","city":"Mayfield","review_count":32,"rank":2,"stars":4.0},"geometry":{"coordinates":[-81.438065,41.540021],"type":"Point"}}
{"type":"Feature","properties":{"business_id":"kJdIaFnq9lcMOBjhjDtgFg","name":"Tommy V's Pastaria","categories":"Specialty Food, Pasta Shops, Event Planning & Services, Cheese Shops, Food, Italian, Restaurants, Pizza, Caterers","state":"OH","city":"Mayfield","review_count":27,"rank":3,"stars":4.0},"geometry":{"coordinates":[-81.4375102,41.5394776],"type":"Point"}}
{"type":"Feature","properties":{"business_id":"jRAUH6Ypc_2rX_nh3NMqcQ","name":"Otani Japanese Restaurant","categories":"Sushi Bars, Japanese, Restaurants","state":"OH","city":"Mayfield Heights","review_count":133,"rank":1,"stars":3.5},"geometry":{"coordinates":[-81.4502579,41.5160471],"type":"Point"}}
{"type":"Feature","properties":{"business_id":"dWliPaP9k43hSKGSujNFXg","name":"Piccolo Restaurant","categories":"Bars, Restaurants, Italian, Wine Bars, Nightlife","state":"OH","city":"Mayfield Heights","review_count":95,"rank":2,"stars":3.5},"geometry":{"coordinates":[-81.438778,41.52617],"type":"Point"}}
{"type":"Feature","properties":{"business_id":"V3A7tvyfSX9pmy6L2ohqDg","name":"First Watch","categories":"Cafes, Fast Food, Breakfast & Brunch, Restaurants, American (Traditional), Food","state":"OH","city":"Mayfield Heights","review_count":95,"rank":2,"stars":4.0},"geometry":{"coordinates":[-81.4371695,41.5215343],"type":"Point"}}
{"type":"Feature","properties":{"business_id":"keDD0Y6nphUzgxf7rVGZAw","name":"The Vitamin Shoppe","categories":"Health Markets, Food, Vitamins & Supplements, Shopping, Specialty Food","state":"OH","city":"Mayfield Hgts","review_count":3,"rank":1,"stars":4.5},"geometry":{"coordinates":[-81.4534332,41.5204713],"type":"Point"}}
{"type":"Feature","properties":{"business_id":"suIn6SJHBJaOVOOikpWNOg","name":"Burger King","categories":"Restaurants, Fast Food, Burgers","state":"OH","city":"Mayfield Hts","review_count":18,"rank":1,"stars":1.5},"geometry":{"coordinates":[-81.4542728,41.5203993],"type":"Point"}}
{"type":"Feature","properties":{"business_id":"5wyCSyKqUCjRZKDaWX_fmQ","name":"Wendy's","categories":"Burgers, Fast Food, Restaurants","state":"OH","city":"Mayfield Hts.","review_count":18,"rank":1,"stars":1.5},"geometry":{"coordinates":[-81.4392506,41.5231925],"type":"Point"}}
{"type":"Feature","properties":{"business_id":"PIS8lB8cYYzIOa80x5MRLQ","name":"Aladdin's Eatery - Mayfield Village","categories":"Middle Eastern, Restaurants","state":"OH","city":"Mayfield Village","review_count":91,"rank":1,"stars":4.0},"geometry":{"coordinates":[-81.4381013248,41.5402283203],"type":"Point"}}
{"type":"Feature","properties":{"business_id":"x96SxIclNKmAgTEjQbkhxg","name":"Pizzazz Pizza & Dining Room","categories":"Pizza, Restaurants","state":"OH","city":"Mayfield Village","review_count":70,"rank":2,"stars":3.5},"geometry":{"coordinates":[-81.438588605,41.5376932804],"type":"Point"}}
{"type":"Feature","properties":{"business_id":"N1LjEaUVBdaOki71VZHT_g","name":"Yours Truly Restaurants","categories":"Breakfast & Brunch, American (Traditional), Restaurants, Diners","state":"OH","city":"Mayfield Village","review_count":52,"rank":3,"stars":3.5},"geometry":{"coordinates":[-81.437898,41.539643],"type":"Point"}}
{"type":"Feature","properties":{"business_id":"HrppuvgMdHCCWw6UObirrA","name":"Southside Diner","categories":"Food, Coffee & Tea, Breakfast & Brunch, American (New), Restaurants, Diners","state":"OH","city":"Parma","review_count":307,"rank":1,"stars":4.5},"geometry":{"coordinates":[-81.760632,41.36356],"type":"Point"}}
{"type":"Feature","properties":{"business_id":"OMskTANen2g5AlwN4EyxMg","name":"Seoul Garden","categories":"Restaurants, Korean, Barbeque, Buffets","state":"OH","city":"Parma","review_count":307,"rank":1,"stars":4.5},"geometry":{"coordinates":[-81.7301328,41.4171998],"type":"Point"}}
{"type":"Feature","properties":{"business_id":"lcd71KXyEdFjGzWdqH3tAw","name":"Mizu Japanese Sushi Restaurant","categories":"Salad, Restaurants, Sushi Bars, Japanese","state":"OH","city":"Parma","review_count":274,"rank":3,"stars":4.5},"geometry":{"coordinates":[-81.7561202,41.4179437],"type":"Point"}}
{"type":"Feature","properties":{"business_id":"tnd0GWjSEntWbG6wpLu61g","name":"Cuisine of India","categories":"Indian, Restaurants, Vegetarian, Vegan, Halal","state":"OH","city":"Parma Heights","review_count":100,"rank":1,"stars":3.5},"geometry":{"coordinates":[-81.7837226,41.3778401],"type":"Point"}}
{"type":"Feature","properties":{"business_id":"UDpV5ZVAWqkfW00GRb4E7g","name":"Harry Buffalo","categories":"Pubs, Burgers, Sports Bars, Restaurants, Nightlife, Bars, American (Traditional)","state":"OH","city":"Parma Heights","review_count":58,"rank":2,"stars":2.5},"geometry":{"coordinates":[-81.76832,41.3857201],"type":"Point"}}
{"type":"Feature","properties":{"business_id":"2F6dAex41iqsoxjSX4xAZA","name":"Dragon Gate","categories":"Restaurants, Chinese","state":"OH","city":"Parma Heights","review_count":58,"rank":2,"stars":4.0},"geometry":{"coordinates":[-81.7841118,41.3822818],"type":"Point"}}
{"type":"Feature","properties":{"business_id":"NHHDDrnQXabrbmrQuahbeg","name":"Wendy's","categories":"Burgers, Restaurants, Fast Food","state":"OH","city":"Parma Hts.","review_count":9,"rank":1,"stars":2.5},"geometry":{"coordinates":[-81.7734260944,41.3849762659],"type":"Point"}}
{"type":"Feature","properties":{"business_id":"1jdE-PeiQHvL8165vebWrw","name":"Food Lion","categories":"Sandwiches, Delis, Food, Grocery, Restaurants","state":"NC","city":"Paw Creek","review_count":4,"rank":1,"stars":3.0},"geometry":{"coordinates":[-80.8606968,35.3056837],"type":"Point"}}
{"type":"Feature","properties":{"business_id":"l9khrbjVq0BfKiaILtG5Qg","name":"Last Call","categories":"Nightlife, Bars","state":"IL","city":"Penfield","review_count":3,"rank":1,"stars":4.5},"geometry":{"coordinates":[-87.9475146,40.3058167],"type":"Point"}}
{"type":"Feature","properties":{"business_id":"ZwKUXfZguhBD1zsfb0RLPg","name":"Winking Lizard","categories":"Bars, Barbeque, Nightlife, Dive Bars, Pubs, American (Traditional), Restaurants","state":"OH","city":"Peninsula","review_count":141,"rank":1,"stars":3.5},"geometry":{"coordinates":[-81.5489393374,41.2413988215],"type":"Point"}}
{"type":"Feature","properties":{"business_id":"mNRoes9FSur0hPrjt-i-tw","name":"Fisher's Cafe & Pub","categories":"Nightlife, Pubs, Salad, Restaurants, Bars, American (Traditional), American (New)","state":"OH","city":"Peninsula","review_count":138,"rank":2,"stars":3.5},"geometry":{"coordinates":[-81.548693,41.240958],"type":"Point"}}
{"type":"Feature","properties":{"business_id":"hr0vxeTzlHx6fTpSSmu2AA","name":"Russo's","categories":"Italian, Sandwiches, Pizza, Bars, Cocktail Bars, Nightlife, Restaurants, Cajun/Creole","state":"OH","city":"Peninsula","review_count":120,"rank":3,"stars":4.0},"geometry":{"coordinates":[-81.4958047,41.2022425],"type":"Point"}}
{"type":"Feature","properties":{"business_id":"1ck8LxgkUhWmQr5cDiZvrQ","name":"Lowesville Cafe","categories":"Breakfast & Brunch, Cafes, Restaurants","state":"NC","city":"Lowesville","review_count":32,"rank":1,"stars":4.0},"geometry":{"coordinates":[-81.011799,35.408161],"type":"Point"}}
{"type":"Feature","properties":{"business_id":"avy_fjHQWNXRtJV-0ER7Zw","name":"Cook Out","categories":"Burgers, Restaurants","state":"NC","city":"Lowesville","review_count":11,"rank":2,"stars":3.0},"geometry":{"coordinates":[-80.9929159,35.443996],"type":"Point"}}
{"type":"Feature","properties":{"business_id":"h58IV-LbmpycdzlwVhUhgw","name":"Granite City Food & Brewery","categories":"Food, American (Traditional), Breweries, Restaurants, Breakfast & Brunch","state":"OH","city":"Lyndhurst","review_count":280,"rank":1,"stars":2.5},"geometry":{"coordinates":[-81.5040938283,41.5032381148],"type":"Point"}}
{"type":"Feature","properties":{"business_id":"eSlmVbicgkhtD9niSuReJw","name":"The Cheesecake Factory","categories":"Food, Restaurants, Desserts, Salad, American (Traditional), Seafood, American (New)","state":"OH","city":"Lyndhurst","review_count":266,"rank":2,"stars":3.5},"geometry":{"coordinates":[-81.5021447077,41.5023004738],"type":"Point"}}
{"type":"Feature","properties":{"business_id":"4M09MJwxRx8utAgEntFVrQ","name":"Bar Louie - Legacy Village","categories":"Cocktail Bars, American (New), Nightlife, Restaurants, Sports Bars, Bars, Gastropubs","state":"OH","city":"Lyndhurst","review_count":172,"rank":3,"stars":3.0},"geometry":{"coordinates":[-81.5022549033,41.5032902],"type":"Point"}}
{"type":"Feature","properties":{"business_id":"kUtfprUGDbfEaUlc1bk2Jg","name":"Lesley's Creative Cakes","categories":"Cupcakes, Florists, Desserts, Food, Shopping, Breakfast & Brunch, Event Planning & Services, Restaurants, Caterers, Flowers & Gifts, Bakeries","state":"AZ","city":"MESA","review_count":137,"rank":1,"stars":4.5},"geometry":{"coordinates":[-111.7867535,33.3925411],"type":"Point"}}
{"type":"Feature","properties":{"business_id":"V-Yz9Z1wSBcZtRcd-bnIeQ","name":"Subway Restaurants","categories":"Restaurants, Sandwiches, Fast Food","state":"AZ","city":"MESA","review_count":5,"rank":2,"stars":3.5},"geometry":{"coordinates":[-111.6694728,33.3633013],"type":"Point"}}
{"type":"Feature","properties":{"business_id":"FqmjFD5UvXz3a_cjm8Unsw","name":"Dairy Queen Orange Julius","categories":"Restaurants, Ice Cream & Frozen Yogurt, Food, Juice Bars & Smoothies, Fast Food","state":"AZ","city":"MESA","review_count":5,"rank":2,"stars":2.0},"geometry":{"coordinates":[-111.6900751019,33.390404285],"type":"Point"}}
{"type":"Feature","properties":{"business_id":"D2RoOb4UkH2azf8DgvNfUA","name":"Pizza Hut","categories":"Pizza, Restaurants, Italian, Chicken Wings","state":"CO","city":"Macedonia","review_count":11,"rank":1,"stars":2.5},"geometry":{"coordinates":[-81.51675,41.314284],"type":"Point"}}
{"type":"Feature","properties":{"business_id":"0mS42KOASlBugoM-SAc7gQ","name":"Tacos Mexicanos","categories":"Restaurants, Mexican, Food, Latin American","state":"OH","city":"Macedonia","review_count":147,"rank":1,"stars":4.5},"geometry":{"coordinates":[-81.5176079312,41.2994789758],"type":"Point"}}
{"type":"Feature","properties":{"business_id":"F8ZTmT9pGiSF2jx9FZDjdQ","name":"Zuki Sushi House","categories":"Chinese, Sushi Bars, Restaurants, Japanese","state":"OH","city":"Macedonia","review_count":92,"rank":2,"stars":5.0},"geometry":{"coordinates":[-81.5064394794,41.314242764],"type":"Point"}}
{"type":"Feature","properties":{"business_id":"Cilu8Dbb-tTHgEBM4-0vZA","name":"Winking Lizard Tavern","categories":"Bars, American (Traditional), Sports Bars, Nightlife, Restaurants","state":"OH","city":"Macedonia","review_count":85,"rank":3,"stars":3.5},"geometry":{"coordinates":[-81.5202979,41.3146314],"type":"Point"}}
{"type":"Feature","properties":{"business_id":"BaQCd0LXvVk1xvUjxZJ9nA","name":"Buffalo Wild Wings","categories":"Chicken Wings, Nightlife, Sports Bars, Restaurants, Bars, American (Traditional)","state":"PA","city":"Wilkins","review_count":67,"rank":1,"stars":3.0},"geometry":{"coordinates":[-79.809807,40.4307769296],"type":"Point"}}
{"type":"Feature","properties":{"business_id":"C3D5ww46iTU6LCWgSwM0vA","name":"Madeleine Bakery And Bistro","categories":"Bakeries, Cafes, Food, Restaurants","state":"PA","city":"Wilkinsburg","review_count":57,"rank":1,"stars":4.5},"geometry":{"coordinates":[-79.8921779,40.4389584],"type":"Point"}}
{"type":"Feature","properties":{"business_id":"Pz_qQdmstSxmyFw1r0enDw","name":"Ms. Jean's Southern Cuisine","categories":"Restaurants, Soul Food","state":"PA","city":"Wilkinsburg","review_count":23,"rank":2,"stars":3.5},"geometry":{"coordinates":[-79.8803169,40.4433014],"type":"Point"}}
{"type":"Feature","properties":{"business_id":"27m3lsK3LpZm5XeGM4oVNw","name":"Salvatore's Pizza House","categories":"Pizza, Sandwiches, Restaurants, Salad, Chicken Wings","state":"PA","city":"Wilkinsburg","review_count":19,"rank":3,"stars":4.0},"geometry":{"coordinates":[-79.8855647289,40.4435611989],"type":"Point"}}
{"type":"Feature","properties":{"business_id":"bIA8SE0KHRjzh5WmN8iEkg","name":"Willoughby Brewing Co.","categories":"American (Traditional), Breweries, Restaurants, Food","state":"OH","city":"Willoughby","review_count":235,"rank":1,"stars":3.5},"geometry":{"coordinates":[-81.4055988193,41.6414805204],"type":"Point"}}
{"type":"Feature","properties":{"business_id":"fThrN4tfupIGetkrz18JOg","name":"BRIM Kitchen + Brewery","categories":"Food, Restaurants, Breweries, American (New), Nightlife, Event Planning & Services, Pubs, Caterers, Bars","state":"OH","city":"Willoughby","review_count":205,"rank":2,"stars":4.0},"geometry":{"coordinates":[-81.4062192,41.6434328],"type":"Point"}}
{"type":"Feature","properties":{"business_id":"TIWuQaqown-dCb9FojdN5g","name":"Sol","categories":"Tapas/Small Plates, Restaurants, Beer, Wine & Spirits, American (New), Spanish, Food, Latin American","state":"OH","city":"Willoughby","review_count":123,"rank":3,"stars":3.5},"geometry":{"coordinates":[-81.4053605,41.6407198],"type":"Point"}}
{"type":"Feature","properties":{"business_id":"u_1EIg-c3d8XYfrmcdHX3w","name":"Lure Bistro","categories":"Seafood, Bistros, American (New), Restaurants, Sushi Bars","state":"OH","city":"Willoughby","review_count":123,"rank":3,"stars":3.5},"geometry":{"coordinates":[-81.4080439,41.6415207],"type":"Point"}}
{"type":"Feature","properties":{"business_id":"HC7XYU669ZXbE1cChU5U0Q","name":"Mario Fazio's Italian Restaurant","categories":"Food Delivery Services, Caterers, Italian, Restaurants, Event Planning & Services, Food, Pizza","state":"OH","city":"Willoughby Hills","review_count":131,"rank":1,"stars":4.5},"geometry":{"coordinates":[-81.4419328,41.5868758],"type":"Point"}}
{"type":"Feature","properties":{"business_id":"lBPes5kPthKicPVhhE-bfg","name":"Local Tavern","categories":"American (New), Nightlife, Bars, Restaurants","state":"OH","city":"Willoughby Hills","review_count":99,"rank":2,"stars":4.0},"geometry":{"coordinates":[-81.4694947,41.5843822],"type":"Point"}}
{"type":"Feature","properties":{"business_id":"PZjUi1svogVLSwhy-mBpNA","name":"The Lobster Pot","categories":"Seafood, Restaurants","state":"OH","city":"Willoughby Hills","review_count":98,"rank":3,"stars":3.5},"geometry":{"coordinates":[-81.439266077,41.586725667],"type":"Point"}}
{"type":"Feature","properties":{"business_id":"F1CCt2Gl6qpOB73mXi5anA","name":"Duckworths Grill & Taphouse","categories":"Restaurants, Nightlife, Sports Bars, Chicken Wings, Gastropubs, American (Traditional), Bars, Cheesesteaks","state":"NC","city":"Huntersville","review_count":473,"rank":1,"stars":4.0},"geometry":{"coordinates":[-80.867257,35.440001],"type":"Point"}}
{"type":"Feature","properties":{"business_id":"PvyUmuJtpSYbkIaMQ0Fz2A","name":"Metro Diner","categories":"Restaurants, American (Traditional), Breakfast & Brunch, Food, Diners","state":"NC","city":"Huntersville","review_count":390,"rank":2,"stars":4.5},"geometry":{"coordinates":[-80.863166,35.407526],"type":"Point"}}
{"type":"Feature","properties":{"business_id":"fJqY-E3adwx7LLozV1TfFA","name":"eeZ Fusion & Sushi","categories":"Asian Fusion, Restaurants, Sushi Bars, Thai, Seafood","state":"NC","city":"Huntersville","review_count":370,"rank":3,"stars":4.0},"geometry":{"coordinates":[-80.8783882298,35.4464951043],"type":"Point"}}
{"type":"Feature","properties":{"business_id":"oH96Dd6e7oeGNwWAE-baUA","name":"Leblanc Patates","categories":"Fast Food, Restaurants","state":"QC","city":"Huntingdon","review_count":7,"rank":1,"stars":4.5},"geometry":{"coordinates":[-74.1731954,45.0876429],"type":"Point"}}
{"type":"Feature","properties":{"business_id":"vFvREHydOVYEJ-AlrkcG5g","name":"Resto Belgo","categories":"Restaurants, Cafes, Poutineries, Belgian","state":"QC","city":"Iberville","review_count":8,"rank":1,"stars":4.5},"geometry":{"coordinates":[-73.2316275313,45.3041134865],"type":"Point"}}
{"type":"Feature","properties":{"business_id":"2ipAUIW4kVsE6nl4aREgag","name":"Cole's Pub","categories":"American (Traditional), Nightlife, Restaurants, Bars","state":"PA","city":"Imperial","review_count":39,"rank":1,"stars":4.0},"geometry":{"coordinates":[-80.2518367699,40.4514327973],"type":"Point"}}
{"type":"Feature","properties":{"business_id":"fRqO2UFdERD4In_9_zO-dg","name":"Angelia's Pizza","categories":"Caterers, Food, Food Delivery Services, Event Planning & Services, Italian, Restaurants, Pizza, Sandwiches","state":"PA","city":"Imperial","review_count":34,"rank":2,"stars":4.0},"geometry":{"coordinates":[-80.2369320751,40.443112136],"type":"Point"}}
{"type":"Feature","properties":{"business_id":"VieHNwB0lXAHYYlT0r2x6Q","name":"Garden of Eating Pizzeria","categories":"Pizza, Salad, Restaurants, American (New)","state":"PA","city":"Imperial","review_count":25,"rank":3,"stars":4.0},"geometry":{"coordinates":[-80.2276656,40.4403986],"type":"Point"}}
{"type":"Feature","properties":{"business_id":"mlCDsdVFuZvRGrJTfQ6amw","name":"Melt Bar and Grilled","categories":"Sandwiches, Pubs, American (Traditional), Food, Beer, Wine & Spirits, Comfort Food, Restaurants, Nightlife, Bars","state":"OH","city":"Independence","review_count":611,"rank":1,"stars":4.0},"geometry":{"coordinates":[-81.6446144208,41.3941325081],"type":"Point"}}
{"type":"Feature","properties":{"business_id":"k9rR23TeanYDFEdqUK9Hjw","name":"Slyman's Tavern","categories":"Bars, American (Traditional), Restaurants, Nightlife, Sandwiches","state":"OH","city":"Independence","review_count":288,"rank":2,"stars":3.5},"geometry":{"coordinates":[-81.6423463046,41.3963851096],"type":"Point"}}
{"type":"Feature","properties":{"business_id":"GXGQsBBdQ57nUaHHFF7_CQ","name":"Scratch","categories":"Restaurants, Salad, Breakfast & Brunch, American (New), American (Traditional), Modern European","state":"OH","city":"Independence","review_count":200,"rank":3,"stars":4.0},"geometry":{"coordinates":[-81.6405521,41.3829402],"type":"Point"}}
{"type":"Feature","properties":{"business_id":"Y2yWvcEBs6ESnmOQMBKkeQ","name":"Louisiana Fried Chicken","categories":"Chicken Wings, Restaurants, Tacos, Food, Mexican, Donuts, Juice Bars & Smoothies, Chicken Shop, Seafood","state":"AZ","city":"Pheonix AZ","review_count":11,"rank":1,"stars":3.5},"geometry":{"coordinates":[-112.0959487,33.3917775],"type":"Point"}}
{"type":"Feature","properties":{"business_id":"5gndAzF9MGyff9Ye73jGkg","name":"Philo Tavern","categories":"American (Traditional), Restaurants","state":"IL","city":"Philo","review_count":16,"rank":1,"stars":3.0},"geometry":{"coordinates":[-88.158218,40.006779],"type":"Point"}}
{"type":"Feature","properties":{"business_id":"UPqjs8ksW3e3wF-U5SoA6A","name":"Daly's Sports Bar","categories":"Nightlife, Sports Bars, Bars","state":"IL","city":"Philo","review_count":3,"rank":2,"stars":4.5},"geometry":{"coordinates":[-88.1587987061,40.0070911087],"type":"Point"}}
{"type":"Feature","properties":{"business_id":"utIA0LyQmwP-9DRyxUe6qQ","name":"Snooze, An A.M. Eatery","categories":"Breakfast & Brunch, Coffee & Tea, Sandwiches, Restaurants, Food","state":"AZ","city":"Phoenix","review_count":3515,"rank":1,"stars":4.0},"geometry":{"coordinates":[-112.0370330476,33.5082039543],"type":"Point"}}
{"type":"Feature","properties":{"business_id":"VyVIneSU7XAWgMBllI6LnQ","name":"Bobby Q","categories":"Barbeque, Caterers, Event Planning & Services, American (New), Restaurants","state":"AZ","city":"Phoenix","review_count":3302,"rank":2,"stars":4.5},"geometry":{"coordinates":[-112.115746955,33.5610848047],"type":"Point"}}
{"type":"Feature","properties":{"business_id":"pSQFynH1VxkfSmehRXlZWw","name":"Pizzeria Bianco","categories":"Sandwiches, Tapas/Small Plates, Restaurants, Salad, Pizza, Italian","state":"AZ","city":"Phoenix","review_count":2527,"rank":3,"stars":4.0},"geometry":{"coordinates":[-112.0656345,33.4491602],"type":"Point"}}
{"type":"Feature","properties":{"business_id":"2H9lfg6In0Z5bFi0hbWOIg","name":"Omaha Steakhouse","categories":"Restaurants, Steakhouses","state":"TX","city":"Phoenix","review_count":65,"rank":1,"stars":3.5},"geometry":{"coordinates":[-112.024905,33.510985],"type":"Point"}}
{"type":"Feature","properties":{"business_id":"82bfom6b5BQlnnd4m3wwew","name":"Desert Finds","categories":"Restaurants, Estate Liquidation, Real Estate, Pizza, Real Estate Services, Home Services","state":"AZ","city":"Phoenix Valley","review_count":3,"rank":1,"stars":1.0},"geometry":{"coordinates":[-112.07,33.45],"type":"Point"}}
{"type":"Feature","properties":{"business_id":"mhjSXQR9LvL10SSHH6aHIg","name":"M'Olé","categories":"Beer Bar, Nightlife, Food, Desserts, Restaurants, Tacos, Spanish, Bars, Cafes, Mexican","state":"AZ","city":"Phx","review_count":39,"rank":1,"stars":4.5},"geometry":{"coordinates":[-112.0747437,33.4499167],"type":"Point"}}
{"type":"Feature","properties":{"business_id":"26Kt6gQRF7S6m7crwR0tjw","name":"Hibachi Grill","categories":"Chinese, Japanese, Restaurants","state":"ON","city":"Pickering","review_count":132,"rank":1,"stars":4.5},"geometry":{"coordinates":[-79.0915571,43.836533],"type":"Point"}}
{"type":"Feature","properties":{"business_id":"VUknuJV7f9DoqiYdsb1BLg","name":"PORT","categories":"American (Traditional), Restaurants, Steakhouses, Seafood, Nightlife, Bars","state":"ON","city":"Pickering","review_count":107,"rank":2,"stars":3.5},"geometry":{"coordinates":[-79.082957,43.8155699],"type":"Point"}}
{"type":"Feature","properties":{"business_id":"qu5COxaKxchFUZ6sh1wMDg","name":"Makimono","categories":"Restaurants, Japanese","state":"ON","city":"Pickering","review_count":97,"rank":3,"stars":3.0},"geometry":{"coordinates":[-79.0898479,43.8330486],"type":"Point"}}
{"type":"Feature","properties":{"business_id":"-1VaIJza42Hjev6ukacCNg","name":"Río Mirage Café y Cantina","categories":"Tex-Mex, Restaurants, Mexican","state":"AZ","city":"El Mirage","review_count":267,"rank":1,"stars":4.0},"geometry":{"coordinates":[-112.3243235,33.6174141],"type":"Point"}}
{"type":"Feature","properties":{"business_id":"Mip-msMG2aje4IfWiCf-7Q","name":"La Bamba Mexican Grill Restaurant","categories":"Mexican, Restaurants","state":"AZ","city":"El Mirage","review_count":213,"rank":2,"stars":5.0},"geometry":{"coordinates":[-112.3204238688,33.6091400709],"type":"Point"}}
{"type":"Feature","properties":{"business_id":"68O06rHoYy-7IH04I2OEXg","name":"Mario's Pizza","categories":"Sports Bars, Nightlife, Bars, Restaurants, Pizza","state":"AZ","city":"El Mirage","review_count":109,"rank":3,"stars":4.0},"geometry":{"coordinates":[-112.3412045,33.6100019],"type":"Point"}}
{"type":"Feature","properties":{"business_id":"tT4QuynwNXkXWCLUZx3wEA","name":"Vagabond Food truck","categories":"Food Trucks, Sandwiches, Caterers, Event Planning & Services, Restaurants, Food, Street Vendors","state":"PA","city":"Elizabeth","review_count":33,"rank":1,"stars":3.5},"geometry":{"coordinates":[-79.8897706,40.2692367],"type":"Point"}}
{"type":"Feature","properties":{"business_id":"KNpcPGqDORDdvtekXd348w","name":"Carriage Inn Restaurant and Catering","categories":"Italian, Seafood, Event Planning & Services, American (Traditional), Lounges, Caterers, Nightlife, Restaurants, Bars","state":"PA","city":"Elizabeth","review_count":30,"rank":2,"stars":3.5},"geometry":{"coordinates":[-79.8423904,40.285064],"type":"Point"}}
{"type":"Feature","properties":{"business_id":"AX64Yw-0pTjKP-33hU-JPw","name":"Rockwell's Red Lion Restaurant","categories":"American (New), Restaurants, Event Planning & Services, Caterers, Seafood","state":"PA","city":"Elizabeth","review_count":29,"rank":3,"stars":4.0},"geometry":{"coordinates":[-79.8874952,40.272038],"type":"Point"}}
{"type":"Feature","properties":{"business_id":"y2SaaWClzB6Pb360V-m98w","name":"Driscoll & Sons Cafe","categories":"Restaurants, American (New), American (Traditional), Italian, Seafood","state":"PA","city":"Elizabeth Township","review_count":49,"rank":1,"stars":3.0},"geometry":{"coordinates":[-79.807193,40.2427349],"type":"Point"}}
{"type":"Feature","properties":{"business_id":"r6JuhqakByGOXdwii3Sa-w","name":"Elrama Tavern","categories":"Burgers, Sandwiches, Nightlife, Bars, Restaurants, Beer, Wine & Spirits, Pubs, Food","state":"PA","city":"Elrama","review_count":32,"rank":1,"stars":4.5},"geometry":{"coordinates":[-79.9254011,40.2537131],"type":"Point"}}
{"type":"Feature","properties":{"business_id":"KTzr1zJ7oHmTBbOc-B4_fg","name":"Uncle Bo's Slow-n-Low","categories":"Restaurants, Barbeque, Southern, Sandwiches","state":"OH","city":"Elyria","review_count":182,"rank":1,"stars":4.5},"geometry":{"coordinates":[-82.108396,41.39445],"type":"Point"}}
{"type":"Feature","properties":{"business_id":"PLY0Nedm170y61vqNlIzxg","name":"Foundry Kitchen and Bar","categories":"Restaurants, Gastropubs, American (Traditional), Pizza","state":"OH","city":"Elyria","review_count":145,"rank":2,"stars":4.0},"geometry":{"coordinates":[-82.1084074,41.3680667],"type":"Point"}}
{"type":"Feature","properties":{"business_id":"6IopPDGcxUp4BD3HL7zJPw","name":"Wolfey's Bistro & Pub","categories":"Nightlife, Salad, American (New), Restaurants, Pubs, Bars","state":"OH","city":"Elyria","review_count":115,"rank":3,"stars":4.0},"geometry":{"coordinates":[-82.0763684,41.3628817],"type":"Point"}}
{"type":"Feature","properties":{"business_id":"kq60WPbD4UG-dJBoD_pilw","name":"1812 Grillhouse","categories":"Southern, Restaurants, Chicken Wings, Comfort Food","state":"ON","city":"Bradford West Gwillimbury","review_count":27,"rank":1,"stars":4.0},"geometry":{"coordinates":[-79.6633271,44.0396459],"type":"Point"}}
{"type":"Feature","properties":{"business_id":"cB4c3zFoHg8j1pSoENNVYQ","name":"Lemar's Pizza","categories":"Pizza, Restaurants, Food Delivery Services, Food","state":"ON","city":"Bradford West Gwillimbury","review_count":26,"rank":2,"stars":4.5},"geometry":{"coordinates":[-79.5682291,44.1135324],"type":"Point"}}
{"type":"Feature","properties":{"business_id":"T23RFOmyE9MbjMryMrcZ1g","name":"Kenzington Burger Bar","categories":"Restaurants, Canadian (New)","state":"ON","city":"Bradford West Gwillimbury","review_count":26,"rank":2,"stars":4.0},"geometry":{"coordinates":[-79.5648877,44.1139592],"type":"Point"}}
{"type":"Feature","properties":{"business_id":"Fwt0ia7H80q_mHLvrf1gzQ","name":"Spoonful","categories":"Restaurants, Seafood, Sushi Bars, Buffets","state":"ON","city":"Brampton","review_count":283,"rank":1,"stars":3.0},"geometry":{"coordinates":[-79.738754,43.667819],"type":"Point"}}
{"type":"Feature","properties":{"business_id":"PYUmLq7FkBbMyfYyHX1waQ","name":"Tandoori Flame","categories":"Food, Indian, Restaurants, Beer, Wine & Spirits, Buffets","state":"ON","city":"Brampton","review_count":227,"rank":2,"stars":3.5},"geometry":{"coordinates":[-79.7115981546,43.7016685627],"type":"Point"}}
{"type":"Feature","properties":{"business_id":"TxNeo206T0jMvRRQ4nKSIg","name":"Wok Of Fame","categories":"Japanese, Restaurants, Buffets, Chinese","state":"ON","city":"Brampton","review_count":193,"rank":3,"stars":3.0},"geometry":{"coordinates":[-79.726643,43.6584614],"type":"Point"}}
{"type":"Feature","properties":{"business_id":"6L43ztbQh7OyA1qtPlLgqw","name":"Americano","categories":"Beer, Wine & Spirits, Cocktail Bars, Nightlife, Food, Bars, American (New), Restaurants, Modern European","state":"OH","city":"Bratenahl","review_count":32,"rank":1,"stars":4.0},"geometry":{"coordinates":[-81.6075531,41.5542111],"type":"Point"}}
{"type":"Feature","properties":{"business_id":"jdIVIQeNBDyYCpFIy52Cgg","name":"Bratenahl Place Bistro","categories":"American (New), Steakhouses, American (Traditional), Seafood, Italian, Restaurants","state":"OH","city":"Bratenahl","review_count":14,"rank":2,"stars":4.5},"geometry":{"coordinates":[-81.6056878286,41.5535852468],"type":"Point"}}
{"type":"Feature","properties":{"business_id":"3NSeHqI4QrXx8Smw2j662w","name":"Creekside Restaurant & Bar","categories":"Restaurants, Bars, American (New), Cocktail Bars, Pizza, Nightlife","state":"OH","city":"Brecksville","review_count":167,"rank":1,"stars":3.5},"geometry":{"coordinates":[-81.6260276,41.3222428],"type":"Point"}}
{"type":"Feature","properties":{"business_id":"OF19lUVQHj8pVaSACNewWg","name":"Burntwood Tavern","categories":"Restaurants, American (New), American (Traditional)","state":"OH","city":"Brecksville","review_count":165,"rank":2,"stars":3.5},"geometry":{"coordinates":[-81.6282751,41.3393926],"type":"Point"}}
{"type":"Feature","properties":{"business_id":"hyyy_yFDI3CJJaG3uROGBA","name":"The Courtyard Cafe","categories":"American (Traditional), Pizza, Restaurants","state":"OH","city":"Brecksville","review_count":121,"rank":3,"stars":4.0},"geometry":{"coordinates":[-81.6240155,41.3189361],"type":"Point"}}
{"type":"Feature","properties":{"business_id":"zJij4wM_hwJEjIaWPHpzYA","name":"June Bug's Bar","categories":"Restaurants, Soup, Breakfast & Brunch, Burgers","state":"PA","city":"Sutersville","review_count":5,"rank":1,"stars":4.5},"geometry":{"coordinates":[-79.8043036,40.238554],"type":"Point"}}
{"type":"Feature","properties":{"business_id":"dw0y95zD-ODAavckvGPP9A","name":"The Pub in the Park","categories":"American (New), Bars, Pubs, Restaurants, American (Traditional), Sports Bars, Irish Pub, Nightlife","state":"PA","city":"Swissvale","review_count":23,"rank":1,"stars":4.5},"geometry":{"coordinates":[-79.8975577,40.421368],"type":"Point"}}
{"type":"Feature","properties":{"business_id":"3F3At4YBSHEnG7uMinQPnQ","name":"Vocelli Pizza","categories":"Restaurants, Pizza","state":"PA","city":"Swissvale","review_count":16,"rank":2,"stars":2.5},"geometry":{"coordinates":[-79.8863458,40.4219149],"type":"Point"}}
{"type":"Feature","properties":{"business_id":"pV-HcFpaRa7MpmFPKjG9JA","name":"The Loft","categories":"Nightlife, Bars, Restaurants","state":"PA","city":"Swissvale","review_count":13,"rank":3,"stars":3.5},"geometry":{"coordinates":[-79.8938447,40.4320182],"type":"Point"}}
{"type":"Feature","properties":{"business_id":"Uc2PqdAPWPMxe6_YHB4wHQ","name":"Wendy's","categories":"Restaurants, Fast Food, Burgers","state":"PA","city":"Swissvale","review_count":13,"rank":3,"stars":2.0},"geometry":{"coordinates":[-79.8883623271,40.42523807],"type":"Point"}}
{"type":"Feature","properties":{"business_id":"900l4HEcM47QBaX8HSiakg","name":"Wally Waffle","categories":"Waffles, American (Traditional), Restaurants","state":"OH","city":"Tallmadge","review_count":69,"rank":1,"stars":4.0},"geometry":{"coordinates":[-81.4408381,41.1037866],"type":"Point"}}
{"type":"Feature","properties":{"business_id":"MrovSlB5Ff0v4VGnvC2i_Q","name":"El Tren Grill","categories":"Mexican, Restaurants","state":"OH","city":"Tallmadge","review_count":66,"rank":2,"stars":4.0},"geometry":{"coordinates":[-81.437994,41.1012015],"type":"Point"}}
{"type":"Feature","properties":{"business_id":"nZvjGGWpzkPOf0ypOezoZg","name":"La Mexicana Cantina & Grill  - Tallmadge","categories":"Mexican, Restaurants","state":"OH","city":"Tallmadge","review_count":52,"rank":3,"stars":3.5},"geometry":{"coordinates":[-81.4451801777,41.1014017873],"type":"Point"}}
{"type":"Feature","properties":{"business_id":"iTNsT5xYHhQWTYDTROZCRw","name":"TJ Buffet Sushi And Grill","categories":"Sushi Bars, Seafood, Chinese, Restaurants","state":"PA","city":"Tarentum","review_count":61,"rank":1,"stars":3.0},"geometry":{"coordinates":[-79.799775,40.572477],"type":"Point"}}
{"type":"Feature","properties":{"business_id":"O8mIioAmiOyk-DHQ-Buggw","name":"Smokey Bones Bar & Fire Grill","categories":"Restaurants, Barbeque, Food, American (Traditional), Burgers","state":"PA","city":"Tarentum","review_count":54,"rank":2,"stars":2.5},"geometry":{"coordinates":[-79.7996866,40.5704565],"type":"Point"}}
{"type":"Feature","properties":{"business_id":"XQ1xXz3VKk5FQXNbkxbO7A","name":"Olive Garden Italian Restaurant","categories":"Italian, Restaurants, Wine Bars, Salad, Bars, Nightlife, Soup","state":"PA","city":"Tarentum","review_count":42,"rank":3,"stars":3.0},"geometry":{"coordinates":[-79.7985959,40.5700889],"type":"Point"}}
{"type":"Feature","properties":{"business_id":"mIVfDS47YwXjDjXVxAoZVg","name":"The Crack'd Egg","categories":"Caterers, Event Planning & Services, American (New), Sandwiches, Breakfast & Brunch, Restaurants","state":"PA","city":"Brentwood","review_count":129,"rank":1,"stars":4.0},"geometry":{"coordinates":[-79.9818954,40.3656776],"type":"Point"}}
{"type":"Feature","properties":{"business_id":"MkLlb2944GtK07wy9u_wbA","name":"McDonald's","categories":"Restaurants, Food, Burgers, Coffee & Tea, Fast Food","state":"PA","city":"Brentwood","review_count":24,"rank":2,"stars":1.0},"geometry":{"coordinates":[-79.9838682137,40.3646352888],"type":"Point"}}
{"type":"Feature","properties":{"business_id":"QeCkX3JI0dZiC6UK4tWl6A","name":"Italian Village Pizza","categories":"Pizza, Restaurants","state":"PA","city":"Brentwood","review_count":16,"rank":3,"stars":3.0},"geometry":{"coordinates":[-79.9774173,40.3841292],"type":"Point"}}
{"type":"Feature","properties":{"business_id":"G-OMrmKRaSumc73LaSbhPA","name":"China Wok","categories":"Chinese, Restaurants","state":"PA","city":"Brentwood","review_count":16,"rank":3,"stars":3.5},"geometry":{"coordinates":[-79.9815697,40.3665113],"type":"Point"}}
{"type":"Feature","properties":{"business_id":"cDIVM9ho73XXpVFzRNcLIw","name":"E M Pizzeria","categories":"Grocery, Greek, Pizza, Restaurants, Food","state":"PA","city":"Brentwood","review_count":16,"rank":3,"stars":4.0},"geometry":{"coordinates":[-79.9847037,40.365021],"type":"Point"}}
{"type":"Feature","properties":{"business_id":"w1c_Uy60LSDiMsSjAsEqkw","name":"Rumfish Grille","categories":"Nightlife, Steakhouses, Seafood, Bars, Restaurants, American (Traditional)","state":"PA","city":"Bridgeville","review_count":192,"rank":1,"stars":3.0},"geometry":{"coordinates":[-80.1065956659,40.3683930071],"type":"Point"}}
{"type":"Feature","properties":{"business_id":"KowfRkKCR1qYzIM3-M6FBA","name":"Bubba's Gourmet Burghers and Beer","categories":"Burgers, Restaurants, Sports Bars, Nightlife, Bars","state":"PA","city":"Bridgeville","review_count":173,"rank":2,"stars":4.0},"geometry":{"coordinates":[-80.111601,40.348347],"type":"Point"}}
{"type":"Feature","properties":{"business_id":"3gnQUW3pzKE32RenMfuf9A","name":"First Watch","categories":"Restaurants, American (Traditional), Cafes, Breakfast & Brunch","state":"PA","city":"Bridgeville","review_count":168,"rank":3,"stars":4.5},"geometry":{"coordinates":[-80.1205692,40.3580055],"type":"Point"}}
{"type":"Feature","properties":{"business_id":"0i95sgY7pzYW9k88SOVJ8A","name":"Cork & Cleaver Social Kitchen","categories":"American (New), Restaurants, Local Flavor, Food","state":"OH","city":"Broadview Heights","review_count":154,"rank":1,"stars":4.0},"geometry":{"coordinates":[-81.684946,41.3446],"type":"Point"}}
{"type":"Feature","properties":{"business_id":"uBRmZ_h7WP8xesuYqZTFbA","name":"Cozumel Mexican Restaurant","categories":"Mexican, Restaurants","state":"OH","city":"Broadview Heights","review_count":113,"rank":2,"stars":4.0},"geometry":{"coordinates":[-81.6859161,41.3152523],"type":"Point"}}
{"type":"Feature","properties":{"business_id":"S3w4Pw1wSpYkICvtJAzG8A","name":"D'Agnese's Italian Restaurant","categories":"Italian, Nightlife, Restaurants, Bars","state":"OH","city":"Broadview Heights","review_count":102,"rank":3,"stars":4.0},"geometry":{"coordinates":[-81.6870606471,41.3147843917],"type":"Point"}}
{"type":"Feature","properties":{"business_id":"1dYpffQi3qdh-dkXF4LZBw","name":"Burgatory","categories":"Restaurants, Burgers, Food, Nightlife, Beer Bar, Bars, Cocktail Bars, American (Traditional), Juice Bars & Smoothies, American (New)","state":"PA","city":"Homestead","review_count":366,"rank":1,"stars":4.0},"geometry":{"coordinates":[-79.9177637822,40.4071527935],"type":"Point"}}
{"type":"Feature","properties":{"business_id":"ESzO3Av0b1_TzKOiqzbQYQ","name":"Rock Bottom Restaurant & Brewery","categories":"Restaurants, Breweries, Food, American (Traditional)","state":"PA","city":"Homestead","review_count":260,"rank":2,"stars":3.0},"geometry":{"coordinates":[-79.9150806,40.4095909],"type":"Point"}}
{"type":"Feature","properties":{"business_id":"DFeEJf8h04q3KwRVWUsoMQ","name":"Dave & Buster's","categories":"American (Traditional), Restaurants, Nightlife, Arts & Entertainment, Bars, Pubs, Arcades, Eatertainment","state":"PA","city":"Homestead","review_count":208,"rank":3,"stars":2.5},"geometry":{"coordinates":[-79.9142739,40.4092679],"type":"Point"}}
{"type":"Feature","properties":{"business_id":"e4PCkJENurMOxuXd9ZMMPA","name":"Pizza Hut","categories":"Restaurants, Chicken Wings, Italian, Pizza","state":"VA","city":"Hopewell","review_count":27,"rank":1,"stars":1.5},"geometry":{"coordinates":[-77.3254377349,37.2616057457],"type":"Point"}}
{"type":"Feature","properties":{"business_id":"fPX6XsfCPWnJwCyxsBVnxw","name":"Flip Side","categories":"Juice Bars & Smoothies, Beer, Wine & Spirits, Restaurants, Bars, Sandwiches, Burgers, Nightlife, Food","state":"OH","city":"Hudson","review_count":297,"rank":1,"stars":4.0},"geometry":{"coordinates":[-81.4427446796,41.2413758853],"type":"Point"}}
{"type":"Feature","properties":{"business_id":"_ls-4oTpPixPOfxrwizrEA","name":"3 Palms Pizzeria","categories":"Pizza, Restaurants, Italian","state":"OH","city":"Hudson","review_count":256,"rank":2,"stars":4.0},"geometry":{"coordinates":[-81.4432992,41.2411182],"type":"Point"}}
{"type":"Feature","properties":{"business_id":"NKyPyXgPG3Ld4645klGyTw","name":"Oak and Embers Tavern - Hudson","categories":"Nightlife, Bars, Beer Bar, Restaurants, Barbeque","state":"OH","city":"Hudson","review_count":219,"rank":3,"stars":3.5},"geometry":{"coordinates":[-81.4409887,41.2772479],"type":"Point"}}
{"type":"Feature","properties":{"business_id":"V3jcrO7Nh9lC0fmCiYJ1-w","name":"Le Cozy Café","categories":"Coffee & Tea, Cafes, Food, Breakfast & Brunch, Restaurants","state":"QC","city":"Hudson","review_count":21,"rank":1,"stars":4.0},"geometry":{"coordinates":[-74.1422169,45.4595926],"type":"Point"}}
{"type":"Feature","properties":{"business_id":"PcjhGBfbKFvptL24BIrW7g","name":"Carambola","categories":"Tapas Bars, Restaurants, American (New), Canadian (New)","state":"QC","city":"Hudson","review_count":18,"rank":2,"stars":4.5},"geometry":{"coordinates":[-74.1406316287,45.4574976472],"type":"Point"}}
{"type":"Feature","properties":{"business_id":"uSb9hsK60QSuh1NoVhcDXw","name":"Auberge Willow Inn","categories":"Restaurants, Event Planning & Services, Gastropubs, Hotels, Hotels & Travel, Venues & Event Spaces, Bed & Breakfast","state":"QC","city":"Hudson","review_count":13,"rank":3,"stars":3.0},"geometry":{"coordinates":[-74.108763,45.44792],"type":"Point"}}
{"type":"Feature","properties":{"business_id":"06LmLcjFUb6b1HmhNllJZg","name":"Lemongrass Grill","categories":"Thai, Restaurants","state":"OH","city":"Munroe Falls","review_count":142,"rank":1,"stars":4.0},"geometry":{"coordinates":[-81.4387571,41.1396157],"type":"Point"}}
{"type":"Feature","properties":{"business_id":"Xcal78l5dziYYUOfLcDeoA","name":"Morning Owl Coffee House","categories":"Desserts, Sandwiches, Restaurants, Coffee & Tea, Food, Cafes, Breakfast & Brunch","state":"OH","city":"Munroe Falls","review_count":33,"rank":2,"stars":4.5},"geometry":{"coordinates":[-81.4409887,41.1471981],"type":"Point"}}
{"type":"Feature","properties":{"business_id":"j1_moETTHat-Hc2uENv05g","name":"Hochee Sushi Burrito & Hibachi","categories":"Japanese, Teppanyaki, Sushi Bars, Restaurants","state":"OH","city":"Munroe Falls","review_count":29,"rank":3,"stars":4.5},"geometry":{"coordinates":[-81.4387572,41.1389899],"type":"Point"}}
{"type":"Feature","properties":{"business_id":"iKbtAQz2rUu99PgJvcx2Jg","name":"Burgatory","categories":"Restaurants, Bars, Juice Bars & Smoothies, Food, Burgers, Cocktail Bars, American (New), Nightlife, Beer Bar","state":"PA","city":"Murrysville","review_count":166,"rank":1,"stars":4.0},"geometry":{"coordinates":[-79.7010137947,40.4278278251],"type":"Point"}}
{"type":"Feature","properties":{"business_id":"xVopquE2JKetpNJkor_jOA","name":"Juniper Grill - Murrysville","categories":"Southern, Nightlife, American (New), Bars, Tex-Mex, Restaurants","state":"PA","city":"Murrysville","review_count":120,"rank":2,"stars":4.0},"geometry":{"coordinates":[-79.6611306,40.421599],"type":"Point"}}
{"type":"Feature","properties":{"business_id":"je5h9jV38Wpist76omY_Pw","name":"North Park Lounge","categories":"American (Traditional), American (New), Sports Bars, Pizza, Nightlife, Bars, Restaurants","state":"PA","city":"Murrysville","review_count":112,"rank":3,"stars":4.0},"geometry":{"coordinates":[-79.702136,40.427917],"type":"Point"}}
{"type":"Feature","properties":{"business_id":"909BaH47M7FfjbFniClm6Q","name":"Little Caesars Pizza","categories":"Restaurants, Pizza, Fast Food","state":"NV","city":"N Las Vegas","review_count":89,"rank":1,"stars":1.5},"geometry":{"coordinates":[-115.155889,36.259944],"type":"Point"}}
{"type":"Feature","properties":{"business_id":"dbKnvc3eAugC-vRxw03Jzw","name":"Del Taco","categories":"Fast Food, Restaurants, Mexican","state":"NV","city":"N Las Vegas","review_count":47,"rank":2,"stars":2.0},"geometry":{"coordinates":[-115.116008,36.239368],"type":"Point"}}
{"type":"Feature","properties":{"business_id":"j4nX7yJFULEXXjMKBLwDLw","name":"Panda Express","categories":"Fast Food, Restaurants, Chinese","state":"NV","city":"N Las Vegas","review_count":38,"rank":3,"stars":2.0},"geometry":{"coordinates":[-115.1203846649,36.2173648598],"type":"Point"}}
{"type":"Feature","properties":{"business_id":"GnJwQObGXwR7Sly6Bul0EQ","name":"Aces Grille - North Ridgeville","categories":"American (Traditional), Restaurants, Bars, Beer Bar, Pizza, Arts & Entertainment, Nightlife, American (New)","state":"OH","city":"N Ridgeville","review_count":56,"rank":1,"stars":2.5},"geometry":{"coordinates":[-81.9795174,41.3837216],"type":"Point"}}
{"type":"Feature","properties":{"business_id":"Kp8SRWesaJCjZnsjMMy7mg","name":"Smoke Meat Pete","categories":"Restaurants, Sandwiches, Delis, Nightlife, Jazz & Blues, Arts & Entertainment, Barbeque","state":"QC","city":"L'Île-Perrot","review_count":171,"rank":1,"stars":4.0},"geometry":{"coordinates":[-73.961316,45.395813],"type":"Point"}}
{"type":"Feature","properties":{"business_id":"ZFS-RaX9xATWXHeteksxAg","name":"Le Blaks No1","categories":"Restaurants, Chicken Wings, Burgers, Barbeque","state":"QC","city":"L'Île-Perrot","review_count":16,"rank":2,"stars":4.0},"geometry":{"coordinates":[-73.9583548731,45.3964945488],"type":"Point"}}
{"type":"Feature","properties":{"business_id":"NHDdAZJqS3cf_K6HYxoQ9w","name":"Dev","categories":"Indian, Restaurants","state":"QC","city":"L'Île-Perrot","review_count":14,"rank":3,"stars":4.0},"geometry":{"coordinates":[-73.9606015,45.3926655],"type":"Point"}}
{"type":"Feature","properties":{"business_id":"Vkl5QgIfpi6fS-Xox1EOug","name":"Les Enfants Terribles","categories":"Brasseries, Restaurants, Canadian (New), Breakfast & Brunch, French, Bistros","state":"QC","city":"L'Île-des-Sœurs","review_count":41,"rank":1,"stars":3.5},"geometry":{"coordinates":[-73.5378936098,45.4728914878],"type":"Point"}}
{"type":"Feature","properties":{"business_id":"h6Uvp84kzajg37lowP7FJQ","name":"Isabelle’s kitchen Mexican food","categories":"Mexican, Restaurants, Tacos, Breakfast & Brunch","state":"NV","city":"LAS VEGAS","review_count":52,"rank":1,"stars":5.0},"geometry":{"coordinates":[-115.242935,36.254805],"type":"Point"}}
{"type":"Feature","properties":{"business_id":"4VdZkvkGcwU2B2s5MC0S0g","name":"the flavor of life","categories":"Food Trucks, Mexican, Restaurants, Food, American (Traditional), Latin American, Caterers, Event Planning & Services","state":"NV","city":"LAS VEGAS","review_count":5,"rank":2,"stars":4.5},"geometry":{"coordinates":[-115.2559987,36.1721577],"type":"Point"}}
{"type":"Feature","properties":{"business_id":"os1xgkwt2SG8ezyPm--VDQ","name":"Como Pizzeria","categories":"Breakfast & Brunch, Restaurants, Pizza","state":"QC","city":"La Prairie","review_count":32,"rank":1,"stars":4.0},"geometry":{"coordinates":[-73.492654,45.411674],"type":"Point"}}
{"type":"Feature","properties":{"business_id":"0TRFt-MVF43hGP8YD7O2sw","name":"Le Shack du Pêcheur","categories":"Fish & Chips, Seafood, Restaurants, Mediterranean","state":"QC","city":"La Prairie","review_count":23,"rank":2,"stars":4.5},"geometry":{"coordinates":[-73.4985341,45.404333],"type":"Point"}}
{"type":"Feature","properties":{"business_id":"AFTYT1J1uIFWqvK5Rk2t1A","name":"Petinos la Prairie","categories":"Food, Restaurants, Breakfast & Brunch","state":"QC","city":"La Prairie","review_count":21,"rank":3,"stars":4.5},"geometry":{"coordinates":[-73.4983819,45.4066142],"type":"Point"}}
{"type":"Feature","properties":{"business_id":"Tw3RxhE5ioJruNF9OMAjAA","name":"Allô Mon Coco","categories":"Restaurants, Breakfast & Brunch","state":"QC","city":"La Salle","review_count":21,"rank":1,"stars":3.5},"geometry":{"coordinates":[-73.6093147362,45.4490469304],"type":"Point"}}
{"type":"Feature","properties":{"business_id":"98WY_Ak3i25lLNGtEBnHjQ","name":"Marash Café & Crème Glacée","categories":"Bagels, Bakeries, Cafes, Ice Cream & Frozen Yogurt, Desserts, Restaurants, Food, Coffee & Tea","state":"QC","city":"La Salle","review_count":12,"rank":2,"stars":4.5},"geometry":{"coordinates":[-73.6139318,45.4369999],"type":"Point"}}
{"type":"Feature","properties":{"business_id":"fFKkuE9hB7g98xATUfMkiw","name":"Boucherie Marchigiani","categories":"Italian, Meat Shops, Sandwiches, Restaurants, Food, Specialty Food, Butcher","state":"QC","city":"La Salle","review_count":10,"rank":3,"stars":4.5},"geometry":{"coordinates":[-73.6241886,45.4363607],"type":"Point"}}
{"type":"Feature","properties":{"business_id":"Rux4-v3zqD5lxCqrSa9Ewg","name":"Royal Myanmar","categories":"Restaurants, Burmese, Sushi Bars, Thai","state":"PA","city":"West View","review_count":126,"rank":1,"stars":4.5},"geometry":{"coordinates":[-80.0310709,40.518593],"type":"Point"}}
{"type":"Feature","properties":{"business_id":"dLAxjXghBijV6krvKt1RHQ","name":"Bella Ria's","categories":"Restaurants, Breakfast & Brunch, American (Traditional), Italian","state":"PA","city":"West View","review_count":55,"rank":2,"stars":4.5},"geometry":{"coordinates":[-80.03046,40.511575],"type":"Point"}}
{"type":"Feature","properties":{"business_id":"qh1GCWP_2TKxevp3ZeMxag","name":"Chan's Tea House","categories":"Soup, Chinese, Restaurants, Noodles","state":"PA","city":"West View","review_count":37,"rank":3,"stars":3.5},"geometry":{"coordinates":[-80.0378046557,40.515967754],"type":"Point"}}
{"type":"Feature","properties":{"business_id":"ZTg8adZipR3QDoJmFZZqJw","name":"Yard House","categories":"Restaurants, Nightlife, Bars, American (New), Vegetarian","state":"OH","city":"Westlake","review_count":343,"rank":1,"stars":4.0},"geometry":{"coordinates":[-81.9515731776,41.4611317195],"type":"Point"}}
{"type":"Feature","properties":{"business_id":"KR2kRmHnRCaNzOUEGoB25w","name":"B Spot","categories":"Whiskey Bars, Nightlife, Desserts, Restaurants, Beer Bar, Bars, Salad, Food, Burgers, American (New), Wine Bars","state":"OH","city":"Westlake","review_count":290,"rank":2,"stars":3.5},"geometry":{"coordinates":[-81.9525702814,41.4603545053],"type":"Point"}}
{"type":"Feature","properties":{"business_id":"1NNBpiQ3rUT-7T8ch45SVA","name":"The Cheesecake Factory","categories":"Food, Restaurants, Desserts, American (New), Salad, American (Traditional)","state":"OH","city":"Westlake","review_count":200,"rank":3,"stars":3.0},"geometry":{"coordinates":[-81.95088,41.4601318],"type":"Point"}}
{"type":"Feature","properties":{"business_id":"TdMEsI-NKn64Pz3y62y5sg","name":"Restaurant Park","categories":"Health Markets, Specialty Food, Sushi Bars, Food, Restaurants, Bakeries, Seafood, Coffee & Tea, Japanese, Asian Fusion","state":"QC","city":"Westmount","review_count":172,"rank":1,"stars":4.0},"geometry":{"coordinates":[-73.6029401,45.4783516],"type":"Point"}}
{"type":"Feature","properties":{"business_id":"1FnAyxRXhadIZiI1hiM65w","name":"Sparta","categories":"Restaurants, Greek, Halal","state":"QC","city":"Westmount","review_count":56,"rank":2,"stars":4.0},"geometry":{"coordinates":[-73.585176,45.488482],"type":"Point"}}
{"type":"Feature","properties":{"business_id":"FGhjG7OensQms5ggUYx9wA","name":"Brasserie Lucilles","categories":"Seafood, Brasseries, Restaurants","state":"QC","city":"Westmount","review_count":50,"rank":3,"stars":3.5},"geometry":{"coordinates":[-73.5868377,45.4869737],"type":"Point"}}
{"type":"Feature","properties":{"business_id":"kmIQmtKMmFrLRDisg9ftLg","name":"Café Gentile","categories":"Italian, Cafes, Restaurants, Food","state":"QC","city":"Westmount","review_count":50,"rank":3,"stars":4.0},"geometry":{"coordinates":[-73.587191,45.486469],"type":"Point"}}
{"type":"Feature","properties":{"business_id":"tj1IM_2-ks08bk0JZP95DQ","name":"Carolina Ale House","categories":"American (New), American (Traditional), Bars, Restaurants, Nightlife, Sports Bars, Burgers","state":"NC","city":"Concord Mills","review_count":279,"rank":1,"stars":2.5},"geometry":{"coordinates":[-80.7304715744,35.3742776147],"type":"Point"}}
{"type":"Feature","properties":{"business_id":"kLVK8y8YQeRkJeld5eZbwg","name":"Macado's","categories":"Bars, American (Traditional), Restaurants, Nightlife, Pubs","state":"NC","city":"Concord Mills","review_count":25,"rank":2,"stars":3.5},"geometry":{"coordinates":[-80.7221259,35.3692222],"type":"Point"}}
{"type":"Feature","properties":{"business_id":"lJ9DxwOtdGcoTktSOH6XNg","name":"Yogurt Mountain","categories":"Desserts, Food","state":"NC","city":"Concord Mills","review_count":7,"rank":3,"stars":3.5},"geometry":{"coordinates":[-80.722486,35.369701],"type":"Point"}}
{"type":"Feature","properties":{"business_id":"vvVGXfsQdvonM2Cpg49DXw","name":"McDonald's","categories":"Burgers, Fast Food, Food, Restaurants, Coffee & Tea","state":"OH","city":"Concord Township","review_count":8,"rank":1,"stars":2.0},"geometry":{"coordinates":[-81.2451792508,41.6655367765],"type":"Point"}}
{"type":"Feature","properties":{"business_id":"gc8GtnUg2l7RlPJGuN7o8w","name":"Mocha Joe's","categories":"Breakfast & Brunch, Restaurants, American (New), Sandwiches","state":"OH","city":"Concord Twp","review_count":4,"rank":1,"stars":4.0},"geometry":{"coordinates":[-81.2827318,41.6734511],"type":"Point"}}
{"type":"Feature","properties":{"business_id":"dLRJhdnelmOXRa3WeeTbnQ","name":"Rizzi's Ristorante & Pizzeria","categories":"Local Services, Couriers & Delivery Services, Salad, Italian, Restaurants, Pizza, Sandwiches","state":"OH","city":"Copley","review_count":48,"rank":1,"stars":3.5},"geometry":{"coordinates":[-81.6190361,41.0935442],"type":"Point"}}
{"type":"Feature","properties":{"business_id":"zgjLwTpl50zSmcAptJo4Hw","name":"Cracker Barrel Old Country Store","categories":"American (Traditional), Diners, Event Planning & Services, Comfort Food, Caterers, Southern, Food, Breakfast & Brunch, Restaurants, Desserts, Salad","state":"OH","city":"Copley","review_count":45,"rank":2,"stars":3.5},"geometry":{"coordinates":[-81.6488823763,41.1333695153],"type":"Point"}}
{"type":"Feature","properties":{"business_id":"zABeftlpBB-aoMdc8QhPLA","name":"TGI Fridays","categories":"Bars, American (Traditional), Restaurants, Nightlife","state":"OH","city":"Copley","review_count":37,"rank":3,"stars":2.0},"geometry":{"coordinates":[-81.6528869042,41.132079724],"type":"Point"}}
{"type":"Feature","properties":{"business_id":"iRhB506lbc0kU5289zyHzg","name":"Bar Symon","categories":"American (Traditional), Burgers, Food, Bars, Nightlife, Cafes, Restaurants","state":"PA","city":"Coraopolis","review_count":272,"rank":1,"stars":3.5},"geometry":{"coordinates":[-80.2461712328,40.4947059152],"type":"Point"}}
{"type":"Feature","properties":{"business_id":"oQDUqkRer00JcB6DDRNH5A","name":"Eggs N'at","categories":"Breakfast & Brunch, Restaurants","state":"PA","city":"Coraopolis","review_count":246,"rank":2,"stars":4.5},"geometry":{"coordinates":[-80.223664,40.5075487],"type":"Point"}}
{"type":"Feature","properties":{"business_id":"PYIwY8EqOyMLQG567xwVEw","name":"Armstrong's Restaurant","categories":"Restaurants, American (New), Desserts, Chicken Wings, American (Traditional), Italian, Food","state":"PA","city":"Coraopolis","review_count":165,"rank":3,"stars":4.0},"geometry":{"coordinates":[-80.209114892,40.5063796599],"type":"Point"}}
{"type":"Feature","properties":{"business_id":"zKacC3jzdl9MJLkczFI6qg","name":"Waldhorn Restaurant","categories":"Event Planning & Services, German, Bars, Nightlife, Venues & Event Spaces, Party & Event Planning, Wine Bars, Beer Bar, Restaurants","state":"NC","city":"Pineville","review_count":334,"rank":1,"stars":4.0},"geometry":{"coordinates":[-80.8823561,35.0764781],"type":"Point"}}
{"type":"Feature","properties":{"business_id":"3prYLfbO9h30ozqdUCZ_6A","name":"Buca di Beppo Italian Restaurant","categories":"Bars, Italian, Nightlife, Wine Bars, Caterers, Restaurants, Event Planning & Services, Food, Pizza","state":"NC","city":"Pineville","review_count":265,"rank":2,"stars":3.0},"geometry":{"coordinates":[-80.8800927,35.085349],"type":"Point"}}
{"type":"Feature","properties":{"business_id":"0DyDT4NJNaIuDpT7nTIjxg","name":"Chatpatay","categories":"Caterers, Food Delivery Services, American (New), Food, Restaurants, Event Planning & Services, Indian, Himalayan/Nepalese, Pakistani","state":"NC","city":"Pineville","review_count":249,"rank":3,"stars":4.0},"geometry":{"coordinates":[-80.8717654,35.0869866],"type":"Point"}}
{"type":"Feature","properties":{"business_id":"DkEOy5-hSds5Y9RvxMzCVg","name":"Fox's Pizza Den","categories":"Pizza, Restaurants, Sandwiches","state":"PA","city":"Pitcairn","review_count":8,"rank":1,"stars":3.0},"geometry":{"coordinates":[-79.7748751,40.4023147],"type":"Point"}}
{"type":"Feature","properties":{"business_id":"LWaNpHYagTPy1rs2GBN7ew","name":"Caputos Friendly Inn","categories":"Restaurants, Pizza","state":"PA","city":"Pitcairn","review_count":5,"rank":2,"stars":5.0},"geometry":{"coordinates":[-79.7731793,40.4011539],"type":"Point"}}
{"type":"Feature","properties":{"business_id":"I1EqjI8A49yqyJ8eU4tICw","name":"Joe's Butcher Shop","categories":"Food, Specialty Food, Butcher, Meat Shops","state":"PA","city":"Pitcairn","review_count":4,"rank":3,"stars":4.0},"geometry":{"coordinates":[-79.7777121,40.4020735],"type":"Point"}}
{"type":"Feature","properties":{"business_id":"ScGf3uUlHqlXpyOZ2DXTFw","name":"Pinkberry","categories":"Food, Ice Cream & Frozen Yogurt, Juice Bars & Smoothies","state":"PA","city":"Pittsburg","review_count":21,"rank":1,"stars":3.0},"geometry":{"coordinates":[-80.24592,40.495938],"type":"Point"}}
{"type":"Feature","properties":{"business_id":"RSNIu9nf8qY_JVR6eS9l9A","name":"Sauld Juicery - Aspinwall","categories":"Juice Bars & Smoothies, Food, Specialty Food, Coffee & Tea, Acai Bowls","state":"PA","city":"Pittsburg","review_count":10,"rank":2,"stars":3.0},"geometry":{"coordinates":[-79.9046864,40.4904685],"type":"Point"}}
{"type":"Feature","properties":{"business_id":"WTv4tytSf7b_rdjyoFPDYw","name":"Starbucks","categories":"Coffee & Tea, Food","state":"PA","city":"Pittsburg","review_count":10,"rank":2,"stars":4.5},"geometry":{"coordinates":[-79.960867,40.442128],"type":"Point"}}
{"type":"Feature","properties":{"business_id":"JLbgvGM4FXh9zNP4O5ZWjQ","name":"Meat & Potatoes","categories":"Specialty Food, Meat Shops, Steakhouses, Food, Gastropubs, American (New), Restaurants","state":"PA","city":"Pittsburgh","review_count":2001,"rank":1,"stars":4.0},"geometry":{"coordinates":[-80.0011037908,40.4431445863],"type":"Point"}}
{"type":"Feature","properties":{"business_id":"u4sTiCzVeIHZY8OlaL346Q","name":"Gaucho Parrilla Argentina","categories":"Seafood, Latin American, Argentine, Restaurants, Event Planning & Services, Caterers, Food Trucks, Food","state":"PA","city":"Pittsburgh","review_count":1949,"rank":2,"stars":4.5},"geometry":{"coordinates":[-79.987573,40.449043],"type":"Point"}}
{"type":"Feature","properties":{"business_id":"woXlprCuowrLJswWere3TQ","name":"täkō","categories":"American (New), Mexican, Restaurants","state":"PA","city":"Pittsburgh","review_count":1466,"rank":3,"stars":4.5},"geometry":{"coordinates":[-80.0019846969,40.4422285653],"type":"Point"}}
{"type":"Feature","properties":{"business_id":"NiYCc7bhbQXftDQPON1aaQ","name":"Just Rollin'","categories":"Food, Street Vendors","state":"NV","city":"Henderson and Las vegas","review_count":7,"rank":1,"stars":4.0},"geometry":{"coordinates":[-114.9817213,36.0395247],"type":"Point"}}
{"type":"Feature","properties":{"business_id":"tzUwZKhtDX7QixvXex-wZw","name":"Big Jim's Roadhouse","categories":"Restaurants, American (Traditional)","state":"PA","city":"Hendersonville","review_count":24,"rank":1,"stars":3.5},"geometry":{"coordinates":[-80.1524734497,40.2999523986],"type":"Point"}}
{"type":"Feature","properties":{"business_id":"im4bXLV2BWtKZjSSVzibBw","name":"Chez Ti- Polo","categories":"Restaurants, Diners","state":"QC","city":"Henryville","review_count":3,"rank":1,"stars":4.5},"geometry":{"coordinates":[-73.1925168,45.1458875],"type":"Point"}}
{"type":"Feature","properties":{"business_id":"RBDZJkVqB1PrdlyTzfhyqQ","name":"Zala's Cafe","categories":"Gastropubs, Restaurants, Cafes","state":"PA","city":"Herminie","review_count":29,"rank":1,"stars":4.5},"geometry":{"coordinates":[-79.715207,40.2634362],"type":"Point"}}
{"type":"Feature","properties":{"business_id":"akM4t6P-ssqsRevleyY_Fw","name":"Palace Lunch","categories":"American (New), Restaurants","state":"PA","city":"Herminie","review_count":4,"rank":2,"stars":5.0},"geometry":{"coordinates":[-79.715912,40.263275],"type":"Point"}}
{"type":"Feature","properties":{"business_id":"j9mBYdR7z61X6A3K3VmKDg","name":"Dairy Queen Grill & Chill","categories":"Restaurants, Ice Cream & Frozen Yogurt, Fast Food, Salad, Food, Burgers","state":"PA","city":"Herminie","review_count":4,"rank":2,"stars":3.0},"geometry":{"coordinates":[-79.72073704,40.2615080338],"type":"Point"}}
{"type":"Feature","properties":{"business_id":"x-ZnHkRIhpGwZ_7VwiKlRg","name":"Crostatas Rustic Pizza","categories":"Pizza, Restaurants, Italian","state":"OH","city":"Highland Heights","review_count":176,"rank":1,"stars":4.5},"geometry":{"coordinates":[-81.478738,41.552207],"type":"Point"}}
{"type":"Feature","properties":{"business_id":"T8xMrEv3s3NvSm7Qtmbxvg","name":"Burgers 2 Beer","categories":"Restaurants, Burgers","state":"OH","city":"Highland Heights","review_count":154,"rank":2,"stars":3.5},"geometry":{"coordinates":[-81.4513018,41.5393594],"type":"Point"}}
{"type":"Feature","properties":{"business_id":"xUfKsDFU-RlVK-m2mDoIdQ","name":"Grind Burger","categories":"American (New), Restaurants, Beer, Wine & Spirits, Burgers, Food, Bars, Desserts, Lounges, Nightlife","state":"OH","city":"Highland Heights","review_count":127,"rank":3,"stars":3.0},"geometry":{"coordinates":[-81.4783134,41.5389782],"type":"Point"}}
{"type":"Feature","properties":{"business_id":"YTmyUCOyNbyDFnNMbYnH_g","name":"Mugsy Dogs","categories":"American (Traditional), Hot Dogs, Restaurants, Food, Food Trucks, Fast Food, Burgers","state":"AZ","city":"Higley","review_count":198,"rank":1,"stars":4.0},"geometry":{"coordinates":[-111.7213661224,33.2634958399],"type":"Point"}}
{"type":"Feature","properties":{"business_id":"NMk5Y-QA43YoLftgiDlang","name":"Applebee's Grill + Bar","categories":"American (Traditional), Restaurants, Steakhouses, Sports Bars, Bars, Burgers, Nightlife","state":"AZ","city":"Higley","review_count":135,"rank":2,"stars":2.5},"geometry":{"coordinates":[-111.688792,33.322134],"type":"Point"}}
{"type":"Feature","properties":{"business_id":"Omkefrgl__HxvuC3s2fCkQ","name":"In the Raw","categories":"Coffee & Tea, Food, Pets, Pet Stores","state":"AZ","city":"Higley","review_count":4,"rank":3,"stars":4.0},"geometry":{"coordinates":[-111.719495,33.34711],"type":"Point"}}
{"type":"Feature","properties":{"business_id":"--I7YYLada0tSLkORTHb5Q","name":"Happy Moose Bar and Grill","categories":"Bars, Nightlife, Restaurants, Sports Bars, American (Traditional)","state":"OH","city":"Streetsboro","review_count":116,"rank":1,"stars":3.5},"geometry":{"coordinates":[-81.3527032,41.2428955],"type":"Point"}}
{"type":"Feature","properties":{"business_id":"CmIEkQZ87j1IGm9qWYqUdQ","name":"Toko Japanese Steak House","categories":"Food, Sushi Bars, Steakhouses, Japanese, Restaurants","state":"OH","city":"Streetsboro","review_count":116,"rank":1,"stars":4.0},"geometry":{"coordinates":[-81.337449,41.2402252],"type":"Point"}}
{"type":"Feature","properties":{"business_id":"HO__o8ndEqZS84voSZZONQ","name":"Girves Brown Derby","categories":"Steakhouses, Bars, Nightlife, American (New), American (Traditional), Restaurants","state":"OH","city":"Streetsboro","review_count":96,"rank":3,"stars":3.5},"geometry":{"coordinates":[-81.3441212,41.2396771],"type":"Point"}}
{"type":"Feature","properties":{"business_id":"IdTuVC8ThXjpraFItQt9XQ","name":"Swirls","categories":"Desserts, Party & Event Planning, Food, Event Planning & Services, Bakeries","state":"ON","city":"Streetsville","review_count":10,"rank":1,"stars":2.5},"geometry":{"coordinates":[-79.7138005,43.5817197],"type":"Point"}}
{"type":"Feature","properties":{"business_id":"Swv8ldsGQvPHZbPebU5ZOw","name":"Graydon Bar & Grill","categories":"Pubs, Bars, Nightlife, American (Traditional), Restaurants","state":"ON","city":"Streetsville","review_count":5,"rank":2,"stars":2.5},"geometry":{"coordinates":[-79.7120958,43.5806102],"type":"Point"}}
{"type":"Feature","properties":{"business_id":"_yWwXyxirer0clZxYd4VZQ","name":"Hot Mass","categories":"Dance Clubs, Nightlife","state":"PA","city":"Strip District","review_count":7,"rank":1,"stars":3.5},"geometry":{"coordinates":[-79.9929388,40.4457322],"type":"Point"}}
{"type":"Feature","properties":{"business_id":"e_Nf4zAA1KZq80aoy3v8Ng","name":"The Brew Kettle","categories":"Restaurants, Pubs, Bars, Nightlife, Breweries, American (Traditional), Food, Sports Bars","state":"OH","city":"Strongsville","review_count":371,"rank":1,"stars":4.0},"geometry":{"coordinates":[-81.8223539,41.3470983],"type":"Point"}}
{"type":"Feature","properties":{"business_id":"sRqEkekhVMhXVY-05TzVww","name":"B Spot","categories":"Restaurants, Burgers, American (New), Nightlife, Beer Bar, Bars, Salad","state":"OH","city":"Strongsville","review_count":300,"rank":2,"stars":3.5},"geometry":{"coordinates":[-81.828073,41.314329],"type":"Point"}}
{"type":"Feature","properties":{"business_id":"S0UZ-8cnerfOU8snZABzTA","name":"La Kabob Lebanese Grill","categories":"Mediterranean, Middle Eastern, Restaurants","state":"OH","city":"Strongsville","review_count":206,"rank":3,"stars":4.5},"geometry":{"coordinates":[-81.8361084,41.3113504],"type":"Point"}}
{"type":"Feature","properties":{"business_id":"zn5G8-rw3AWfe_oH0AX3zw","name":"Hunner's Restaurant & Catering","categories":"Pizza, Restaurants, American (New), Sandwiches, American (Traditional)","state":"PA","city":"Sturgeon","review_count":9,"rank":1,"stars":4.5},"geometry":{"coordinates":[-80.213697,40.379247],"type":"Point"}}
{"type":"Feature","properties":{"business_id":"AjmnVZbP86tHHPZobuyJ2Q","name":"Hunner's Deli Pizza & Catering","categories":"Restaurants, Pizza","state":"PA","city":"Sturgeon","review_count":3,"rank":2,"stars":3.0},"geometry":{"coordinates":[-80.2107967,40.3828638],"type":"Point"}}
{"type":"Feature","properties":{"business_id":"hMBfOXR1v2jjRUzpm1sUKA","name":"5100 Bar & Grill","categories":"Nightlife, Sports Bars, American (New), Bars, Restaurants, Event Planning & Services, Venues & Event Spaces, Breakfast & Brunch","state":"WI","city":"Mcfarland","review_count":45,"rank":1,"stars":3.0},"geometry":{"coordinates":[-89.3045269,43.024109],"type":"Point"}}
{"type":"Feature","properties":{"business_id":"w1FuKhUBhzgui6pj9uF5Gg","name":"Patrick's Grill","categories":"Barbeque, Dive Bars, Sandwiches, Bars, Nightlife, Restaurants","state":"WI","city":"Mcfarland","review_count":3,"rank":2,"stars":4.5},"geometry":{"coordinates":[-89.302204,42.983861],"type":"Point"}}
{"type":"Feature","properties":{"business_id":"w6bRFK2rsO4dRb6xhw_TtA","name":"Mancini's Bakery","categories":"Bakeries, Food, Restaurants","state":"PA","city":"Mckees Rocks","review_count":22,"rank":1,"stars":5.0},"geometry":{"coordinates":[-80.0709607,40.4712749],"type":"Point"}}
{"type":"Feature","properties":{"business_id":"TASZnrQGjcZXIgx-cL8R-Q","name":"Sciulli's Bar & Grille","categories":"Nightlife, Bars, Sports Bars, American (Traditional), Restaurants","state":"PA","city":"Mckees Rocks","review_count":15,"rank":2,"stars":4.5},"geometry":{"coordinates":[-80.0790036,40.4889188],"type":"Point"}}
{"type":"Feature","properties":{"business_id":"Yej9s79KJG5r8_aDjJcVlQ","name":"Angelias Italian Grille","categories":"Beer Bar, Nightlife, Bars, Restaurants, Italian, Pizza","state":"PA","city":"Mckees Rocks","review_count":13,"rank":3,"stars":4.0},"geometry":{"coordinates":[-80.0955906,40.4678272],"type":"Point"}}
{"type":"Feature","properties":{"business_id":"7g-r_uS61rNomPlOKSUkAA","name":"The Roo Bar & Grill","categories":"Bars, Nightlife, Burgers, Pizza, Restaurants","state":"PA","city":"Mckeesport","review_count":6,"rank":1,"stars":3.5},"geometry":{"coordinates":[-79.830586,40.3512599],"type":"Point"}}
{"type":"Feature","properties":{"business_id":"Dg0L3uU9BR1UgCaCG9Mo-Q","name":"Rich's Parkside Den","categories":"American (Traditional), Nightlife, Dive Bars, Bars, Restaurants","state":"PA","city":"Mckeesport","review_count":4,"rank":2,"stars":5.0},"geometry":{"coordinates":[-79.827454,40.310637],"type":"Point"}}
{"type":"Feature","properties":{"business_id":"ulLQMYF2gGIWZg9Yhybz0w","name":"Italian Village Pizza","categories":"Restaurants, Pizza","state":"PA","city":"Mcknight","review_count":32,"rank":1,"stars":3.5},"geometry":{"coordinates":[-80.0096644,40.5300371],"type":"Point"}}
{"type":"Feature","properties":{"business_id":"gh5MqW8s3aEyRVn-Es1geg","name":"Market District Express","categories":"Bakeries, Restaurants, Department Stores, Drugstores, Delis, Breakfast & Brunch, American (Traditional), Fashion, Grocery, Food, Shopping","state":"PA","city":"Mcmurray","review_count":27,"rank":1,"stars":3.5},"geometry":{"coordinates":[-80.0966031,40.3039154],"type":"Point"}}
{"type":"Feature","properties":{"business_id":"ng-VhfcIxtil9H9Cn8rj2A","name":"Heisler's Market","categories":"Food Delivery Services, Event Planning & Services, Caterers, Personal Chefs, Specialty Food, Fruits & Veggies, Food, Grocery, Butcher","state":"PA","city":"Mcmurray","review_count":13,"rank":2,"stars":4.5},"geometry":{"coordinates":[-80.0841952,40.2801105],"type":"Point"}}
{"type":"Feature","properties":{"business_id":"O1xZ8up9jZzLSsgypO39gw","name":"Fine Wine & Good Spirits","categories":"Food, Beer, Wine & Spirits","state":"PA","city":"Mcmurray","review_count":3,"rank":3,"stars":3.5},"geometry":{"coordinates":[-80.1262157,40.2709652],"type":"Point"}}
{"type":"Feature","properties":{"business_id":"R_RQyidw2F6bPb2NGbRxLw","name":"Wendy's","categories":"Burgers, Fast Food, Restaurants, Hot Dogs","state":"PA","city":"Mcmurray","review_count":3,"rank":3,"stars":1.5},"geometry":{"coordinates":[-80.1207449,40.2849646],"type":"Point"}}
{"type":"Feature","properties":{"business_id":"4sn2a0QzxTmAO3-mxi1s7g","name":"Asian Grill","categories":"Restaurants, Chinese, Asian Fusion","state":"AZ","city":"Sun Lakes","review_count":95,"rank":1,"stars":4.0},"geometry":{"coordinates":[-111.8588719,33.2181007],"type":"Point"}}
{"type":"Feature","properties":{"business_id":"pbUsYtULpwmhZXlzeTfcww","name":"Stone & Barrel","categories":"Event Planning & Services, American (Traditional), Restaurants, Bars, Active Life, Nightlife, Pizza","state":"AZ","city":"Sun Lakes","review_count":64,"rank":2,"stars":4.0},"geometry":{"coordinates":[-111.8671122,33.2187708],"type":"Point"}}
{"type":"Feature","properties":{"business_id":"47lZIUShHGesiZypN6y7Bw","name":"McDonald's","categories":"Fast Food, Coffee & Tea, Food, Restaurants, Burgers","state":"AZ","city":"Sun Lakes","review_count":38,"rank":3,"stars":2.0},"geometry":{"coordinates":[-111.8415310979,33.2180437096],"type":"Point"}}
{"type":"Feature","properties":{"business_id":"_dcX-gXs3VxTBmURWdnTOw","name":"Buck & Honeys","categories":"Breakfast & Brunch, Bars, Venues & Event Spaces, American (Traditional), Wine Bars, Nightlife, Restaurants, Steakhouses, Event Planning & Services","state":"WI","city":"Sun Prairie","review_count":217,"rank":1,"stars":3.5},"geometry":{"coordinates":[-89.226091,43.199587],"type":"Point"}}
{"type":"Feature","properties":{"business_id":"VjaHHmV-rSkFaOAnU3faxg","name":"Salvatore's Tomato Pies","categories":"Gluten-Free, Italian, Restaurants, Pizza, American (New)","state":"WI","city":"Sun Prairie","review_count":207,"rank":2,"stars":4.5},"geometry":{"coordinates":[-89.2128275,43.1830287],"type":"Point"}}
{"type":"Feature","properties":{"business_id":"uivpqxLmLXhuargU1f6uGQ","name":"MACS","categories":"Restaurants, Comfort Food, American (New)","state":"WI","city":"Sun Prairie","review_count":154,"rank":3,"stars":4.0},"geometry":{"coordinates":[-89.2706137266,43.1665880375],"type":"Point"}}
{"type":"Feature","properties":{"business_id":"klV8tr01kjE4cIQ2aByc5Q","name":"Antojitos Guayabitos","categories":"Mexican, Restaurants, Food Trucks, Food, Seafood","state":"NV","city":"Sunrise Manor","review_count":17,"rank":1,"stars":2.5},"geometry":{"coordinates":[-115.0615657,36.1782825],"type":"Point"}}
{"type":"Feature","properties":{"business_id":"CvonRhKDJaH155xhtpz_iw","name":"State 48 Brewery","categories":"Nightlife, Bars, Food, Pubs, Restaurants, Fish & Chips, American (New), Pizza, Gastropubs, Breweries","state":"AZ","city":"Surprise","review_count":717,"rank":1,"stars":3.5},"geometry":{"coordinates":[-112.3578000069,33.6382373275],"type":"Point"}}
{"type":"Feature","properties":{"business_id":"BBFg2FmyimjiR27jO0dpQg","name":"Jim's Burgers and Eggs","categories":"Breakfast & Brunch, Burgers, Restaurants","state":"AZ","city":"Surprise","review_count":608,"rank":2,"stars":2.5},"geometry":{"coordinates":[-112.4250021,33.6237928],"type":"Point"}}
{"type":"Feature","properties":{"business_id":"2px99IppAcnxR238eq_8_w","name":"Big Buddha Restaurant","categories":"Chinese, Restaurants","state":"AZ","city":"Surprise","review_count":552,"rank":3,"stars":4.0},"geometry":{"coordinates":[-112.4144464636,33.6252846267],"type":"Point"}}
