{"type":"Feature","properties":{"business_id":"Y-omMxOCDSYd7jbo1PSCig","name":"Pizza Hut","categories":"Chicken Wings, Pizza, Italian, Restaurants","state":"CO","city":"Centennial","review_count":33,"rank":1,"stars":2.0},"geometry":{"coordinates":[-104.9265826,39.5944569],"type":"Point"}}
{"type":"Feature","properties":{"business_id":"7s43BalhWiHze8ckwZpegA","name":"Noca Wich","categories":"Restaurants, Mexican, Sandwiches","state":"AZ","city":"Central","review_count":39,"rank":1,"stars":2.0},"geometry":{"coordinates":[-111.9969490784,33.4341615222],"type":"Point"}}
{"type":"Feature","properties":{"business_id":"ivYI5FZ7ULlfaqsc-wIVSQ","name":"Wendy's","categories":"Fast Food, Burgers, Breakfast & Brunch, Restaurants","state":"AZ","city":"Central City","review_count":15,"rank":1,"stars":3.0},"geometry":{"coordinates":[-112.026154,33.439648],"type":"Point"}}
{"type":"Feature","properties":{"business_id":"j8j0IV_eemJpFuRRvdNobQ","name":"Cheuvront Restaurant","categories":"Restaurants, Cafes","state":"AZ","city":"Central City Village","review_count":14,"rank":1,"stars":3.5},"geometry":{"coordinates":[-111.999244988,33.4341939962],"type":"Point"}}
{"type":"Feature","properties":{"business_id":"KTjJjYNVj7z-BUOiz_5hlw","name":"lola's coffee","categories":"Coffee & Tea, Food","state":"AZ","city":"Central City Village","review_count":10,"rank":2,"stars":3.5},"geometry":{"coordinates":[-111.996747713,33.4352313613],"type":"Point"}}
{"type":"Feature","properties":{"business_id":"drWouHCFYfmoWbJB0XajdA","name":"Upper Deck Bar","categories":"Bars, Cocktail Bars, American (Traditional), Nightlife, Restaurants","state":"ON","city":"Centre Island","review_count":6,"rank":1,"stars":3.5},"geometry":{"coordinates":[-79.3813701907,43.6236766256],"type":"Point"}}
{"type":"Feature","properties":{"business_id":"2CuuhX79Rtto5bxEk3_oDQ","name":"Jeni's Splendid Ice Creams","categories":"Food, Ice Cream & Frozen Yogurt","state":"OH","city":"Chagrin Falls","review_count":224,"rank":1,"stars":4.5},"geometry":{"coordinates":[-81.3923442,41.431437],"type":"Point"}}
{"type":"Feature","properties":{"business_id":"qlg2QMEErgseygqs_MQETA","name":"M Italian","categories":"Restaurants, Italian, Pizza, Diners","state":"OH","city":"Chagrin Falls","review_count":208,"rank":2,"stars":3.5},"geometry":{"coordinates":[-81.3934887,41.4323665],"type":"Point"}}
{"type":"Feature","properties":{"business_id":"7bQU0QI_YID3MgZirZHmSg","name":"Jekyll's Kitchen","categories":"Seafood, Venues & Event Spaces, Steakhouses, Sushi Bars, Event Planning & Services, Restaurants, American (New)","state":"OH","city":"Chagrin Falls","review_count":202,"rank":3,"stars":3.5},"geometry":{"coordinates":[-81.3927800884,41.4313496171],"type":"Point"}}
{"type":"Feature","properties":{"business_id":"SXDI0pwyqRlF-SEBc2alnw","name":"Aryana","categories":"Restaurants, Afghan","state":"QC","city":"Dollard-des Ormeaux","review_count":25,"rank":1,"stars":4.5},"geometry":{"coordinates":[-73.81847,45.504328],"type":"Point"}}
{"type":"Feature","properties":{"business_id":"-zW2JyDmh7jnD7TQhW6y6A","name":"Quesada Burritos & Tacos","categories":"Ethnic Food, Imported Food, Specialty Food, Mexican, Restaurants, Food, Fast Food, Tex-Mex","state":"QC","city":"Dollard-des Ormeaux","review_count":16,"rank":2,"stars":3.0},"geometry":{"coordinates":[-73.796387,45.485138],"type":"Point"}}
{"type":"Feature","properties":{"business_id":"Ph4QDsfXpG11ZAkriUPhXg","name":"Pho Zui Zui","categories":"Vietnamese, Restaurants","state":"QC","city":"Dollard-des Ormeaux","review_count":15,"rank":3,"stars":4.0},"geometry":{"coordinates":[-73.8058978713,45.4936573068],"type":"Point"}}
{"type":"Feature","properties":{"business_id":"JqBtQ1bSynPHE9gbyuSSvA","name":"Jukebox","categories":"Restaurants, American (Traditional), Burgers, Fast Food","state":"QC","city":"Dollard-des-Ormeaux","review_count":119,"rank":1,"stars":3.0},"geometry":{"coordinates":[-73.8036738,45.4840171],"type":"Point"}}
{"type":"Feature","properties":{"business_id":"ck3rA4xSMx4T8QLCwZ9hwg","name":"Marathon Souvlaki","categories":"Greek, Restaurants","state":"QC","city":"Dollard-des-Ormeaux","review_count":77,"rank":2,"stars":4.0},"geometry":{"coordinates":[-73.793910809,45.4833359329],"type":"Point"}}
{"type":"Feature","properties":{"business_id":"4B8VnRAstRRshxiUzm9yPw","name":"Maiko Sushi - DDO","categories":"Japanese, Sushi Bars, Restaurants","state":"QC","city":"Dollard-des-Ormeaux","review_count":66,"rank":3,"stars":4.0},"geometry":{"coordinates":[-73.795652,45.484315],"type":"Point"}}
{"type":"Feature","properties":{"business_id":"RwVXPEFAuTHktV2dAqDkNw","name":"The Keg Steakhouse + Bar - Leslie","categories":"Restaurants, Nightlife, Wine Bars, Bars, Steakhouses, Seafood","state":"ON","city":"Don Mills","review_count":140,"rank":1,"stars":4.0},"geometry":{"coordinates":[-79.3605312,43.7589389],"type":"Point"}}
{"type":"Feature","properties":{"business_id":"eiLpc6IO5EOBe6RvPtJrFA","name":"Pizza Pizza","categories":"Restaurants, Italian, Chicken Wings, Pizza","state":"ON","city":"Don Mills","review_count":3,"rank":2,"stars":2.5},"geometry":{"coordinates":[-79.3526474,43.7858702],"type":"Point"}}
{"type":"Feature","properties":{"business_id":"err0FvoRGGSqORd8WRtppA","name":"Speakeasy","categories":"Speakeasies, Nightlife, Bars, Restaurants, American (New)","state":"PA","city":"Downtown","review_count":96,"rank":1,"stars":3.5},"geometry":{"coordinates":[-79.996589,40.440592],"type":"Point"}}
{"type":"Feature","properties":{"business_id":"_TrkM4jGtGtd2MIydT2FDA","name":"Presotea","categories":"Food, Bubble Tea","state":"ON","city":"Downtown Toronto","review_count":9,"rank":1,"stars":3.0},"geometry":{"coordinates":[-79.3903819,43.6475074],"type":"Point"}}
{"type":"Feature","properties":{"business_id":"ChpeP5K2Gx-QbgOjql1E4w","name":"Presotea","categories":"Desserts, Food, Bubble Tea, Tea Rooms","state":"ON","city":"Downtown Toronto","review_count":8,"rank":2,"stars":3.0},"geometry":{"coordinates":[-79.3947960064,43.6536660572],"type":"Point"}}
{"type":"Feature","properties":{"business_id":"iZ7WmS_6pAuP9PQ0VsUIMw","name":"Presotea","categories":"Bubble Tea, Food","state":"ON","city":"Downtown Toronto","review_count":5,"rank":3,"stars":3.0},"geometry":{"coordinates":[-79.4067188,43.6523553],"type":"Point"}}
{"type":"Feature","properties":{"business_id":"8995N0iamENbaMr6lKcqUw","name":"Pasquale's Pizzeria","categories":"Pizza, Restaurants","state":"PA","city":"Dravosburg","review_count":16,"rank":1,"stars":4.0},"geometry":{"coordinates":[-79.896124,40.3565449],"type":"Point"}}
{"type":"Feature","properties":{"business_id":"7B-xM_3t9NKebmkEodw3CQ","name":"Mr Hoagie","categories":"Restaurants, Fast Food","state":"PA","city":"Dravosburg","review_count":13,"rank":2,"stars":3.5},"geometry":{"coordinates":[-79.9007092,40.3543304],"type":"Point"}}
{"type":"Feature","properties":{"business_id":"QN-Jwhwvv3ZGTg8bXZXAyg","name":"Domino's Pizza","categories":"Chicken Wings, Restaurants, Food, Food Delivery Services, Pizza, Sandwiches","state":"PA","city":"Dravosburg","review_count":11,"rank":3,"stars":1.5},"geometry":{"coordinates":[-79.8913423,40.3492497],"type":"Point"}}
{"type":"Feature","properties":{"business_id":"6qAChWfCZVDvXNtcyhze-g","name":"McDonald's","categories":"Food, Fast Food, Coffee & Tea, Burgers, Restaurants","state":"PA","city":"Duquesne","review_count":16,"rank":1,"stars":1.0},"geometry":{"coordinates":[-79.8632582277,40.3842109294],"type":"Point"}}
{"type":"Feature","properties":{"business_id":"aNFEAh4xClhLYK8K4ZDpCA","name":"Long John Silver's","categories":"Restaurants, Fast Food, Food, American (Traditional), Seafood","state":"PA","city":"Duquesne","review_count":6,"rank":2,"stars":2.5},"geometry":{"coordinates":[-79.8637838,40.3840693],"type":"Point"}}
{"type":"Feature","properties":{"business_id":"ihgkmshFX_XzbWJGmdCyRA","name":"Cocktail House","categories":"Nightlife, Bars, Cocktail Bars","state":"ON","city":"Durham Regional Municipality","review_count":11,"rank":1,"stars":2.5},"geometry":{"coordinates":[-79.0794181824,43.8584515007],"type":"Point"}}
{"type":"Feature","properties":{"business_id":"Y8ieZz3348CryFozrPUVog","name":"Beach Club","categories":"Nightlife, Music Venues, Active Life, Supper Clubs, Arts & Entertainment, Beaches, Dinner Theater, Restaurants","state":"QC","city":"Pointe-Calumet","review_count":5,"rank":1,"stars":3.0},"geometry":{"coordinates":[-73.97405494,45.5058539284],"type":"Point"}}
{"type":"Feature","properties":{"business_id":"hXeasEtce5edeiRaGx5kmw","name":"Scarolies Pasta Emporium","categories":"Italian, Restaurants","state":"QC","city":"Pointe-Claire","review_count":73,"rank":1,"stars":3.5},"geometry":{"coordinates":[-73.8308755,45.4684414],"type":"Point"}}
{"type":"Feature","properties":{"business_id":"7_fSCfnTZce6ZzjpnpJ69g","name":"40 Westt","categories":"Steakhouses, Nightlife, Seafood, Arts & Entertainment, Restaurants, Jazz & Blues","state":"QC","city":"Pointe-Claire","review_count":69,"rank":2,"stars":4.0},"geometry":{"coordinates":[-73.7953591347,45.480670865],"type":"Point"}}
{"type":"Feature","properties":{"business_id":"lx4vVJndLJjRmZKQNIaXpA","name":"Sushi St-Jean","categories":"Japanese, Restaurants, Sushi Bars","state":"QC","city":"Pointe-Claire","review_count":60,"rank":3,"stars":2.5},"geometry":{"coordinates":[-73.8321464616,45.4698222137],"type":"Point"}}
{"type":"Feature","properties":{"business_id":"v9yWdwVvdkDF3Z3-_QiJsg","name":"MariePain","categories":"Event Planning & Services, Caterers, Food, Bakeries","state":"QC","city":"Pointe-aux-Trembles","review_count":4,"rank":1,"stars":4.0},"geometry":{"coordinates":[-73.5088872,45.6565999],"type":"Point"}}
{"type":"Feature","properties":{"business_id":"8S4-t-L3b9DHAl-NwR05Uw","name":"Teddy's Deli-Bar","categories":"Sandwiches, Delis, Restaurants","state":"QC","city":"Pointe-aux-Trembles","review_count":3,"rank":2,"stars":3.5},"geometry":{"coordinates":[-73.5104907,45.6561438],"type":"Point"}}
{"type":"Feature","properties":{"business_id":"fsMgUPvNasNOMoz5yx680Q","name":"Pizza Hut","categories":"Pizza, Restaurants, Food Delivery Services, Chicken Wings, Italian, Food","state":"QC","city":"Pont-Viau","review_count":4,"rank":1,"stars":2.0},"geometry":{"coordinates":[-73.706875,45.581582],"type":"Point"}}
{"type":"Feature","properties":{"business_id":"Nv2ILPkvHatA1Er5rqnZTg","name":"Colossus Greek Taverna","categories":"Mediterranean, Specialty Food, Food, Greek, Restaurants","state":"ON","city":"Port Credit","review_count":83,"rank":1,"stars":4.0},"geometry":{"coordinates":[-79.5761079,43.5607633],"type":"Point"}}
{"type":"Feature","properties":{"business_id":"eDIySCeNell2GyoQvoy_YA","name":"Archtop Cafe","categories":"Cafes, Restaurants, Books, Mags, Music & Video, Shopping, Vinyl Records","state":"ON","city":"Port Credit","review_count":40,"rank":2,"stars":4.5},"geometry":{"coordinates":[-79.583199,43.5535945],"type":"Point"}}
{"type":"Feature","properties":{"business_id":"gtoBJ9UpIuxLoTl62LdCUQ","name":"Stonehooker Brewing","categories":"Food, Breweries","state":"ON","city":"Port Credit","review_count":5,"rank":3,"stars":4.5},"geometry":{"coordinates":[-79.562008,43.573061],"type":"Point"}}
{"type":"Feature","properties":{"business_id":"tod27nNWXJdRwfBDv0Q_MA","name":"Zone Shish Taouk","categories":"Restaurants, Lebanese, Middle Eastern, Mediterranean","state":"QC","city":"St-Jean-sur-Richelieu","review_count":5,"rank":1,"stars":4.0},"geometry":{"coordinates":[-73.2942836912,45.3522099565],"type":"Point"}}
{"type":"Feature","properties":{"business_id":"kaxBWp2iyyUmafaD2dgMJQ","name":"Buffet des Continents","categories":"Restaurants, Buffets","state":"QC","city":"St-Jerome","review_count":28,"rank":1,"stars":3.0},"geometry":{"coordinates":[-74.0218477566,45.759381549],"type":"Point"}}
{"type":"Feature","properties":{"business_id":"R5wyQrIhNs2gTlIvY6zHRA","name":"Merci La Vie","categories":"Bakeries, Food, Breakfast & Brunch, Restaurants","state":"QC","city":"St-Jerome","review_count":9,"rank":2,"stars":4.5},"geometry":{"coordinates":[-74.0740041777,45.8693606212],"type":"Point"}}
{"type":"Feature","properties":{"business_id":"QgsdA8aEWqbns5XoI37TEg","name":"Five Guys","categories":"Restaurants, Fast Food, Burgers","state":"QC","city":"St-Jerome","review_count":5,"rank":3,"stars":2.0},"geometry":{"coordinates":[-74.018274,45.75673],"type":"Point"}}
{"type":"Feature","properties":{"business_id":"V_DSqtxjjrLulxswE5Aj3g","name":"Tache de Café","categories":"Cafes, Restaurants","state":"QC","city":"St-Laurent","review_count":3,"rank":1,"stars":4.5},"geometry":{"coordinates":[-73.6793369,45.5120624],"type":"Point"}}
{"type":"Feature","properties":{"business_id":"A7UeKXHcWRyIQoPB66ZOKg","name":"Kanda Plus","categories":"Sushi Bars, Restaurants, Tapas Bars, Asian Fusion","state":"QC","city":"St-Leonard","review_count":11,"rank":1,"stars":3.0},"geometry":{"coordinates":[-73.57094,45.592348],"type":"Point"}}
{"type":"Feature","properties":{"business_id":"nZS3Zv36uJOELtNP-ogvOQ","name":"Hawgs Deli & Bar","categories":"Nightlife, Bars, Sports Bars, Sandwiches, Restaurants, Delis","state":"QC","city":"St-Leonard","review_count":7,"rank":2,"stars":3.5},"geometry":{"coordinates":[-73.578836,45.597956],"type":"Point"}}
{"type":"Feature","properties":{"business_id":"UxfmoEORX32nKgzIvCZTww","name":"Takashi Sushi Grill & Tapas","categories":"Tapas/Small Plates, Restaurants, Sushi Bars, Japanese","state":"QC","city":"St-Leonard","review_count":6,"rank":3,"stars":4.5},"geometry":{"coordinates":[-73.5816571,45.5790998],"type":"Point"}}
{"type":"Feature","properties":{"business_id":"4N5kzNEaoHhC631SSSRlzw","name":"Bâton Rouge Steakhouse & Bar","categories":"Gluten-Free, Italian, Bars, Cocktail Bars, Steakhouses, Seafood, Restaurants, Nightlife","state":"QC","city":"St-Sauveur","review_count":12,"rank":1,"stars":3.0},"geometry":{"coordinates":[-74.1472566,45.896711],"type":"Point"}}
{"type":"Feature","properties":{"business_id":"zaoGcD35rSuuAwc7DLiSMw","name":"Subway Restaurants","categories":"Sandwiches, Restaurants, Fast Food","state":"IL","city":"St. Joseph","review_count":3,"rank":1,"stars":3.0},"geometry":{"coordinates":[-88.0414094,40.1133946],"type":"Point"}}
{"type":"Feature","properties":{"business_id":"H0m5s5V1kie0JMm5Y9s4nQ","name":"The Barrel Inn","categories":"Event Planning & Services, Hotels, American (Traditional), Restaurants, Hotels & Travel","state":"WI","city":"Marshall","review_count":15,"rank":1,"stars":4.5},"geometry":{"coordinates":[-89.10259,43.183219],"type":"Point"}}
{"type":"Feature","properties":{"business_id":"vtWcoQhX1us88cwOVpGfAA","name":"JD & ME","categories":"Restaurants, American (Traditional)","state":"WI","city":"Marshall","review_count":3,"rank":2,"stars":2.0},"geometry":{"coordinates":[-89.10259,43.183219],"type":"Point"}}
{"type":"Feature","properties":{"business_id":"wM8QNs7uSyDqMJKjBYFPCQ","name":"Buffet Des Continents","categories":"Restaurants, Buffets","state":"QC","city":"Mascouche","review_count":24,"rank":1,"stars":3.0},"geometry":{"coordinates":[-73.6743764798,45.7306442686],"type":"Point"}}
{"type":"Feature","properties":{"business_id":"QQheP7fn6DMTc9-0BwH3Fw","name":"Vulcano","categories":"Restaurants, Pizza, Italian","state":"QC","city":"Mascouche","review_count":5,"rank":2,"stars":3.5},"geometry":{"coordinates":[-73.6142827694,45.7268664952],"type":"Point"}}
{"type":"Feature","properties":{"business_id":"WmOvzB_Ba4U-c04GBsFXWg","name":"Les Fous Braques","categories":"Bistros, Restaurants","state":"QC","city":"Mascouche","review_count":4,"rank":3,"stars":3.0},"geometry":{"coordinates":[-73.6114021763,45.7396469758],"type":"Point"}}
{"type":"Feature","properties":{"business_id":"kP4h9pD5w_x2kztgJON40g","name":"Kojan Bistro","categories":"Korean, Japanese, Restaurants","state":"NC","city":"Mattews","review_count":6,"rank":1,"stars":2.5},"geometry":{"coordinates":[-80.71005,35.133926],"type":"Point"}}
{"type":"Feature","properties":{"business_id":"TTFbaLpIwrjFx7YIL2pbJA","name":"Kabab-Je Rotisserie & Grille","categories":"Middle Eastern, Restaurants, Mediterranean, Vegan, Lebanese","state":"NC","city":"Matthews","review_count":557,"rank":1,"stars":4.5},"geometry":{"coordinates":[-80.7022409,35.1281898],"type":"Point"}}
{"type":"Feature","properties":{"business_id":"6rFjfFSavabsIxEKuWdk5w","name":"Metro Diner","categories":"Restaurants, Breakfast & Brunch, Diners, American (Traditional)","state":"NC","city":"Matthews","review_count":304,"rank":2,"stars":4.0},"geometry":{"coordinates":[-80.708307,35.126887],"type":"Point"}}
{"type":"Feature","properties":{"business_id":"Mkn4eaV7pVcat5PQ0U-4Qw","name":"Stacks Kitchen","categories":"Food, Restaurants, Breakfast & Brunch","state":"NC","city":"Matthews","review_count":271,"rank":3,"stars":4.0},"geometry":{"coordinates":[-80.729626,35.1233488122],"type":"Point"}}
{"type":"Feature","properties":{"business_id":"_f7-yWDLgsi1DJL7XeCI_g","name":"Pauken Wine & Liquor","categories":"Food, Beer, Wine & Spirits","state":"OH","city":"Maumee","review_count":4,"rank":1,"stars":3.0},"geometry":{"coordinates":[-81.4499754,41.5195625],"type":"Point"}}
{"type":"Feature","properties":{"business_id":"QwK-S59WOc1n_BVjHiBu3Q","name":"Restaurant Sawadee","categories":"Canadian (New), Asian Fusion, Thai, Restaurants, French","state":"QC","city":"Beloeil","review_count":7,"rank":1,"stars":3.5},"geometry":{"coordinates":[-73.2128238,45.5557596],"type":"Point"}}
{"type":"Feature","properties":{"business_id":"g3yel1Qh2vnI16oYoEXPfA","name":"Barabouf","categories":"Restaurants, Comfort Food, French, Bistros, Cafes","state":"QC","city":"Beloeil","review_count":5,"rank":2,"stars":4.0},"geometry":{"coordinates":[-73.200603,45.569864],"type":"Point"}}
{"type":"Feature","properties":{"business_id":"sPpx47MFyQKXqnpxYsbaVA","name":"Chocolaterie Du Vieux-Beloeil (La)","categories":"Food","state":"QC","city":"Beloeil","review_count":4,"rank":3,"stars":4.0},"geometry":{"coordinates":[-73.1998046,45.5703087],"type":"Point"}}
{"type":"Feature","properties":{"business_id":"ORqCfcywCYNAmRoLxF3KUw","name":"Au Trait","categories":"Bistros, Restaurants","state":"QC","city":"Beloeil","review_count":4,"rank":3,"stars":3.0},"geometry":{"coordinates":[-73.2003556,45.569647],"type":"Point"}}
{"type":"Feature","properties":{"business_id":"k55Bs6VymAMRPleOUBXKwg","name":"La Fringale","categories":"Hot Dogs, Restaurants, Poutineries, Fast Food","state":"QC","city":"Belœil","review_count":4,"rank":1,"stars":5.0},"geometry":{"coordinates":[-73.2236547103,45.5480274634],"type":"Point"}}
{"type":"Feature","properties":{"business_id":"7YLvFqyFkIZkj5l6tnbqrw","name":"Anchor & Anvil Coffee Bar","categories":"Food, Juice Bars & Smoothies, Internet Cafes, Restaurants, Coffee & Tea, Sandwiches","state":"PA","city":"Ben Avon","review_count":61,"rank":1,"stars":4.5},"geometry":{"coordinates":[-80.0849452,40.5088626],"type":"Point"}}
{"type":"Feature","properties":{"business_id":"WwwYZakdSQM9174gdZdUIA","name":"The Wing Warehouse","categories":"Religious Organizations, Sports Bars, Nightlife, Bars","state":"AK","city":"Berea","review_count":3,"rank":1,"stars":2.5},"geometry":{"coordinates":[-81.8543565,41.367296],"type":"Point"}}
{"type":"Feature","properties":{"business_id":"IfdwBSEuDK3fKvVHVX9k0A","name":"Tree Huggers Cafe","categories":"Local Flavor, Restaurants, American (New), Vegetarian, American (Traditional), Greek, Mexican","state":"OH","city":"Berea","review_count":213,"rank":1,"stars":3.5},"geometry":{"coordinates":[-81.8918779,41.3738834],"type":"Point"}}
{"type":"Feature","properties":{"business_id":"DdZo9MKaDrh9OJnpVwbBUA","name":"The Campus Grille","categories":"Puerto Rican, Restaurants, Caribbean, Food, Latin American, Spanish, Fast Food","state":"OH","city":"Berea","review_count":192,"rank":2,"stars":4.5},"geometry":{"coordinates":[-81.851298,41.366647],"type":"Point"}}
{"type":"Feature","properties":{"business_id":"8pSKJ_qRUotjFl_bjH_GQA","name":"The Cornerstone Brewing Company","categories":"Restaurants, Food, American (New), Breweries","state":"OH","city":"Berea","review_count":163,"rank":3,"stars":4.0},"geometry":{"coordinates":[-81.852683,41.366919],"type":"Point"}}
{"type":"Feature","properties":{"business_id":"SpQNr_ybDkzHuSYskKUpeA","name":"M.I.C.K. Michael's International Creekside Kitchen","categories":"Italian, Restaurants","state":"PA","city":"Upper St. Clair","review_count":10,"rank":1,"stars":3.0},"geometry":{"coordinates":[-80.0832782,40.3468646],"type":"Point"}}
{"type":"Feature","properties":{"business_id":"9MnbQg7kfb_WgxoV0hXKSQ","name":"Black Dog Smoke & Ale House","categories":"Barbeque, Restaurants, American (Traditional), Bars, Nightlife, Pubs","state":"IL","city":"Urbana","review_count":831,"rank":1,"stars":4.5},"geometry":{"coordinates":[-88.2076892527,40.1138182155],"type":"Point"}}
{"type":"Feature","properties":{"business_id":"o13eH93qmWVNFZogkjhd9w","name":"Courier Cafe","categories":"Burgers, American (Traditional), Ice Cream & Frozen Yogurt, Restaurants, Local Flavor, Cafes, Breakfast & Brunch, Food","state":"IL","city":"Urbana","review_count":383,"rank":2,"stars":4.0},"geometry":{"coordinates":[-88.2090229914,40.1128225269],"type":"Point"}}
{"type":"Feature","properties":{"business_id":"ovApUucCKSb9k0lTP2JieQ","name":"Huaraches Moroleon","categories":"Mexican, Restaurants","state":"IL","city":"Urbana","review_count":222,"rank":3,"stars":4.5},"geometry":{"coordinates":[-88.1951387,40.1058258],"type":"Point"}}
{"type":"Feature","properties":{"business_id":"FPwY1ID6pEQKhikNS_moDw","name":"B&L Country Kitchen","categories":"Breakfast & Brunch, Restaurants","state":"ON","city":"Uxbridge","review_count":13,"rank":1,"stars":4.0},"geometry":{"coordinates":[-79.132065,44.092062],"type":"Point"}}
{"type":"Feature","properties":{"business_id":"rbl_sWvtS6inpZZqaNSLBg","name":"Thai Village","categories":"Restaurants, Active Life, Thai","state":"ON","city":"Uxbridge","review_count":9,"rank":2,"stars":2.5},"geometry":{"coordinates":[-79.1328048706,44.0912839255],"type":"Point"}}
{"type":"Feature","properties":{"business_id":"qB3gmTcjzP5SueytBit8vg","name":"Ski Dagmar","categories":"Specialty Schools, Education, Ski Schools, Ski Resorts, Restaurants, Active Life, Hotels & Travel","state":"ON","city":"Uxbridge","review_count":8,"rank":3,"stars":4.5},"geometry":{"coordinates":[-79.049461,44.014425],"type":"Point"}}
{"type":"Feature","properties":{"business_id":"QDrvveQ7oI0m6hXQ4qsmkw","name":"Restaurant Au Mazot Suisse","categories":"Restaurants","state":"QC","city":"Val-Morin","review_count":7,"rank":1,"stars":4.5},"geometry":{"coordinates":[-74.1955538,45.9881181],"type":"Point"}}
{"type":"Feature","properties":{"business_id":"9_xXyyJJ1qdibDvMRnP_DQ","name":"Crêperie au Tournesol","categories":"Restaurants, Creperies","state":"QC","city":"Val-Morin","review_count":6,"rank":2,"stars":4.5},"geometry":{"coordinates":[-74.1991122357,45.9945517674],"type":"Point"}}
{"type":"Feature","properties":{"business_id":"3gdjVkNeUa9piW9H708Aig","name":"The Olde Yorke","categories":"British, Restaurants, Seafood, Fish & Chips","state":"ON","city":"East York","review_count":250,"rank":1,"stars":4.5},"geometry":{"coordinates":[-79.3621045,43.7062388],"type":"Point"}}
{"type":"Feature","properties":{"business_id":"GdCRQU3VCh_x8fY84mbwYQ","name":"Bamiyan Kabob","categories":"Restaurants, Afghan","state":"ON","city":"East York","review_count":146,"rank":2,"stars":4.0},"geometry":{"coordinates":[-79.3433474,43.7078994],"type":"Point"}}
{"type":"Feature","properties":{"business_id":"BnG7Mwl4h1r35M5QBVzQeA","name":"Serano Bakery","categories":"Food, Bakeries","state":"ON","city":"East York","review_count":82,"rank":3,"stars":4.0},"geometry":{"coordinates":[-79.3467757,43.6828647],"type":"Point"}}
{"type":"Feature","properties":{"business_id":"djW8gh3JJ-__NCxx1YQaHg","name":"Biagio's Donut Shop & Pizzeria","categories":"Pizza, Donuts, Food, Restaurants","state":"OH","city":"Eastlake","review_count":148,"rank":1,"stars":4.5},"geometry":{"coordinates":[-81.4352018,41.6429367],"type":"Point"}}
{"type":"Feature","properties":{"business_id":"5G-i1t7VXLGByswnCKvrDQ","name":"El Palenque","categories":"Restaurants, Mexican","state":"OH","city":"Eastlake","review_count":109,"rank":2,"stars":4.0},"geometry":{"coordinates":[-81.4348647594,41.6422744222],"type":"Point"}}
{"type":"Feature","properties":{"business_id":"28GeAA6PjuHmqgMmp1E2Uw","name":"Trader Jack's Riverside Grille","categories":"Burgers, Restaurants, Chicken Wings, Seafood","state":"OH","city":"Eastlake","review_count":60,"rank":3,"stars":4.0},"geometry":{"coordinates":[-81.423583,41.668417],"type":"Point"}}
{"type":"Feature","properties":{"business_id":"uWImmd7LPs0JmfvGnN9icQ","name":"Scene75 Entertainment Center","categories":"Arcades, Go Karts, Active Life, Restaurants, Arts & Entertainment","state":"PA","city":"Edgewood","review_count":23,"rank":1,"stars":3.0},"geometry":{"coordinates":[-79.8858574,40.4281769],"type":"Point"}}
{"type":"Feature","properties":{"business_id":"X8c8Fp6d90S0CAs1X_6Cnw","name":"Eat'n Park","categories":"American (New), Diners, American (Traditional), Breakfast & Brunch, Restaurants","state":"PA","city":"Edgewood","review_count":9,"rank":2,"stars":2.5},"geometry":{"coordinates":[-79.8881651,40.4263046],"type":"Point"}}
{"type":"Feature","properties":{"business_id":"Bmv3nHS2nfjzhkDQMsLAWQ","name":"Z's Cream & Bean","categories":"Desserts, Food, Ice Cream & Frozen Yogurt, Arts & Entertainment, Fast Food, Music Venues, Coffee & Tea, Nightlife, Restaurants, Soup","state":"OH","city":"Hinckley","review_count":50,"rank":1,"stars":4.0},"geometry":{"coordinates":[-81.7833542,41.275969],"type":"Point"}}
{"type":"Feature","properties":{"business_id":"l44E5TrKTo9U8xWIbSORjA","name":"Fosters Tavern of Hinckley","categories":"Nightlife, Pizza, Bars, Burgers, Restaurants","state":"OH","city":"Hinckley","review_count":28,"rank":2,"stars":4.0},"geometry":{"coordinates":[-81.7453502,41.239174],"type":"Point"}}
{"type":"Feature","properties":{"business_id":"O5xFslbI7ZH1sq6zOEJIdg","name":"Hinckley Coffee & Donuts","categories":"Coffee & Tea, Bakeries, Food, Donuts","state":"OH","city":"Hinckley","review_count":8,"rank":3,"stars":5.0},"geometry":{"coordinates":[-81.7451423407,41.2386290251],"type":"Point"}}
{"type":"Feature","properties":{"business_id":"ubqD3yi-C9FYxks-pNKPKA","name":"Gionino's Pizzeria","categories":"Pizza, Restaurants","state":"OH","city":"Hiram","review_count":11,"rank":1,"stars":4.0},"geometry":{"coordinates":[-81.1452345,41.3098036],"type":"Point"}}
{"type":"Feature","properties":{"business_id":"n4dFbuVAjt7aCSVXXU6ubA","name":"Monroes Orchard & Farm Market","categories":"Farmers Market, Food","state":"OH","city":"Hiram","review_count":7,"rank":2,"stars":4.5},"geometry":{"coordinates":[-81.163712,41.296267],"type":"Point"}}
{"type":"Feature","properties":{"business_id":"Rp4PlhfUazz3SFqB8-3w2w","name":"Geauga Farms Country Meats","categories":"Cheese Shops, Meat Shops, Specialty Food, Butcher, Food","state":"OH","city":"Hiram","review_count":6,"rank":3,"stars":5.0},"geometry":{"coordinates":[-81.1285397,41.3837445],"type":"Point"}}
{"type":"Feature","properties":{"business_id":"zy-5eewu8TNRuWC75g8UvA","name":"CHEFIES eatery","categories":"Vegetarian, Food, Event Planning & Services, Caterers, Diners, Restaurants, Breakfast & Brunch","state":"ON","city":"Holland Landing","review_count":12,"rank":1,"stars":4.5},"geometry":{"coordinates":[-79.4909965,44.1017944],"type":"Point"}}
{"type":"Feature","properties":{"business_id":"IFlSq9YWXHZyLnuh0EffKQ","name":"Main Street Belly Deli","categories":"Breweries, Coffee & Tea, Food, American (Traditional), Delis, Restaurants","state":"IL","city":"Homer","review_count":11,"rank":1,"stars":4.5},"geometry":{"coordinates":[-87.9583024912,40.0356044068],"type":"Point"}}
{"type":"Feature","properties":{"business_id":"DhmrZSIOShDDtFUeUcDIjw","name":"Charlie's Grub & Suds","categories":"Restaurants, Asian Fusion, Barbeque, American (Traditional), Italian","state":"IL","city":"Homer","review_count":7,"rank":2,"stars":4.5},"geometry":{"coordinates":[-87.9589608,40.0363689],"type":"Point"}}
{"type":"Feature","properties":{"business_id":"KAJAsjVhYUPb6b_yodVqvA","name":"Hookah Palace Restaurant & Lounge","categories":"Nightlife, Bars, Hookah Bars, Food Court, Restaurants, Dance Clubs, Mediterranean","state":"OH","city":"Lindale","review_count":6,"rank":1,"stars":3.5},"geometry":{"coordinates":[-81.7656628,41.44609],"type":"Point"}}
{"type":"Feature","properties":{"business_id":"qYcQxgd3YlyoQtnjxm4x8w","name":"Casablanca Smoke Shop & Hookah Lounge","categories":"Tobacco Shops, Bars, Shopping, Hookah Bars, Nightlife","state":"AZ","city":"Litchfield","review_count":3,"rank":1,"stars":2.5},"geometry":{"coordinates":[-112.3414607,33.5106676],"type":"Point"}}
{"type":"Feature","properties":{"business_id":"CFs89vckryf0WNb6zION6w","name":"Hungry Bear","categories":"Restaurants","state":"OH","city":"Litchfield","review_count":14,"rank":1,"stars":4.5},"geometry":{"coordinates":[-82.0227051,41.1684724],"type":"Point"}}
{"type":"Feature","properties":{"business_id":"t1w3AgvdlXCGAaTTTIEg9w","name":"Gizmos Grille","categories":"Burgers, Ice Cream & Frozen Yogurt, Diners, Mini Golf, Food, Active Life, Restaurants","state":"OH","city":"Litchfield","review_count":3,"rank":2,"stars":3.5},"geometry":{"coordinates":[-81.9938227,41.1678086],"type":"Point"}}
{"type":"Feature","properties":{"business_id":"ucY9cyJinEaPfXZWAJsvkA","name":"T.L. Keller Meats","categories":"Butcher, Food, Caterers, Event Planning & Services","state":"OH","city":"Litchfield","review_count":3,"rank":2,"stars":5.0},"geometry":{"coordinates":[-82.0220274478,41.1724663346],"type":"Point"}}
{"type":"Feature","properties":{"business_id":"bRS8vlTZmdGGxF9viiKKpQ","name":"Gary Mart","categories":"Grocery, Shopping, Food","state":"OH","city":"Litchfield","review_count":3,"rank":2,"stars":4.5},"geometry":{"coordinates":[-82.022102,41.168232],"type":"Point"}}
{"type":"Feature","properties":{"business_id":"3NzMmFv3Ky_cxtL9YAJFZg","name":"Tonios Pizza","categories":"Pizza, Restaurants, Salad, Chicken Wings, Sandwiches","state":"OH","city":"Litchfield","review_count":3,"rank":2,"stars":4.0},"geometry":{"coordinates":[-82.0238973,41.166837],"type":"Point"}}
{"type":"Feature","properties":{"business_id":"Y1-nbySEHec051ix7beSGw","name":"Ground Control","categories":"Restaurants, Food, Gastropubs, Coffee & Tea, Coffee Roasteries, Beer, Wine & Spirits, Ice Cream & Frozen Yogurt, Pizza","state":"AZ","city":"Litchfield Park","review_count":449,"rank":1,"stars":3.5},"geometry":{"coordinates":[-112.358767,33.507094],"type":"Point"}}
{"type":"Feature","properties":{"business_id":"3jV44-5HVwykooxEp4Fssg","name":"Park Cafe","categories":"Restaurants, American (Traditional)","state":"AZ","city":"Litchfield Park","review_count":367,"rank":2,"stars":4.0},"geometry":{"coordinates":[-112.3583955,33.4935997],"type":"Point"}}
{"type":"Feature","properties":{"business_id":"WR18M4vP4g1jXfNsd9lYjQ","name":"Wigwam Arizona","categories":"Event Planning & Services, Restaurants, Hotels, Hotels & Travel, Day Spas, Beauty & Spas, Active Life, Golf","state":"AZ","city":"Litchfield Park","review_count":318,"rank":3,"stars":3.5},"geometry":{"coordinates":[-112.355112,33.493805],"type":"Point"}}
{"type":"Feature","properties":{"business_id":"9S_qmBQC6cCVwP7m3WrAnQ","name":"Verger Richard Legault","categories":"Food, Arts & Entertainment, Farmers Market, Specialty Food, Fruits & Veggies, Farms","state":"QC","city":"Saint-Joseph-Du-Lac","review_count":3,"rank":1,"stars":4.0},"geometry":{"coordinates":[-73.9949853,45.5100033],"type":"Point"}}
{"type":"Feature","properties":{"business_id":"OHzYA9aScnfix3uG7wEA7Q","name":"Cidrerie Lacroix","categories":"Local Flavor, Food, Cideries, Farmers Market","state":"QC","city":"Saint-Joseph-du-Lac","review_count":5,"rank":1,"stars":4.5},"geometry":{"coordinates":[-73.9947261,45.5259179],"type":"Point"}}
{"type":"Feature","properties":{"business_id":"gcT4c2uJVqM6U6raL9ckLQ","name":"Vignoble Vents d'Ange","categories":"Food, Arts & Entertainment, Wineries, Farmers Market, Breweries","state":"QC","city":"Saint-Joseph-du-Lac","review_count":3,"rank":2,"stars":5.0},"geometry":{"coordinates":[-73.9995021,45.5290955],"type":"Point"}}
{"type":"Feature","properties":{"business_id":"lKNbddk1e_QB5pH4ldjnFw","name":"Boeuf Cochon","categories":"Restaurants, Steakhouses","state":"QC","city":"Saint-Jérôme","review_count":13,"rank":1,"stars":4.5},"geometry":{"coordinates":[-74.0173865835,45.7779745286],"type":"Point"}}
{"type":"Feature","properties":{"business_id":"2nbhKicoKOVW1LMSynQ8sg","name":"Petinos","categories":"Diners, Breakfast & Brunch, Restaurants","state":"QC","city":"Saint-Jérôme","review_count":10,"rank":2,"stars":4.5},"geometry":{"coordinates":[-74.0195674865,45.7590744782],"type":"Point"}}
{"type":"Feature","properties":{"business_id":"_BaA052qAWqhKbCQ4s-_8A","name":"La Conquistadora","categories":"Mexican, Restaurants","state":"QC","city":"Saint-Jérôme","review_count":10,"rank":2,"stars":3.5},"geometry":{"coordinates":[-74.0016514,45.7826093],"type":"Point"}}
{"type":"Feature","properties":{"business_id":"gf0WBH8x_OtA1kg0UmJxTA","name":"Brouepub - Dieu du Ciel!","categories":"Bars, Breweries, Pubs, Nightlife, Food","state":"QC","city":"Saint-Jérôme","review_count":10,"rank":2,"stars":4.5},"geometry":{"coordinates":[-74.0019517636,45.7758282136],"type":"Point"}}
{"type":"Feature","properties":{"business_id":"cjOTiM029haRXhfUAZrZ7A","name":"Bidon Taverne Culinaire","categories":"Gastropubs, Comfort Food, Restaurants, Canadian (New)","state":"QC","city":"Saint-Lambert","review_count":16,"rank":1,"stars":4.0},"geometry":{"coordinates":[-73.5132517953,45.5029087223],"type":"Point"}}
{"type":"Feature","properties":{"business_id":"fnjtPfoYKASJyamx_7mNqw","name":"Restaurant Shoji","categories":"Restaurants, Sushi Bars","state":"QC","city":"Saint-Lambert","review_count":16,"rank":1,"stars":4.0},"geometry":{"coordinates":[-73.4762194,45.4774574],"type":"Point"}}
{"type":"Feature","properties":{"business_id":"UqEOeX-h_X7-NhdhJ-ZyvA","name":"Moghel Tandoori","categories":"Restaurants, Indian, Vegetarian","state":"QC","city":"Saint-Lambert","review_count":15,"rank":3,"stars":4.0},"geometry":{"coordinates":[-73.5104808,45.501282],"type":"Point"}}
{"type":"Feature","properties":{"business_id":"0Zu6KcjFJjBpCOjiOa2HvQ","name":"Eat Fit Go Scottsdale","categories":"Vegetarian, Food Stands, Restaurants, Food, Do-It-Yourself Food, Breakfast & Brunch, Health Markets, Vegan, Specialty Food","state":"AZ","city":"Schottsdale","review_count":11,"rank":1,"stars":3.0},"geometry":{"coordinates":[-111.92794,33.50185],"type":"Point"}}
{"type":"Feature","properties":{"business_id":"JvHv4HDT7sU7rMYyDzJuMQ","name":"Beverly on Main","categories":"Bars, Nightlife, Cocktail Bars, Restaurants, American (New)","state":"AZ","city":"Scottdale","review_count":201,"rank":1,"stars":4.0},"geometry":{"coordinates":[-111.929765,33.4932189],"type":"Point"}}
{"type":"Feature","properties":{"business_id":"3l54GTr8-E3XPbIxnF_sAA","name":"Rehab Burger Therapy","categories":"Nightlife, Sandwiches, Restaurants, American (New), Bars, Burgers, Cafes","state":"AZ","city":"Scottsdale","review_count":2369,"rank":1,"stars":4.5},"geometry":{"coordinates":[-111.925627,33.4915029708],"type":"Point"}}
{"type":"Feature","properties":{"business_id":"Yl05MqCs9xRzrJFkGWLpgA","name":"Hash Kitchen","categories":"Sandwiches, American (Traditional), American (New), Nightlife, Bars, Restaurants, Breakfast & Brunch","state":"AZ","city":"Scottsdale","review_count":2314,"rank":2,"stars":4.5},"geometry":{"coordinates":[-111.92556,33.565182],"type":"Point"}}
{"type":"Feature","properties":{"business_id":"K-uQkfSUTwu5LIwPB4b_vg","name":"The Mission Old Town","categories":"Restaurants, Latin American, Nightlife, Mexican, Bars","state":"AZ","city":"Scottsdale","review_count":2190,"rank":3,"stars":4.0},"geometry":{"coordinates":[-111.924273,33.492287],"type":"Point"}}
{"type":"Feature","properties":{"business_id":"ekdXu37aegXyIE2OhP2fQw","name":"Shugrues Hillside Grill","categories":"Seafood, Restaurants, American (New)","state":"AZ","city":"Sedona","review_count":97,"rank":1,"stars":3.5},"geometry":{"coordinates":[-111.683985,33.494121],"type":"Point"}}
{"type":"Feature","properties":{"business_id":"SBKBheDMuxbUHYSe0-q2Fw","name":"Costco","categories":"Eyewear & Opticians, Automotive, Tires, Shopping, Grocery, Food, Wholesale Stores, Department Stores, Fashion","state":"QC","city":"Lachenaie","review_count":6,"rank":1,"stars":3.5},"geometry":{"coordinates":[-73.5064786247,45.7217485082],"type":"Point"}}
{"type":"Feature","properties":{"business_id":"h2LsnxuYiJdJoGwKjRjHVg","name":"Grill San Antonio's","categories":"Restaurants","state":"QC","city":"Lachenaie","review_count":5,"rank":2,"stars":3.5},"geometry":{"coordinates":[-73.6229052,45.7190688],"type":"Point"}}
{"type":"Feature","properties":{"business_id":"MEhNmkFfYSnXd-TviF9mWg","name":"McDonald's","categories":"Fast Food, Restaurants, Burgers, Food, Coffee & Tea","state":"QC","city":"Lachenaie","review_count":3,"rank":3,"stars":3.0},"geometry":{"coordinates":[-73.508859336,45.7171447457],"type":"Point"}}
{"type":"Feature","properties":{"business_id":"ecrU8zgucYa_LDxgWLwXwg","name":"Houston Avenue Bar & Grill","categories":"Steakhouses, Restaurants, Nightlife, Bars","state":"QC","city":"Lachenaie","review_count":3,"rank":3,"stars":3.5},"geometry":{"coordinates":[-73.5096778381,45.7280753966],"type":"Point"}}
{"type":"Feature","properties":{"business_id":"Jjy8y9Gi7pcytQrzgAN_Fg","name":"Falafel St-Jacques","categories":"Restaurants, Sandwiches, Cafes, Vegetarian, Falafel, Mediterranean","state":"QC","city":"Lachine","review_count":77,"rank":1,"stars":4.5},"geometry":{"coordinates":[-73.6486742,45.4434472],"type":"Point"}}
{"type":"Feature","properties":{"business_id":"SsSfeftxVU-VfM2jkoIiCA","name":"El Meson","categories":"Latin American, Restaurants, Mexican","state":"QC","city":"Lachine","review_count":47,"rank":2,"stars":4.0},"geometry":{"coordinates":[-73.679468,45.4327],"type":"Point"}}
{"type":"Feature","properties":{"business_id":"JHKU_hQCrhD1pgpzG2DC7w","name":"Il Fornetto","categories":"Canadian (New), Restaurants, Italian","state":"QC","city":"Lachine","review_count":26,"rank":3,"stars":3.5},"geometry":{"coordinates":[-73.6817128,45.4332261],"type":"Point"}}
{"type":"Feature","properties":{"business_id":"gECTGhoToWi4PPxhSlJ40g","name":"Labelle","categories":"Restaurants, French, Burgers, Poutineries, Hot Dogs","state":"QC","city":"Lachute","review_count":9,"rank":1,"stars":4.5},"geometry":{"coordinates":[-74.3386937625,45.6559026381],"type":"Point"}}
{"type":"Feature","properties":{"business_id":"lfdVkfDjlajrWyFo485uig","name":"Resto Bar Top Shot","categories":"American (Traditional), Restaurants","state":"QC","city":"Lachute","review_count":8,"rank":2,"stars":3.5},"geometry":{"coordinates":[-74.3380412,45.6568576],"type":"Point"}}
{"type":"Feature","properties":{"business_id":"gSCedRzgZ_vn0jAkVXB_nw","name":"Restaurant Carole","categories":"Pizza, Restaurants","state":"QC","city":"Lachute","review_count":4,"rank":3,"stars":3.0},"geometry":{"coordinates":[-74.3353459,45.6566233],"type":"Point"}}
{"type":"Feature","properties":{"business_id":"kpjkIJl4LIUy-ba_jzLKEA","name":"Harvey's","categories":"Burgers, Restaurants, American (Traditional), Fast Food","state":"QC","city":"St. Léonard","review_count":5,"rank":1,"stars":3.5},"geometry":{"coordinates":[-73.5904203,45.5681833],"type":"Point"}}
{"type":"Feature","properties":{"business_id":"SziKeeIpR7MdSO9grK4pxg","name":"Scenario","categories":"Dance Clubs, Nightlife","state":"PA","city":"St.Pittsburgh","review_count":9,"rank":1,"stars":2.0},"geometry":{"coordinates":[-79.98819,40.42891],"type":"Point"}}
{"type":"Feature","properties":{"business_id":"U2a9GUewP6LyOilaQhue9g","name":"Rock Store Bar-B-Q","categories":"Restaurants, Barbeque","state":"NC","city":"Stallings","review_count":126,"rank":1,"stars":4.5},"geometry":{"coordinates":[-80.6925926,35.0819793],"type":"Point"}}
{"type":"Feature","properties":{"business_id":"ybi4IdU4Cu2zgPJ1YVM44g","name":"New Asia Market","categories":"Specialty Food, Food, Grocery, Seafood Markets, Bakeries, Restaurants","state":"NC","city":"Stallings","review_count":123,"rank":2,"stars":4.0},"geometry":{"coordinates":[-80.6983415,35.0853027],"type":"Point"}}
{"type":"Feature","properties":{"business_id":"m5Rlap-pE7f2kNMhCJJbSw","name":"Lucy's Bake & Deli","categories":"Ethnic Food, Food, Specialty Food, Sandwiches, Bakeries, Colombian, Restaurants, Latin American, Venezuelan","state":"NC","city":"Stallings","review_count":75,"rank":3,"stars":5.0},"geometry":{"coordinates":[-80.6968826411,35.0841220633],"type":"Point"}}
{"type":"Feature","properties":{"business_id":"Pcij9Zvllmj-oge8N-uSzg","name":"The Woodshed Restaurant","categories":"Steakhouses, American (New), American (Traditional), Restaurants","state":"NC","city":"Stanley","review_count":39,"rank":1,"stars":3.0},"geometry":{"coordinates":[-81.095126,35.358043],"type":"Point"}}
{"type":"Feature","properties":{"business_id":"2Ry7PhEAy7nDZyZCBYmJ2A","name":"Wendy's","categories":"Fast Food, Burgers, Restaurants","state":"NC","city":"Stanley","review_count":15,"rank":2,"stars":1.5},"geometry":{"coordinates":[-81.091854,35.355244],"type":"Point"}}
{"type":"Feature","properties":{"business_id":"rHahPokF4Ne2yaI4lNKxPQ","name":"Pete's Grill On Main Street","categories":"American (Traditional), Diners, Sandwiches, Restaurants, Seafood","state":"NC","city":"Stanley","review_count":11,"rank":3,"stars":4.5},"geometry":{"coordinates":[-81.0954551779,35.3602619026],"type":"Point"}}
{"type":"Feature","properties":{"business_id":"8A4RPphTLzwwrwREE2IBeQ","name":"Bojangles","categories":"Fast Food, Restaurants","state":"NC","city":"Stanley","review_count":11,"rank":3,"stars":2.0},"geometry":{"coordinates":[-81.088406,35.351666],"type":"Point"}}
{"type":"Feature","properties":{"business_id":"EC_Ha8AqzgrOD0xpxBpfZg","name":"McDonald's","categories":"Restaurants, Fast Food, Burgers, Coffee & Tea, Food","state":"QC","city":"Ste-Dorothée","review_count":3,"rank":1,"stars":2.5},"geometry":{"coordinates":[-73.7887377,45.5221539],"type":"Point"}}
{"type":"Feature","properties":{"business_id":"JoagV9ypJDBsNbPh4MYeFQ","name":"The Keg Steakhouse + Bar","categories":"Restaurants, Nightlife, American (Traditional), Seafood, Steakhouses, Bars","state":"QC","city":"Saint-Bruno-de-Montarville","review_count":6,"rank":1,"stars":4.0},"geometry":{"coordinates":[-73.3766217,45.5081787],"type":"Point"}}
{"type":"Feature","properties":{"business_id":"29CtKRT94k9ZGebLW2sgdA","name":"Pizzeria N° 900","categories":"Pizza, Restaurants","state":"QC","city":"Saint-Bruno-de-Montarville","review_count":6,"rank":1,"stars":2.5},"geometry":{"coordinates":[-73.3765918,45.5055673],"type":"Point"}}
{"type":"Feature","properties":{"business_id":"WZSp2VPtwZQGDEGDZ4kAcA","name":"Sakura Sushi Express","categories":"Japanese, Restaurants","state":"QC","city":"Saint-Bruno-de-Montarville","review_count":5,"rank":3,"stars":3.5},"geometry":{"coordinates":[-73.3447245,45.526236],"type":"Point"}}
{"type":"Feature","properties":{"business_id":"sspsxrIitJYjLjnFfhE9Lg","name":"Bistro Louis-XIV aurait aimé","categories":"Restaurants, Modern European, French","state":"QC","city":"Saint-Bruno-de-Montarville","review_count":5,"rank":3,"stars":4.5},"geometry":{"coordinates":[-73.3401669,45.526249],"type":"Point"}}
{"type":"Feature","properties":{"business_id":"t23jdrNUOjVa7WMxdSbHMA","name":"Restaurant La Porte Grecque Enr","categories":"Restaurants","state":"QC","city":"Saint-Charles-Borromee","review_count":4,"rank":1,"stars":4.0},"geometry":{"coordinates":[-73.490804,46.0670069],"type":"Point"}}
{"type":"Feature","properties":{"business_id":"uR4C32uW2TLFQ8AObtqGvg","name":"Henri","categories":"Burgers, Restaurants, Caterers, Event Planning & Services, Fast Food, Breakfast & Brunch, Canadian (New), Poutineries","state":"QC","city":"Saint-Charles-Borromée","review_count":4,"rank":1,"stars":3.0},"geometry":{"coordinates":[-73.44393,46.038431],"type":"Point"}}
{"type":"Feature","properties":{"business_id":"Hh82AyRx57ul7xQY9kWKug","name":"La Carcasse","categories":"Steakhouses, Restaurants","state":"QC","city":"Saint-Constant","review_count":7,"rank":1,"stars":4.0},"geometry":{"coordinates":[-73.572329,45.362834],"type":"Point"}}
{"type":"Feature","properties":{"business_id":"3giY1KOkF0s0AVRTbrm8KA","name":"Madisons Restaurant & Bar","categories":"Burgers, Canadian (New), Steakhouses, Restaurants","state":"QC","city":"Saint-Constant","review_count":6,"rank":2,"stars":4.5},"geometry":{"coordinates":[-73.5861187,45.3931857],"type":"Point"}}
{"type":"Feature","properties":{"business_id":"_yTSTw-agc-EPQu2_6NH9g","name":"Restaurant Pappas Souvlaki","categories":"Restaurants, Lebanese, Greek, Middle Eastern, Canadian (New)","state":"QC","city":"Saint-Constant","review_count":5,"rank":3,"stars":3.0},"geometry":{"coordinates":[-73.57851,45.39207],"type":"Point"}}
{"type":"Feature","properties":{"business_id":"7M9SgyvBitRucGbRU06Enw","name":"Cabane à Sucre Constantin Grégoire","categories":"Canadian (New), Food, Grocery, Restaurants","state":"QC","city":"Saint-Esprit","review_count":3,"rank":1,"stars":1.5},"geometry":{"coordinates":[-73.6638668,45.922029],"type":"Point"}}
{"type":"Feature","properties":{"business_id":"1cEtxHqi2aYNmu949sK6Gg","name":"House of 1000 Beers","categories":"Nightlife, Pubs, Bars, Food, Burgers, Restaurants, Beer, Wine & Spirits","state":"PA","city":"New Kensington","review_count":91,"rank":1,"stars":4.0},"geometry":{"coordinates":[-79.7603284,40.5560183],"type":"Point"}}
{"type":"Feature","properties":{"business_id":"YbsnQgu_3OmNYsCMXegeHw","name":"Rey Azteca","categories":"Mexican, Restaurants, Food, Tex-Mex, Desserts","state":"PA","city":"New Kensington","review_count":82,"rank":2,"stars":4.0},"geometry":{"coordinates":[-79.7496085,40.5903445],"type":"Point"}}
{"type":"Feature","properties":{"business_id":"6b5RLz7szHcSTGKjvKWR_w","name":"Buffalo Bill's Roadhouse","categories":"Restaurants, Chicken Wings, Barbeque","state":"PA","city":"New Kensington","review_count":41,"rank":3,"stars":4.0},"geometry":{"coordinates":[-79.7538585,40.5864888],"type":"Point"}}
{"type":"Feature","properties":{"business_id":"Fsyx7UqZgt_0d3DlP_XD6w","name":"Il Mondo Pizza & Restaurant","categories":"Restaurants, Pizza, Italian","state":"ON","city":"New Tecumseth","review_count":3,"rank":1,"stars":2.5},"geometry":{"coordinates":[-79.6793531009,44.0121427736],"type":"Point"}}
{"type":"Feature","properties":{"business_id":"Dr-K3bXCtbNAAbiKAde3Sg","name":"Mangia Mangia","categories":"Restaurants, Pizza, Italian, Seafood","state":"OH","city":"Newbury","review_count":67,"rank":1,"stars":4.0},"geometry":{"coordinates":[-81.24416,41.463078],"type":"Point"}}
{"type":"Feature","properties":{"business_id":"3YyG6npW4_PbreY6lGwmYg","name":"Zeppe's Tavern & Pizzeria","categories":"Gastropubs, Chicken Wings, Food, Caterers, Desserts, Restaurants, Italian, Pizza, Event Planning & Services, Nightlife, Bars, Wraps, Burgers","state":"OH","city":"Newbury","review_count":46,"rank":2,"stars":3.0},"geometry":{"coordinates":[-81.2422262804,41.46384109],"type":"Point"}}
{"type":"Feature","properties":{"business_id":"tHOrfC-hwr6DcUJPfc8q8Q","name":"Punderson Manor Resort & Conference Center","categories":"Restaurants, Active Life, Hotels, Golf, Event Planning & Services, Hotels & Travel","state":"OH","city":"Newbury","review_count":18,"rank":3,"stars":2.5},"geometry":{"coordinates":[-81.207529,41.451058],"type":"Point"}}
{"type":"Feature","properties":{"business_id":"6lnX59aC-0u5PvXWJZBMCg","name":"DiBlasi's Bakery","categories":"Food, Bakeries","state":"OH","city":"Newbury Township","review_count":3,"rank":1,"stars":4.5},"geometry":{"coordinates":[-81.1944709,41.4687905],"type":"Point"}}
{"type":"Feature","properties":{"business_id":"TYkrdWi3SI-uMmGtV8kGjw","name":"Club Touriste Bar & Restaurant","categories":"Restaurants, Lounges, Event Planning & Services, Canadian (New), Nightlife, Bars, Venues & Event Spaces","state":"QC","city":"Salaberry-De-Valleyfield","review_count":5,"rank":1,"stars":4.0},"geometry":{"coordinates":[-74.1243297,45.256505],"type":"Point"}}
{"type":"Feature","properties":{"business_id":"lRzn1gNanYAX3I2gXaja3A","name":"Restaurant La Nouvelle-Orleans","categories":"Restaurants, Cajun/Creole","state":"QC","city":"Salaberry-De-Valleyfield","review_count":5,"rank":1,"stars":4.0},"geometry":{"coordinates":[-74.1339378,45.2532702],"type":"Point"}}
{"type":"Feature","properties":{"business_id":"6P8KUfiYyfsRM-HFS6uvYQ","name":"Restaurant Le Bidon Enrg","categories":"Restaurants","state":"QC","city":"Salaberry-De-Valleyfield","review_count":3,"rank":3,"stars":4.0},"geometry":{"coordinates":[-74.1283261,45.2452404],"type":"Point"}}
{"type":"Feature","properties":{"business_id":"K4UwwxYCAh23TDKhtrVRHA","name":"El Tio Luis","categories":"Mexican, Restaurants","state":"QC","city":"Salaberry-de-Valleyfield","review_count":7,"rank":1,"stars":4.5},"geometry":{"coordinates":[-74.1354642436,45.2536156633],"type":"Point"}}
{"type":"Feature","properties":{"business_id":"zRXUGT5HLSjCVqBeMQHpsQ","name":"Onze 14 Bistro Urbain","categories":"Restaurants, Canadian (New), Seafood","state":"QC","city":"Salaberry-de-Valleyfield","review_count":3,"rank":2,"stars":3.0},"geometry":{"coordinates":[-74.1486622,45.2853329],"type":"Point"}}
{"type":"Feature","properties":{"business_id":"pp7XScHhSmEHc5k2EsLLcw","name":"Pizza Hut","categories":"Italian, Restaurants, Chicken Wings, Pizza","state":"OR","city":"Salem","review_count":9,"rank":1,"stars":2.5},"geometry":{"coordinates":[-123.0489077657,44.9474844502],"type":"Point"}}
{"type":"Feature","properties":{"business_id":"neHvFz_Q2thklke5wJ7LiQ","name":"Pizza Hut","categories":"Restaurants, Pizza, Italian, Chicken Wings","state":"NV","city":"San Antonio","review_count":34,"rank":1,"stars":2.5},"geometry":{"coordinates":[-114.964666,36.0121568548],"type":"Point"}}
{"type":"Feature","properties":{"business_id":"cN5eSMq7fLoC1QvXVpinjA","name":"Poplar Ridge Farm","categories":"Local Flavor, Food, Food Delivery Services, Farmers Market","state":"NC","city":"Sandy Ridge","review_count":4,"rank":1,"stars":3.5},"geometry":{"coordinates":[-80.8020473,34.9675235],"type":"Point"}}
{"type":"Feature","properties":{"business_id":"CFGlcwlg-l-tIuJ_F58AxA","name":"Dorf Haus Supper Club","categories":"German, American (Traditional), American (New), Restaurants, Nightlife, Bars","state":"WI","city":"Sauk City","review_count":56,"rank":1,"stars":4.0},"geometry":{"coordinates":[-89.6766989,43.2492019],"type":"Point"}}
{"type":"Feature","properties":{"business_id":"efxnaXEAWCeB1S-fv_Ri0Q","name":"Roxbury Bar & Grill","categories":"Nightlife, Pubs, Bars, American (Traditional), Restaurants","state":"WI","city":"Sauk City","review_count":25,"rank":2,"stars":3.0},"geometry":{"coordinates":[-89.6753397,43.2493114],"type":"Point"}}
{"type":"Feature","properties":{"business_id":"zQSGL8yhL4e8q4uMv6yv6Q","name":"Nashville North","categories":"Nightlife, Bars","state":"ON","city":"Norval","review_count":7,"rank":1,"stars":2.5},"geometry":{"coordinates":[-79.8575043,43.6469984],"type":"Point"}}
{"type":"Feature","properties":{"business_id":"TNN1eMxpSahxlxBgW1JW4A","name":"Verger Labonte","categories":"Food, Specialty Food, Fruits & Veggies","state":"QC","city":"Notre-Dame-De-L'ile-Perrot","review_count":6,"rank":1,"stars":2.5},"geometry":{"coordinates":[-73.90646,45.352407],"type":"Point"}}
{"type":"Feature","properties":{"business_id":"0uRtJUdZZw9XjHjgqLG3bQ","name":"La Ferme Quinn","categories":"Farms, Arts & Entertainment, Farmers Market, Food, Specialty Food, Fruits & Veggies","state":"QC","city":"Notre-Dame-de-l'Ile-Perrot","review_count":20,"rank":1,"stars":4.0},"geometry":{"coordinates":[-73.9240823,45.3581219],"type":"Point"}}
{"type":"Feature","properties":{"business_id":"8VkQczMIBUoaOgrTMOxAfA","name":"Wiegands Lake Park","categories":"Active Life, Food, Venues & Event Spaces, Parks, Event Planning & Services","state":"OH","city":"Novelty","review_count":4,"rank":1,"stars":5.0},"geometry":{"coordinates":[-81.3076914,41.4629845],"type":"Point"}}
{"type":"Feature","properties":{"business_id":"kJ9S7SbvAozwFR4qsTDOKw","name":"Fromagerie Kaiser","categories":"Specialty Food, Food, Cheese Shops","state":"QC","city":"Noyan","review_count":7,"rank":1,"stars":5.0},"geometry":{"coordinates":[-73.2811739,45.0338243],"type":"Point"}}
{"type":"Feature","properties":{"business_id":"GD9mTnCht2bog2yb0gH9Bg","name":"Rest-Ô-Vieux Poêle","categories":"Canadian (New), Restaurants, Pizza, Fish & Chips, British, Seafood, Breakfast & Brunch","state":"QC","city":"Noyan","review_count":5,"rank":2,"stars":4.5},"geometry":{"coordinates":[-73.31762,45.063744],"type":"Point"}}
{"type":"Feature","properties":{"business_id":"aNfwMyij9TFl0wY2PH8JpQ","name":"Mediterranean & Persian Kabob House","categories":"Afghan, Persian/Iranian, Mediterranean, Restaurants","state":"ON","city":"Oak Ridges","review_count":9,"rank":1,"stars":3.0},"geometry":{"coordinates":[-79.4597531,43.9427466],"type":"Point"}}
{"type":"Feature","properties":{"business_id":"3b2R0n1lyUSBB-itvB8Caw","name":"Cafe Chocolade","categories":"Restaurants, Gluten-Free, Bakeries, Food","state":"PA","city":"Oakdale","review_count":72,"rank":1,"stars":4.5},"geometry":{"coordinates":[-80.176414,40.443294],"type":"Point"}}
{"type":"Feature","properties":{"business_id":"hQMx2ZbGAa_oxJNpnTZf8Q","name":"The Diner","categories":"Diners, Pizza, Restaurants, Breakfast & Brunch, Food, Chinese, Bakeries","state":"PA","city":"Oakdale","review_count":61,"rank":2,"stars":3.5},"geometry":{"coordinates":[-80.1862539,40.3984122],"type":"Point"}}
{"type":"Feature","properties":{"business_id":"Y-c1m8-0Sa0xnYpm_bRxWw","name":"Pepperoncinis","categories":"Pizza, Restaurants, Food, Coffee & Tea, Nightlife, Bars","state":"PA","city":"Oakdale","review_count":45,"rank":3,"stars":3.5},"geometry":{"coordinates":[-80.1833653,40.3969092],"type":"Point"}}
{"type":"Feature","properties":{"business_id":"8qNOI6Q1-rJrvWWD5Btz6w","name":"Luciano's Italian Brick Oven","categories":"Italian, Pizza, Restaurants","state":"PA","city":"White Oak","review_count":67,"rank":1,"stars":3.0},"geometry":{"coordinates":[-79.8117608,40.3336125],"type":"Point"}}
{"type":"Feature","properties":{"business_id":"gITBefKO65DKNcCFQp424A","name":"Rockaway Pizzeria","categories":"Restaurants, Pizza","state":"PA","city":"White Oak","review_count":45,"rank":2,"stars":4.5},"geometry":{"coordinates":[-79.8111016616,40.3401983957],"type":"Point"}}
{"type":"Feature","properties":{"business_id":"WPlanDoQbwZGEB2CmjAU8A","name":"Rodos Greek Cafe","categories":"Greek, Restaurants","state":"PA","city":"White Oak","review_count":38,"rank":3,"stars":4.0},"geometry":{"coordinates":[-79.8171332,40.3487066],"type":"Point"}}
{"type":"Feature","properties":{"business_id":"PgJLbJaCOqFXfh3OHsMPpA","name":"Eggsmart","categories":"American (Traditional), Restaurants, Breakfast & Brunch, Burgers","state":"ON","city":"Whtiby","review_count":6,"rank":1,"stars":4.5},"geometry":{"coordinates":[-78.94528,43.859831],"type":"Point"}}
{"type":"Feature","properties":{"business_id":"i55cm4i5C7fSCVONIQ8DRg","name":"New Wong's Chinese Restaurant","categories":"Restaurants, Chinese","state":"OH","city":"Wickliffe","review_count":49,"rank":1,"stars":4.0},"geometry":{"coordinates":[-81.4609137,41.615892],"type":"Point"}}
{"type":"Feature","properties":{"business_id":"REpzt-rroVxjf6IuqQsZ0A","name":"Sweetberry Fresh Market","categories":"Food, Grocery","state":"OH","city":"Wickliffe","review_count":49,"rank":1,"stars":4.5},"geometry":{"coordinates":[-81.4635772705,41.6138648987],"type":"Point"}}
{"type":"Feature","properties":{"business_id":"OaTxqC5UZ-r83Tm1fcAQVg","name":"The Greek House Grille","categories":"American (Traditional), Comfort Food, Restaurants, Greek","state":"OH","city":"Wickliffe","review_count":48,"rank":3,"stars":4.0},"geometry":{"coordinates":[-81.4739441872,41.6066385853],"type":"Point"}}
{"type":"Feature","properties":{"business_id":"Qf83EYNJAXjnM2V-BnZHrQ","name":"Hooters","categories":"Nightlife, Bars, Chicken Wings, American (Traditional), Restaurants, Sports Bars","state":"PA","city":"Wilkens Township","review_count":3,"rank":1,"stars":2.0},"geometry":{"coordinates":[-79.8081071,40.4300158],"type":"Point"}}
{"type":"Feature","properties":{"business_id":"xT_xzBj-CmxdXdcx6ONGLA","name":"Phoenix Resto Pub","categories":"Restaurants, Nightlife, Burgers, Bars, Pizza, Pubs","state":"QC","city":"Sainte-Julie","review_count":7,"rank":1,"stars":4.0},"geometry":{"coordinates":[-73.330855,45.577027],"type":"Point"}}
{"type":"Feature","properties":{"business_id":"jPRkGwTUdiBhAomL7FH_xA","name":"Rôtisserie St-Hubert","categories":"Chicken Shop, French, Restaurants, Couriers & Delivery Services, Local Services, Barbeque, Chicken Wings","state":"QC","city":"Sainte-Julie","review_count":7,"rank":1,"stars":3.5},"geometry":{"coordinates":[-73.3318807,45.5770534],"type":"Point"}}
{"type":"Feature","properties":{"business_id":"-1CI4H3DLkI-NdWLbIae6g","name":"Benny&Co.","categories":"Chicken Shop, Fast Food, Chicken Wings, Poutineries, Barbeque, Restaurants","state":"QC","city":"Sainte-Julie","review_count":5,"rank":3,"stars":3.5},"geometry":{"coordinates":[-73.328194432,45.5762338484],"type":"Point"}}
{"type":"Feature","properties":{"business_id":"qBbzhDrRWE9es1d3fwVeag","name":"Pacini","categories":"Restaurants, Italian","state":"QC","city":"Sainte-Julie","review_count":5,"rank":3,"stars":2.5},"geometry":{"coordinates":[-73.3328657,45.575774],"type":"Point"}}
{"type":"Feature","properties":{"business_id":"ADKS5fWw0_X-kAyxOYd19Q","name":"Cantine Bernard","categories":"Hot Dogs, Restaurants, Burgers, Poutineries","state":"QC","city":"Sainte-Madeleine","review_count":4,"rank":1,"stars":4.0},"geometry":{"coordinates":[-73.087464,45.5966363],"type":"Point"}}
{"type":"Feature","properties":{"business_id":"im98gAIpHi55l9s-TtTgmQ","name":"Bistro A Champlain","categories":"French, Restaurants","state":"QC","city":"Sainte-Marguerite-Esterel","review_count":4,"rank":1,"stars":3.0},"geometry":{"coordinates":[-74.056695,46.0312971],"type":"Point"}}
{"type":"Feature","properties":{"business_id":"qluRIVvPloPoe2pDCO9X_g","name":"Café O'Marguerites","categories":"Restaurants, Food, Organic Stores, Cafes, Bistros","state":"QC","city":"Sainte-Marguerite-du-Lac-Masson","review_count":5,"rank":1,"stars":3.5},"geometry":{"coordinates":[-74.057444,46.031047],"type":"Point"}}
{"type":"Feature","properties":{"business_id":"99_GlxFriPT_DzoVFGu7EA","name":"Le Viking Restaurant & Bar","categories":"Shopping, Sporting Goods, Restaurants, Italian, Steakhouses","state":"QC","city":"Sainte-Marguerite-du-lac-Masson","review_count":4,"rank":1,"stars":5.0},"geometry":{"coordinates":[-74.0547415,46.0312391],"type":"Point"}}
{"type":"Feature","properties":{"business_id":"572wY6ywuOWQhSxtb6Zl2w","name":"Auberge des Gallant","categories":"Event Planning & Services, Day Spas, Hotels, Hotels & Travel, Beauty & Spas, Venues & Event Spaces, French, Restaurants","state":"QC","city":"Sainte-Marthe","review_count":5,"rank":1,"stars":5.0},"geometry":{"coordinates":[-74.33429,45.428869],"type":"Point"}}
{"type":"Feature","properties":{"business_id":"3y6ZjuRmK1Jh6_VwBh8VDQ","name":"Menards","categories":"Home & Garden, Food, Home Services, Shopping, Appliances, Building Supplies, Grocery","state":"MO","city":"Springfield","review_count":5,"rank":1,"stars":2.5},"geometry":{"coordinates":[-115.095079,36.070999],"type":"Point"}}
{"type":"Feature","properties":{"business_id":"yKJCTTGgUr8IHyQDk6NKfA","name":"Basha 21","categories":"Middle Eastern, Restaurants","state":"PA","city":"Squirrel Hill","review_count":20,"rank":1,"stars":4.5},"geometry":{"coordinates":[-79.9227545239,40.4363881393],"type":"Point"}}
{"type":"Feature","properties":{"business_id":"bYscwOmCux0HRXF9nJ4qBQ","name":"The Wheelhouse","categories":"American (New), Bars, Restaurants, Nightlife, Breakfast & Brunch, Cocktail Bars","state":"IL","city":"St Joseph","review_count":53,"rank":1,"stars":4.5},"geometry":{"coordinates":[-88.0423837,40.111951],"type":"Point"}}
{"type":"Feature","properties":{"business_id":"TKSK9M9xJ3edkh6N9LgHwA","name":"Yoko Sushi Lounge","categories":"Restaurants, Sushi Bars","state":"QC","city":"St Leonard","review_count":17,"rank":1,"stars":3.5},"geometry":{"coordinates":[-73.584299,45.575653],"type":"Point"}}
{"type":"Feature","properties":{"business_id":"NKaL3KL6VwitfEiz1kYXTQ","name":"Sushi Ryori","categories":"Chinese, Japanese, Restaurants","state":"QC","city":"St Leonard","review_count":3,"rank":2,"stars":3.5},"geometry":{"coordinates":[-73.5969507694,45.5774213154],"type":"Point"}}
{"type":"Feature","properties":{"business_id":"PkNVYBczFG4RsRM6w7hQHA","name":"La Belle & la Boeuf","categories":"Comfort Food, Poutineries, Restaurants, Burgers","state":"QC","city":"St-Bruno-de-Montarville","review_count":17,"rank":1,"stars":4.0},"geometry":{"coordinates":[-73.3768551455,45.5057439582],"type":"Point"}}
{"type":"Feature","properties":{"business_id":"25eFMLlnsrZVLoKkqpjpCg","name":"Koryo","categories":"Korean, Restaurants","state":"QC","city":"St-Bruno-de-Montarville","review_count":3,"rank":2,"stars":3.5},"geometry":{"coordinates":[-73.3784456179,45.5052230205],"type":"Point"}}
{"type":"Feature","properties":{"business_id":"DsHEbDuM4lxYb2js8WfVLQ","name":"Restaurant st Clet Grill","categories":"Restaurants, Pizza","state":"QC","city":"St-Clet","review_count":3,"rank":1,"stars":3.0},"geometry":{"coordinates":[-74.2428734,45.3877312],"type":"Point"}}
{"type":"Feature","properties":{"business_id":"o9LmT9Ug5epu-vASWYKHbg","name":"Harvey's","categories":"Restaurants, Burgers, Fast Food, American (Traditional)","state":"QC","city":"St-Jean Sur Richelieu","review_count":3,"rank":1,"stars":3.5},"geometry":{"coordinates":[-73.2918113,45.3334219],"type":"Point"}}
{"type":"Feature","properties":{"business_id":"qgOYLIfw4-xB1CePD7APkA","name":"White Castle","categories":"Burgers, Fast Food, Restaurants","state":"OH","city":"Bedford Hts.","review_count":7,"rank":1,"stars":3.5},"geometry":{"coordinates":[-81.5268589,41.4216173],"type":"Point"}}
{"type":"Feature","properties":{"business_id":"x5lg0hP_Q40pWPHOo8-rRw","name":"The Sushi Chef","categories":"Restaurants, Sushi Bars","state":"ON","city":"Beeton","review_count":12,"rank":1,"stars":4.5},"geometry":{"coordinates":[-79.7875069,44.0786893],"type":"Point"}}
{"type":"Feature","properties":{"business_id":"17eWYgtUf15qDUrk2FveRw","name":"New Orleans Pizza","categories":"Pizza, Restaurants","state":"ON","city":"Beeton","review_count":5,"rank":2,"stars":4.5},"geometry":{"coordinates":[-79.7807256,44.0805189],"type":"Point"}}
{"type":"Feature","properties":{"business_id":"4uRkdWFzH2S0yvapx7d4fw","name":"Miss Edgar's Muddy Water Tavern","categories":"Nightlife, Diners, Restaurants, Food","state":"ON","city":"Beeton","review_count":5,"rank":2,"stars":4.0},"geometry":{"coordinates":[-79.7849918,44.078632],"type":"Point"}}
{"type":"Feature","properties":{"business_id":"id_4VpPvd3zR0q_qhasUNQ","name":"Dunkin'","categories":"Sandwiches, Restaurants, Food, Donuts, Coffee & Tea","state":"PA","city":"Belle Vernon","review_count":10,"rank":1,"stars":1.5},"geometry":{"coordinates":[-79.8365451,40.2026518],"type":"Point"}}
{"type":"Feature","properties":{"business_id":"oNLRIASnaEPoazzMuyIT-A","name":"Eagles Landing","categories":"Salad, Restaurants, American (Traditional)","state":"PA","city":"Belle Vernon","review_count":7,"rank":2,"stars":3.5},"geometry":{"coordinates":[-79.8332351,40.2075085],"type":"Point"}}
{"type":"Feature","properties":{"business_id":"2_fqvnKSHvP_taWGlDynIQ","name":"Roadside Restaurant","categories":"American (Traditional), Diners, Restaurants","state":"PA","city":"Belle Vernon","review_count":6,"rank":3,"stars":3.0},"geometry":{"coordinates":[-79.8333042,40.2009959],"type":"Point"}}
{"type":"Feature","properties":{"business_id":"0I8kPMnD_EWzGsDU9TGPNg","name":"Paoli Local Foods","categories":"Cafes, Restaurants, Food, Grocery","state":"WI","city":"Belleville","review_count":16,"rank":1,"stars":3.5},"geometry":{"coordinates":[-89.5260672,42.9290011],"type":"Point"}}
{"type":"Feature","properties":{"business_id":"6oI37LjBo9uO2dd_CeniWg","name":"Paoli Pub & Grill","categories":"Bars, Pubs, Restaurants, American (Traditional), Nightlife","state":"WI","city":"Belleville","review_count":16,"rank":1,"stars":4.5},"geometry":{"coordinates":[-89.5259126,42.9291245],"type":"Point"}}
{"type":"Feature","properties":{"business_id":"7vf9ldE1dRYvFvu1kr1bOg","name":"Borland's Tavern","categories":"Restaurants, Fish & Chips","state":"WI","city":"Belleville","review_count":15,"rank":3,"stars":4.0},"geometry":{"coordinates":[-89.5359412,42.8599189],"type":"Point"}}
{"type":"Feature","properties":{"business_id":"1cmg0n8QiqaX6Jmudv-BQQ","name":"Fresh Fitness Kitchen","categories":"Event Planning & Services, Food Delivery Services, Caterers, Personal Chefs, Food","state":"AZ","city":"Verrado","review_count":28,"rank":1,"stars":5.0},"geometry":{"coordinates":[-112.5066293,33.4846579],"type":"Point"}}
{"type":"Feature","properties":{"business_id":"DLhAuWok29OU8VR-DBxP7A","name":"Monicals Pizza","categories":"Pizza, Restaurants","state":"IL","city":"Villa Grove","review_count":7,"rank":1,"stars":4.5},"geometry":{"coordinates":[-88.1607372,39.863273],"type":"Point"}}
{"type":"Feature","properties":{"business_id":"XqCBjmrmu8pNgADsKXo8vA","name":"Subway Restaurants","categories":"Restaurants, Sandwiches, Fast Food","state":"IL","city":"Villa Grove","review_count":3,"rank":2,"stars":2.5},"geometry":{"coordinates":[-88.160642,39.8627292],"type":"Point"}}
{"type":"Feature","properties":{"business_id":"v9QatIChmT_8sCMRY7iZ-A","name":"Copper Branch","categories":"Gluten-Free, Restaurants, Vegan, Vegetarian, Breakfast & Brunch","state":"QC","city":"Ville Mont-Royal","review_count":17,"rank":1,"stars":4.0},"geometry":{"coordinates":[-73.6625331268,45.5067531656],"type":"Point"}}
{"type":"Feature","properties":{"business_id":"xc1GcqRnHkJShPd7VK9wQQ","name":"St-Hubert Express","categories":"Canadian (New), Restaurants","state":"QC","city":"Ville-Marie","review_count":3,"rank":1,"stars":3.0},"geometry":{"coordinates":[-73.5629081726,45.5148879425],"type":"Point"}}
{"type":"Feature","properties":{"business_id":"evFO5My26OqNoy_O7j6cLg","name":"L'Oeufrier","categories":"Breakfast & Brunch, Restaurants","state":"QC","city":"Vimont","review_count":18,"rank":1,"stars":4.0},"geometry":{"coordinates":[-73.7061841,45.5822803],"type":"Point"}}
{"type":"Feature","properties":{"business_id":"wyVUtiV0hUQHpX1pvU4JfA","name":"Pizza Vimont","categories":"Restaurants, Pizza, Fast Food","state":"QC","city":"Vimont","review_count":18,"rank":1,"stars":4.0},"geometry":{"coordinates":[-73.7239753,45.5982208],"type":"Point"}}
{"type":"Feature","properties":{"business_id":"2ByeG6MPXp1OfhJt-f6-iw","name":"La Perle Vietnamienne","categories":"Restaurants, Vietnamese","state":"QC","city":"Vimont","review_count":10,"rank":3,"stars":3.0},"geometry":{"coordinates":[-73.732206,45.605876],"type":"Point"}}
{"type":"Feature","properties":{"business_id":"sEIYwtCebPe9QZJfEQ5Pdg","name":"Lowe's Home Improvement","categories":"Home Services, Grocery, Food, Lighting Fixtures & Equipment, Building Supplies, Home & Garden, Hardware Stores, Nurseries & Gardening, Shopping","state":"NV","city":"W Henderson","review_count":129,"rank":1,"stars":2.5},"geometry":{"coordinates":[-115.1179507,36.0074786],"type":"Point"}}
{"type":"Feature","properties":{"business_id":"lcLGfEoj0qPtEAa4qt8YHQ","name":"Beckham's B&M Bar-B-Que","categories":"Barbeque, Restaurants","state":"OH","city":"Oakwood","review_count":30,"rank":1,"stars":2.0},"geometry":{"coordinates":[-81.5098796,41.3661805],"type":"Point"}}
{"type":"Feature","properties":{"business_id":"Q-1rmWpYHi-vglQZppSeKQ","name":"McDonald's","categories":"Restaurants, Food, Burgers, Coffee & Tea, Fast Food","state":"OH","city":"Oakwood Village","review_count":16,"rank":1,"stars":1.5},"geometry":{"coordinates":[-81.510207653,41.3676995787],"type":"Point"}}
{"type":"Feature","properties":{"business_id":"zErATylMxXIzj2Yppt5k3g","name":"Sam's Club","categories":"Shopping, Eyewear & Opticians, Department Stores, Fashion, Grocery, Food, Wholesale Stores","state":"OH","city":"Oakwood Village","review_count":11,"rank":2,"stars":3.5},"geometry":{"coordinates":[-81.5126665,41.3662701],"type":"Point"}}
{"type":"Feature","properties":{"business_id":"XV9KK1vTTzrYLYxQPMuM9Q","name":"Wendy's","categories":"Fast Food, Burgers, Restaurants","state":"OH","city":"Oakwood Village","review_count":10,"rank":3,"stars":2.5},"geometry":{"coordinates":[-81.5138908441,41.3693203355],"type":"Point"}}
{"type":"Feature","properties":{"business_id":"TwAA2sFGAprWM4j-L4v5Og","name":"Johnny's Carry Out","categories":"Beer, Wine & Spirits, Food","state":"OH","city":"Oberlin","review_count":9,"rank":1,"stars":3.0},"geometry":{"coordinates":[-82.217206,41.309235],"type":"Point"}}
{"type":"Feature","properties":{"business_id":"V1xbBbDaZeMwWoFYLruYFg","name":"Pink Pig BBQ","categories":"Barbeque, Restaurants, Burgers, American (Traditional)","state":"IL","city":"Ogden","review_count":20,"rank":1,"stars":3.5},"geometry":{"coordinates":[-87.9590088889,40.1116454162],"type":"Point"}}
{"type":"Feature","properties":{"business_id":"RO8_riptsSLrFRNs08vObA","name":"Rich's Family Restaurant","categories":"Restaurants, American (New), Breakfast & Brunch","state":"IL","city":"Ogden","review_count":14,"rank":2,"stars":3.0},"geometry":{"coordinates":[-87.959619,40.116761],"type":"Point"}}
{"type":"Feature","properties":{"business_id":"haDgDTREZ_mVBAmhRYqxSA","name":"Billy Bob's","categories":"Restaurants, American (Traditional), Bars, Nightlife","state":"IL","city":"Ogden","review_count":10,"rank":3,"stars":3.5},"geometry":{"coordinates":[-87.95492,40.113028],"type":"Point"}}
{"type":"Feature","properties":{"business_id":"pIIvzkqj-b6ZS-vejo94fg","name":"Taverne de la Ferme","categories":"Bars, Nightlife, Pubs, Local Flavor, Restaurants, Burgers, Pizza","state":"QC","city":"Ormstown","review_count":4,"rank":1,"stars":5.0},"geometry":{"coordinates":[-73.993757,45.123985],"type":"Point"}}
{"type":"Feature","properties":{"business_id":"otDy7BRnv3Zvzl2s9ak0rg","name":"Casa Venezia","categories":"Restaurants, Pizza, Greek, Italian, Mediterranean","state":"QC","city":"Ormstown","review_count":3,"rank":2,"stars":4.5},"geometry":{"coordinates":[-73.9931891,45.1253008],"type":"Point"}}
{"type":"Feature","properties":{"business_id":"Hk0nKhhpUp3pSQIkkz2Pqg","name":"Express 57","categories":"American (Traditional), Restaurants, Poutineries, Diners, Pizza","state":"QC","city":"Ormstown","review_count":3,"rank":2,"stars":4.0},"geometry":{"coordinates":[-73.993621,45.125004],"type":"Point"}}
{"type":"Feature","properties":{"business_id":"vJ2esWrQ4CDyYJbrZ0JI2Q","name":"Le Riverain","categories":"Restaurants, Canadian (New)","state":"QC","city":"Ormstown","review_count":3,"rank":2,"stars":4.5},"geometry":{"coordinates":[-73.9936236,45.1240419],"type":"Point"}}
{"type":"Feature","properties":{"business_id":"VL5kkH-RQ9dx_wjvLk64yw","name":"Wok Box","categories":"Chinese, Restaurants, Japanese","state":"ON","city":"Oshawa","review_count":16,"rank":1,"stars":2.5},"geometry":{"coordinates":[-79.7170214578,43.4837976031],"type":"Point"}}
{"type":"Feature","properties":{"business_id":"UvNkZMS98qzvsGNjyZ-P9Q","name":"La Cabosse d'Or","categories":"Chocolatiers & Shops, Specialty Food, Food, Patisserie/Cake Shop, Tea Rooms","state":"QC","city":"Otterburn Park","review_count":4,"rank":1,"stars":4.0},"geometry":{"coordinates":[-73.19761,45.535501],"type":"Point"}}
{"type":"Feature","properties":{"business_id":"9mG2yOnHtxVPEM1p8FqycA","name":"La Croissanterie Figaro","categories":"Food, Cafes, French, Bakeries, Restaurants, Bistros","state":"QC","city":"Outremont","review_count":121,"rank":1,"stars":4.0},"geometry":{"coordinates":[-73.5986682,45.5193535],"type":"Point"}}
{"type":"Feature","properties":{"business_id":"CKC0-MOWMqoeWf6s-szl8g","name":"Lester's Deli","categories":"Caterers, Specialty Food, Delis, Restaurants, Event Planning & Services, Burgers, Sandwiches, Food","state":"QC","city":"Outremont","review_count":100,"rank":2,"stars":4.0},"geometry":{"coordinates":[-73.607076,45.522144],"type":"Point"}}
{"type":"Feature","properties":{"business_id":"FVY75lAgzS4BKFPnZ8oHeA","name":"Chez Lévêque","categories":"French, Restaurants","state":"QC","city":"Outremont","review_count":52,"rank":3,"stars":3.5},"geometry":{"coordinates":[-73.5966654,45.518312],"type":"Point"}}
{"type":"Feature","properties":{"business_id":"rl39sZ-Jx7QAG-FHsdAD5g","name":"Mansfield General Store","categories":"Restaurants, American (Traditional), Fashion, Department Stores, Ice Cream & Frozen Yogurt, Grocery, Shopping, Food","state":"IL","city":"Mansfield","review_count":3,"rank":1,"stars":4.5},"geometry":{"coordinates":[-88.5057385,40.2119444],"type":"Point"}}
{"type":"Feature","properties":{"business_id":"1y2T-ZolJf9piUleotBd-A","name":"Millers of Mantua","categories":"Restaurants, American (Traditional)","state":"OH","city":"Mantua","review_count":15,"rank":1,"stars":4.0},"geometry":{"coordinates":[-81.223671,41.2817859],"type":"Point"}}
{"type":"Feature","properties":{"business_id":"1cyDJImrTxQOVcCAQZqQkw","name":"Restoration 44 Coffee Company","categories":"Food, Coffee & Tea","state":"OH","city":"Mantua","review_count":15,"rank":1,"stars":4.5},"geometry":{"coordinates":[-81.224547,41.282145],"type":"Point"}}
{"type":"Feature","properties":{"business_id":"zKRLyE8FgTtzsp5zXU7G2Q","name":"McDonald's","categories":"Fast Food, Food, Coffee & Tea, Restaurants, Burgers","state":"OH","city":"Mantua","review_count":10,"rank":3,"stars":2.5},"geometry":{"coordinates":[-81.2248380482,41.2809862087],"type":"Point"}}
{"type":"Feature","properties":{"business_id":"JsVLvKCgI03tqyjy1B2d_g","name":"Cafe Landwer","categories":"Desserts, Cafes, Food, Restaurants, Diners, Coffee & Tea, Mediterranean, Breakfast & Brunch","state":"ON","city":"Maple","review_count":164,"rank":1,"stars":3.5},"geometry":{"coordinates":[-79.4599734,43.848944],"type":"Point"}}
{"type":"Feature","properties":{"business_id":"9uUfqLdfV-1BFAJQYEyEYA","name":"Sorelle & Co","categories":"Custom Cakes, Gluten-Free, Cafes, Bakeries, Restaurants, Food, Vegan","state":"ON","city":"Maple","review_count":121,"rank":2,"stars":3.5},"geometry":{"coordinates":[-79.4691350835,43.8457144395],"type":"Point"}}
{"type":"Feature","properties":{"business_id":"emOK5Q4d_KZsA76tT9pOug","name":"Big Bone BBQ & Wicked Wings","categories":"Barbeque, Chicken Wings, Restaurants, Southern","state":"ON","city":"Maple","review_count":71,"rank":3,"stars":4.0},"geometry":{"coordinates":[-79.5134886,43.8557521],"type":"Point"}}
{"type":"Feature","properties":{"business_id":"zZLv6HoiQYeh5j1YfH763Q","name":"Les Marmitons","categories":"Pizza, Restaurants","state":"QC","city":"Maple Grove","review_count":3,"rank":1,"stars":4.5},"geometry":{"coordinates":[-73.86208,45.316842],"type":"Point"}}
{"type":"Feature","properties":{"business_id":"fnyVBTHEhi3cN1H8FM9UcA","name":"Old Village Grill","categories":"Mediterranean, Greek, Restaurants","state":"PA","city":"Penn Hills","review_count":28,"rank":1,"stars":4.0},"geometry":{"coordinates":[-79.8151795914,40.4841701066],"type":"Point"}}
{"type":"Feature","properties":{"business_id":"wbVRLmGpJITCxDD20ceHWw","name":"Dunkin'","categories":"Food, Coffee & Tea, Donuts, Restaurants","state":"PA","city":"Penn Hills","review_count":21,"rank":2,"stars":2.0},"geometry":{"coordinates":[-79.8237651,40.4582641],"type":"Point"}}
{"type":"Feature","properties":{"business_id":"beb_QLcQySKwYFPyVu6eJw","name":"Pasquale's Pizzeria","categories":"Restaurants, Pizza, Italian","state":"PA","city":"Penn Hills","review_count":16,"rank":3,"stars":3.0},"geometry":{"coordinates":[-79.8158856,40.4846534],"type":"Point"}}
{"type":"Feature","properties":{"business_id":"jsn6GnjXtAhu9rrbf1MkLg","name":"Health-A-Licious","categories":"Soup, Food, Wraps, Food Trucks, Restaurants, Salad","state":"PA","city":"Penn Hills Township","review_count":6,"rank":1,"stars":3.5},"geometry":{"coordinates":[-79.8202362657,40.4729882325],"type":"Point"}}
{"type":"Feature","properties":{"business_id":"aWqFipSDRIt0Fbl5kW3rEg","name":"Good Cents","categories":"Shopping, Discount Store, Food, Grocery","state":"PA","city":"Pennsylvania","review_count":4,"rank":1,"stars":4.5},"geometry":{"coordinates":[-80.012514,40.53613],"type":"Point"}}
{"type":"Feature","properties":{"business_id":"X3ec1nuK2BmOULN4Kk3Fgw","name":"Haymaker Peoria","categories":"American (New), Bars, Breakfast & Brunch, Nightlife, Restaurants, American (Traditional), Burgers, Barbeque","state":"AZ","city":"Peoria","review_count":713,"rank":1,"stars":4.0},"geometry":{"coordinates":[-112.2731506,33.7086174],"type":"Point"}}
{"type":"Feature","properties":{"business_id":"ZKsVCA89iXMccf3fEhS3iw","name":"Angry Crab - Peoria","categories":"American (Traditional), Seafood, Cajun/Creole, Restaurants","state":"AZ","city":"Peoria","review_count":690,"rank":2,"stars":4.0},"geometry":{"coordinates":[-112.223317514,33.5966969185],"type":"Point"}}
{"type":"Feature","properties":{"business_id":"FYa3GUro-ezTM9zvKiocFw","name":"Greek Wraps","categories":"Restaurants, Mediterranean, Greek","state":"AZ","city":"Peoria","review_count":668,"rank":3,"stars":4.5},"geometry":{"coordinates":[-112.217436,33.637659],"type":"Point"}}
{"type":"Feature","properties":{"business_id":"CGHkIvt_99XHZ6Mc4RhSVQ","name":"Old Time Candy Company","categories":"Food","state":"OH","city":"LaGrange","review_count":10,"rank":1,"stars":2.5},"geometry":{"coordinates":[-82.1149564,41.2280828],"type":"Point"}}
{"type":"Feature","properties":{"business_id":"3dXx7CWqjYPX16WOlj1wEw","name":"The Bulldog Pub & Grille","categories":"Nightlife, Bars, Pubs, Restaurants, British, Gastropubs","state":"OH","city":"LaGrange","review_count":7,"rank":2,"stars":4.0},"geometry":{"coordinates":[-82.1190598,41.2370446],"type":"Point"}}
{"type":"Feature","properties":{"business_id":"EE3Vb9J7k7nK1ibQdFxGLQ","name":"The Nest","categories":"Restaurants, American (New)","state":"OH","city":"LaGrange","review_count":4,"rank":3,"stars":3.0},"geometry":{"coordinates":[-82.1022494,41.2512762],"type":"Point"}}
{"type":"Feature","properties":{"business_id":"GAHP12gC4IQspf1CsRY0cg","name":"The Depot At Union Station","categories":"Restaurants, American (Traditional), Burgers","state":"OH","city":"LaGrange","review_count":4,"rank":3,"stars":2.5},"geometry":{"coordinates":[-82.1191796,41.2482479],"type":"Point"}}
{"type":"Feature","properties":{"business_id":"6Zo6Xa09a3b3p5b5x51Z3A","name":"Viana","categories":"Portuguese, Restaurants","state":"QC","city":"LaSalle","review_count":27,"rank":1,"stars":4.5},"geometry":{"coordinates":[-73.6152847,45.4366637],"type":"Point"}}
{"type":"Feature","properties":{"business_id":"r-4QibHfGYJFzbFUtoCMNw","name":"Chez Ping","categories":"Dim Sum, Restaurants, Chinese","state":"QC","city":"LaSalle","review_count":14,"rank":2,"stars":3.0},"geometry":{"coordinates":[-73.6203256,45.4407172],"type":"Point"}}
{"type":"Feature","properties":{"business_id":"Qd-RnJXE9FQuT-VgabFomA","name":"Pho Tuong Lai","categories":"Thai, Vietnamese, Restaurants","state":"QC","city":"LaSalle","review_count":5,"rank":3,"stars":3.5},"geometry":{"coordinates":[-73.6273638,45.4265692],"type":"Point"}}
{"type":"Feature","properties":{"business_id":"fx9rYlk5ZKwdxy0NDJIE0w","name":"PFK","categories":"Fast Food, Restaurants, American (Traditional), Chicken Shop, Food, Food Delivery Services, Chicken Wings","state":"QC","city":"LaSalle","review_count":5,"rank":3,"stars":2.0},"geometry":{"coordinates":[-73.6251069,45.4316981],"type":"Point"}}
{"type":"Feature","properties":{"business_id":"1m1JtJ-qJAYO0_fjZ58YLQ","name":"TABOO Cuisine Rebelle","categories":"Poutineries, Restaurants, Nightlife, Lounges, Cocktail Bars, Dance Clubs, Bars, Burgers","state":"QC","city":"L'Assomption","review_count":4,"rank":1,"stars":3.5},"geometry":{"coordinates":[-73.4244339,45.8269303],"type":"Point"}}
{"type":"Feature","properties":{"business_id":"TnH-_cq-5XPMsHOsBEXspA","name":"Zen","categories":"Sushi Bars, Japanese, Restaurants, Asian Fusion","state":"QC","city":"L'Assomption","review_count":3,"rank":2,"stars":4.5},"geometry":{"coordinates":[-73.4249494291,45.8264710517],"type":"Point"}}
{"type":"Feature","properties":{"business_id":"vvdgeij0jeY9LbWh_aNiYw","name":"Bistro L'ange Cornu","categories":"French, Restaurants","state":"QC","city":"L'assomption","review_count":5,"rank":1,"stars":4.5},"geometry":{"coordinates":[-73.422702,45.828565],"type":"Point"}}
{"type":"Feature","properties":{"business_id":"-GkXrgdeRSn446BY8XrFYA","name":"Boulangerie De L'ile Bizard","categories":"Bakeries, Food","state":"QC","city":"L'ile-Bizard","review_count":3,"rank":1,"stars":5.0},"geometry":{"coordinates":[-73.8759129,45.4891584],"type":"Point"}}
{"type":"Feature","properties":{"business_id":"_nTj5559fsO0zFh_XQvGzw","name":"Mama Bravo","categories":"Restaurants, Pizza, Barbeque","state":"QC","city":"L'ile-Perrot","review_count":9,"rank":1,"stars":3.5},"geometry":{"coordinates":[-73.9661258127,45.3876618898],"type":"Point"}}
{"type":"Feature","properties":{"business_id":"I2jqzhNnV75V0dy24Clqng","name":"Le Balnéo","categories":"Restaurants, International, Bars, Italian, Canadian (New), Nightlife","state":"QC","city":"L'ile-Perrot","review_count":9,"rank":1,"stars":4.5},"geometry":{"coordinates":[-73.9627345227,45.3869603789],"type":"Point"}}
{"type":"Feature","properties":{"business_id":"lkXg4nzJ2pmZziYN7ETK8A","name":"Sushi Perrot","categories":"Restaurants, Sushi Bars","state":"QC","city":"L'ile-Perrot","review_count":4,"rank":3,"stars":4.0},"geometry":{"coordinates":[-73.9576383,45.3959716],"type":"Point"}}
{"type":"Feature","properties":{"business_id":"PnU8nAm0QrNHdx5khsV1mw","name":"Bistro 1843","categories":"Restaurants, French, Bistros, Cafes","state":"QC","city":"L'Île-Bizard","review_count":18,"rank":1,"stars":4.5},"geometry":{"coordinates":[-73.8756683,45.4885377],"type":"Point"}}
{"type":"Feature","properties":{"business_id":"oZPvLHuePy8u0H0xOmaGZQ","name":"Omelette & Cie","categories":"Breakfast & Brunch, Restaurants","state":"QC","city":"L'Île-Bizard","review_count":10,"rank":2,"stars":3.0},"geometry":{"coordinates":[-73.870583,45.489603],"type":"Point"}}
{"type":"Feature","properties":{"business_id":"Zz4k4L12y7_wmqaYpFHRGQ","name":"Chez Cora","categories":"Breakfast & Brunch, Restaurants","state":"QC","city":"Saint Laurent","review_count":10,"rank":1,"stars":2.5},"geometry":{"coordinates":[-73.708821,45.49192],"type":"Point"}}
{"type":"Feature","properties":{"business_id":"nV8rnHmWyGNZnobrj0_aqg","name":"Fu Jia Restaurant","categories":"Chinese, Restaurants","state":"QC","city":"Saint Laurent","review_count":9,"rank":2,"stars":3.5},"geometry":{"coordinates":[-73.681294,45.513775],"type":"Point"}}
{"type":"Feature","properties":{"business_id":"oLU_U-INLzjnZ4yW-OVkAw","name":"La Station des Sports","categories":"Breakfast & Brunch, Sports Bars, Restaurants, Bars, Canadian (New), Nightlife, Burgers, Barbeque","state":"QC","city":"Saint Leonard","review_count":5,"rank":1,"stars":3.0},"geometry":{"coordinates":[-73.577985,45.598484],"type":"Point"}}
{"type":"Feature","properties":{"business_id":"kb8H0uk6E-P3-c0A7tQPQw","name":"Wendy's","categories":"Fast Food, Restaurants, Burgers","state":"QC","city":"Saint Leonard","review_count":3,"rank":2,"stars":2.5},"geometry":{"coordinates":[-73.584678,45.575601],"type":"Point"}}
{"type":"Feature","properties":{"business_id":"qTqcTq-ecNNml97r3L13pg","name":"La Pizz' Super Choix","categories":"Restaurants, Sandwiches, Pizza, Italian","state":"QC","city":"Saint-Basile-Le-Grand","review_count":4,"rank":1,"stars":4.0},"geometry":{"coordinates":[-73.2881183,45.5271032],"type":"Point"}}
{"type":"Feature","properties":{"business_id":"5pFuXePA7SzITOJ3S1o1vA","name":"L'Express","categories":"Restaurants, French, Breakfast & Brunch, Coffee & Tea, Food, Creperies, Cafes, Diners","state":"QC","city":"Saint-Basile-le-Grand","review_count":3,"rank":1,"stars":3.5},"geometry":{"coordinates":[-73.3019911265,45.5220222602],"type":"Point"}}
{"type":"Feature","properties":{"business_id":"Tp9cP8DVYXD4_AxCYtEo1w","name":"IGL","categories":"Beauty & Spas, Cosmetics & Beauty Supply, Food, Flowers & Gifts, Shopping, Beer, Wine & Spirits, Tobacco Shops, Duty-Free Shops","state":"QC","city":"Saint-Bernard-de-Lacolle","review_count":5,"rank":1,"stars":3.0},"geometry":{"coordinates":[-73.453282,45.009669],"type":"Point"}}
{"type":"Feature","properties":{"business_id":"bV7PMJNl5-9ZE2w7DN42cw","name":"Pains et Saveurs","categories":"Restaurants, Cafes, Bakeries, Food","state":"QC","city":"Saint-Bruno","review_count":6,"rank":1,"stars":5.0},"geometry":{"coordinates":[-73.3179938,45.5205114],"type":"Point"}}
{"type":"Feature","properties":{"business_id":"tB2pWYLOxX36p7JDqkJIcw","name":"Boston Pizza","categories":"Restaurants, Pizza, Sandwiches, Salad","state":"QC","city":"Saint-Bruno","review_count":5,"rank":2,"stars":3.5},"geometry":{"coordinates":[-73.376099,45.500843],"type":"Point"}}
{"type":"Feature","properties":{"business_id":"G9zwRB1iXMdwAMCdFJHFWw","name":"St Bruno Pizza","categories":"Restaurants, Pizza","state":"QC","city":"Saint-Bruno","review_count":3,"rank":3,"stars":2.5},"geometry":{"coordinates":[-73.3433631,45.5285971],"type":"Point"}}
{"type":"Feature","properties":{"business_id":"HwBQOw7hjhuqV9pRCp8Ygw","name":"Pizza Hut","categories":"Italian, Chicken Wings, Restaurants, Pizza","state":"PA","city":"Harrisburg","review_count":10,"rank":1,"stars":2.5},"geometry":{"coordinates":[-76.8039666,40.3057944],"type":"Point"}}
{"type":"Feature","properties":{"business_id":"ZL6BK8wweb-8ncJ7kFIG-A","name":"Aiello's Pizzeria","categories":"Restaurants, Pizza, Italian","state":"PA","city":"Harrison City","review_count":53,"rank":1,"stars":4.0},"geometry":{"coordinates":[-79.6504518,40.3550315],"type":"Point"}}
{"type":"Feature","properties":{"business_id":"5q_zOkd2X8lU775IoUnxBQ","name":"Sweet Buzz Bean & Bistro","categories":"American (New), Coffee & Tea, Restaurants, Food, Bagels, Breakfast & Brunch, Bakeries, Hot Dogs, American (Traditional)","state":"PA","city":"Harrison City","review_count":47,"rank":2,"stars":4.0},"geometry":{"coordinates":[-79.6515513495,40.3550933347],"type":"Point"}}
{"type":"Feature","properties":{"business_id":"y5drVdOn-r6OyEJnpH3fjQ","name":"Pizza Hut","categories":"Restaurants, Pizza, Italian, Chicken Wings","state":"PA","city":"Harrison City","review_count":7,"rank":3,"stars":2.5},"geometry":{"coordinates":[-79.6515360475,40.354876],"type":"Point"}}
{"type":"Feature","properties":{"business_id":"LSxHsjO_CNbH-NE3lvwKaw","name":"Dairy Queen Grill & Chill","categories":"Ice Cream & Frozen Yogurt, Food, Fast Food, Restaurants, Burgers","state":"PA","city":"Harrison City","review_count":7,"rank":3,"stars":2.5},"geometry":{"coordinates":[-79.6660414338,40.3608337905],"type":"Point"}}
{"type":"Feature","properties":{"business_id":"x5sx84Fa1cpnLwvXGtsJEw","name":"Home Burger","categories":"Burgers, Restaurants","state":"HPL","city":"Hartlepool","review_count":3,"rank":1,"stars":4.5},"geometry":{"coordinates":[-79.220507741,43.7429401909],"type":"Point"}}
{"type":"Feature","properties":{"business_id":"iCpFAHTHWuV7LCBYFtWSig","name":"Bear's Inn","categories":"Chicken Wings, Restaurants","state":"PA","city":"Harwick","review_count":10,"rank":1,"stars":4.5},"geometry":{"coordinates":[-79.807836,40.5554139],"type":"Point"}}
{"type":"Feature","properties":{"business_id":"D094foijtm-Bu1ydD6imxw","name":"L'Hermine","categories":"Bistros, Food, Restaurants, Sugar Shacks, Local Flavor","state":"QC","city":"Havelock","review_count":3,"rank":1,"stars":2.5},"geometry":{"coordinates":[-73.8155548,45.0481262],"type":"Point"}}
