{"type":"Feature","properties":{"business_id":"K2xLM78eD1VUPf-FT-qhNQ","name":"Bouffons Montreal","categories":"Festivals, Food, Arts & Entertainment, Food Trucks","state":"QC","city":"Quartier des Spectacles","review_count":8,"rank":1,"stars":4.5},"geometry":{"coordinates":[-73.5669481773,45.5072337382],"type":"Point"}}
{"type":"Feature","properties":{"business_id":"9EiglrqhnBGBNIG2Eo1hog","name":"Creek Side Taco Shack","categories":"Restaurants, Mexican, Tacos","state":"AZ","city":"Queen Creek","review_count":380,"rank":1,"stars":3.5},"geometry":{"coordinates":[-111.6689742307,33.262859397],"type":"Point"}}
{"type":"Feature","properties":{"business_id":"_MGHIRcj3NBE5esngtHz4Q","name":"Babbo Italian Eatery","categories":"Italian, Restaurants, Salad, Pizza","state":"AZ","city":"Queen Creek","review_count":260,"rank":2,"stars":3.5},"geometry":{"coordinates":[-111.683494,33.265651],"type":"Point"}}
{"type":"Feature","properties":{"business_id":"VgaP0t9g3367hVgYKj0BQA","name":"Bar Vinedo","categories":"American (Traditional), Arts & Entertainment, Music Venues, Salad, Cocktail Bars, Nightlife, Sandwiches, American (New), Bars, Restaurants","state":"AZ","city":"Queen Creek","review_count":231,"rank":3,"stars":4.0},"geometry":{"coordinates":[-111.6845115989,33.2852033191],"type":"Point"}}
{"type":"Feature","properties":{"business_id":"GmG6HhMZVw6t91l7V3VXlA","name":"One Stop Nutrition","categories":"Vitamins & Supplements, Juice Bars & Smoothies, Food, Shopping, Health Markets, Drugstores, Specialty Food","state":"AZ","city":"Queen creek","review_count":28,"rank":1,"stars":3.0},"geometry":{"coordinates":[-111.6833859,33.2832846],"type":"Point"}}
{"type":"Feature","properties":{"business_id":"zsfyX2vDxM1PL2BaUlZHGg","name":"Mikes","categories":"Cafes, Food, Desserts, Italian, Restaurants, Pizza, Noodles, Breakfast & Brunch","state":"QC","city":"Québec","review_count":13,"rank":1,"stars":2.5},"geometry":{"coordinates":[-72.9856241,45.6039251],"type":"Point"}}
{"type":"Feature","properties":{"business_id":"zovEnFjz4nr8TW2MFZvLGA","name":"Mimimelon","categories":"Patisserie/Cake Shop, Food, Restaurants, Bakeries, Kosher","state":"QC","city":"Québec","review_count":3,"rank":2,"stars":5.0},"geometry":{"coordinates":[-73.681013,45.5017499],"type":"Point"}}
{"type":"Feature","properties":{"business_id":"PMMp2rBcs58y5kLP96HUaw","name":"Emil's Lounge","categories":"Sandwiches, Bars, Restaurants, Nightlife, American (New), Lounges","state":"PA","city":"Rankin","review_count":48,"rank":1,"stars":4.5},"geometry":{"coordinates":[-79.8802474,40.4134643],"type":"Point"}}
{"type":"Feature","properties":{"business_id":"yfrunyIhyrsg4TVdmdJoUw","name":"Rivers of Steel:Carrie Blast Furnaces National Historic Landmark","categories":"Hotels & Travel, Music Venues, Nightlife, Historical Tours, Museums, Event Planning & Services, Arts & Entertainment, Public Services & Government, Tours, Landmarks & Historical Buildings, Venues & Event Spaces","state":"PA","city":"Rankin","review_count":17,"rank":2,"stars":5.0},"geometry":{"coordinates":[-79.8896371,40.4139419],"type":"Point"}}
{"type":"Feature","properties":{"business_id":"sxGhFi-uYwEibnCUnzX7aA","name":"Mary's Vine","categories":"Arts & Entertainment, Food, Bars, Wine Bars, Wineries, Nightlife, Wine Tasting Room","state":"PA","city":"Rankin","review_count":15,"rank":3,"stars":4.5},"geometry":{"coordinates":[-79.8771176,40.410638],"type":"Point"}}
{"type":"Feature","properties":{"business_id":"PWvPIzCrWNYGSiFxOF_Zfg","name":"Grieco's Carefree Inn Restaurant","categories":"Italian, Restaurants","state":"PA","city":"Indianola","review_count":12,"rank":1,"stars":4.5},"geometry":{"coordinates":[-79.8593538,40.5677969],"type":"Point"}}
{"type":"Feature","properties":{"business_id":"8OjSgVD_tq6_S9eHGPERgw","name":"Da Bean","categories":"Breakfast & Brunch, Coffee & Tea, American (New), Food, Restaurants","state":"ON","city":"Inglewood","review_count":12,"rank":1,"stars":3.5},"geometry":{"coordinates":[-79.9156409,43.8003901],"type":"Point"}}
{"type":"Feature","properties":{"business_id":"nZ7C2WhdqkIawKaluOqlEA","name":"Ingomar Beer Distributing","categories":"Beer, Wine & Spirits, Food","state":"PA","city":"Ingomar","review_count":3,"rank":1,"stars":4.5},"geometry":{"coordinates":[-80.0567624,40.5817114],"type":"Point"}}
{"type":"Feature","properties":{"business_id":"QnTguWLRKRK_reQ__8k7yw","name":"Do Wood Fired","categories":"Sandwiches, Restaurants, Pizza, Italian","state":"PA","city":"Irwin","review_count":99,"rank":1,"stars":4.5},"geometry":{"coordinates":[-79.7104079,40.3312472],"type":"Point"}}
{"type":"Feature","properties":{"business_id":"jei_nG0uhrvTSXEFL2K9bw","name":"The Brick House Tap & Grill","categories":"Nightlife, Restaurants, Italian, American (Traditional), Bars","state":"PA","city":"Irwin","review_count":49,"rank":2,"stars":3.0},"geometry":{"coordinates":[-79.731475,40.316603],"type":"Point"}}
{"type":"Feature","properties":{"business_id":"G5qOZI12XTSowKZzlq_5lw","name":"Abruzzi Italian Cucina","categories":"Italian, Restaurants, Venues & Event Spaces, Pizza, Event Planning & Services","state":"PA","city":"Irwin","review_count":49,"rank":2,"stars":3.5},"geometry":{"coordinates":[-79.7049113363,40.3255386651],"type":"Point"}}
{"type":"Feature","properties":{"business_id":"74SEU16GvqF_9BjWbYHT6g","name":"Yoli's Cucina and Crafthouse","categories":"Restaurants, Italian, Pizza","state":"PA","city":"Jefferson Hills","review_count":31,"rank":1,"stars":4.0},"geometry":{"coordinates":[-79.9160563,40.3099858],"type":"Point"}}
{"type":"Feature","properties":{"business_id":"Zt2cMfrgRaSbYdC0OSh4jA","name":"Payne Hill Grille","categories":"Restaurants, American (New)","state":"PA","city":"Jefferson Hills","review_count":15,"rank":2,"stars":3.0},"geometry":{"coordinates":[-79.9160432205,40.3101370058],"type":"Point"}}
{"type":"Feature","properties":{"business_id":"TwZL8gjnAJ3DXXnyu-McHw","name":"Fellinis Pizzeria","categories":"Restaurants, Italian, Pizza","state":"PA","city":"Jefferson Hills","review_count":14,"rank":3,"stars":3.5},"geometry":{"coordinates":[-79.9368145,40.3107275],"type":"Point"}}
{"type":"Feature","properties":{"business_id":"qgeoNhlcNPiJ0Aw4RShdGw","name":"Blue Flame Restaurant","categories":"Restaurants, American (Traditional)","state":"PA","city":"Jefferson Hills","review_count":14,"rank":3,"stars":3.0},"geometry":{"coordinates":[-79.9337153,40.304809],"type":"Point"}}
{"type":"Feature","properties":{"business_id":"3afhnBwiINXjIUHZYPebMA","name":"Bethel Bakery - North Strabane","categories":"Bakeries, Food","state":"PA","city":"North strabane","review_count":8,"rank":1,"stars":5.0},"geometry":{"coordinates":[-80.1636981592,40.254587702],"type":"Point"}}
{"type":"Feature","properties":{"business_id":"jkicNu9xyZhsAOuDqbgDVQ","name":"Hard Rock Rocksino Northfield Park","categories":"Venues & Event Spaces, Comedy Clubs, Music Venues, Event Planning & Services, Casinos, Nightlife, Arts & Entertainment, Food","state":"OH","city":"Northfield","review_count":138,"rank":1,"stars":3.5},"geometry":{"coordinates":[-81.5245577481,41.3482964863],"type":"Point"}}
{"type":"Feature","properties":{"business_id":"q5viyMO6EtJMmmarb4YmIA","name":"Kosar's Wood-Fired Grill","categories":"Restaurants, Steakhouses","state":"OH","city":"Northfield","review_count":97,"rank":2,"stars":3.0},"geometry":{"coordinates":[-81.5245421767,41.3482407821],"type":"Point"}}
{"type":"Feature","properties":{"business_id":"JI88Hdn6TM6rpYIUEk_xwA","name":"Giuseppe's Ristorante","categories":"Italian, Restaurants","state":"OH","city":"Northfield","review_count":78,"rank":3,"stars":4.0},"geometry":{"coordinates":[-81.5399533,41.3138696],"type":"Point"}}
{"type":"Feature","properties":{"business_id":"TIIj6oFXFjL27q0rZwbA4g","name":"Babushka's Kitchen","categories":"Food, Polish, Ethnic Food, Restaurants, Specialty Food","state":"OH","city":"Northfield Center","review_count":13,"rank":1,"stars":4.0},"geometry":{"coordinates":[-81.5360925,41.3109204],"type":"Point"}}
{"type":"Feature","properties":{"business_id":"GwD1Bso1z5GnBHELK3aUNA","name":"The South End Tavern","categories":"American (Traditional), Restaurants, Bars, Nightlife","state":"OH","city":"Northfield Center Township","review_count":4,"rank":1,"stars":4.5},"geometry":{"coordinates":[-81.517639,41.277742],"type":"Point"}}
{"type":"Feature","properties":{"business_id":"9Y8xAlSUGT-ZIo9t2YiZzQ","name":"Pho Kim Vy","categories":"Vietnamese, Restaurants","state":"AB","city":"Northwest Calgary","review_count":16,"rank":1,"stars":3.0},"geometry":{"coordinates":[-114.1295389,51.0867628],"type":"Point"}}
{"type":"Feature","properties":{"business_id":"nvvh3xHQJUy0hQbsmUWT-A","name":"Chang Mai Thai Food","categories":"Thai, Restaurants","state":"AB","city":"Northwest Calgary","review_count":5,"rank":2,"stars":1.5},"geometry":{"coordinates":[-114.1533866619,51.0933361838],"type":"Point"}}
{"type":"Feature","properties":{"business_id":"oZ16uiBOUH27DyBAV-yWHw","name":"H Mart","categories":"Food, Grocery","state":"ON","city":"Northyork","review_count":7,"rank":1,"stars":3.5},"geometry":{"coordinates":[-79.4136158,43.7736529],"type":"Point"}}
{"type":"Feature","properties":{"business_id":"LnyJtMfzF6gqk3RqHxd5lw","name":"Wolf Creek Tavern","categories":"Seafood, Food, Restaurants, Breakfast & Brunch, Pubs, Nightlife, American (New), Beer, Wine & Spirits, Bars","state":"OH","city":"Norton","review_count":84,"rank":1,"stars":4.0},"geometry":{"coordinates":[-81.6376036513,41.0503419692],"type":"Point"}}
{"type":"Feature","properties":{"business_id":"zqrfeUZxDUdy9psMLdSuAg","name":"Winery at Wolf Creek","categories":"Food, Wineries, Arts & Entertainment","state":"OH","city":"Norton","review_count":56,"rank":2,"stars":4.5},"geometry":{"coordinates":[-81.6375038,41.0672623],"type":"Point"}}
{"type":"Feature","properties":{"business_id":"RhOOoME77gbYV3ZVXfqAkg","name":"Perfect Power Wash","categories":"Gutter Services, Restaurants, Home Cleaning, Pressure Washers, Window Washing, Home Services, Pizza","state":"OH","city":"Norton","review_count":20,"rank":3,"stars":3.0},"geometry":{"coordinates":[-81.6111187,41.0554426],"type":"Point"}}
{"type":"Feature","properties":{"business_id":"CERdu01pl1cGUyjjJcIFPQ","name":"Thai Tamarind","categories":"Event Planning & Services, Caterers, Cafeteria, Restaurants, Thai","state":"PA","city":"Bellevue","review_count":121,"rank":1,"stars":4.0},"geometry":{"coordinates":[-80.047502,40.491205],"type":"Point"}}
{"type":"Feature","properties":{"business_id":"q6vyGObMjAhGBN9I1nyACA","name":"202 Hometown Tacos","categories":"Tex-Mex, Mexican, Restaurants","state":"PA","city":"Bellevue","review_count":83,"rank":2,"stars":3.5},"geometry":{"coordinates":[-80.0528161,40.4940965],"type":"Point"}}
{"type":"Feature","properties":{"business_id":"BY6sk5uACmes9rU7vpdzWw","name":"Joe's Rusty Nail","categories":"Restaurants, American (Traditional)","state":"PA","city":"Bellevue","review_count":79,"rank":3,"stars":4.0},"geometry":{"coordinates":[-80.0574086,40.496655],"type":"Point"}}
{"type":"Feature","properties":{"business_id":"j-EGxXe3ErGtAlmE1XjYJg","name":"R & B's Pizza Place","categories":"Pizza, Restaurants","state":"PA","city":"Bellvue","review_count":24,"rank":1,"stars":4.0},"geometry":{"coordinates":[-80.0532965,40.4941512],"type":"Point"}}
{"type":"Feature","properties":{"business_id":"TxvKogcmji6eiIE8oaeFuA","name":"Frankfurters","categories":"Restaurants, Hot Dogs","state":"PA","city":"Bellvue","review_count":3,"rank":2,"stars":4.5},"geometry":{"coordinates":[-80.0575037,40.4966341],"type":"Point"}}
{"type":"Feature","properties":{"business_id":"56WBXPORRBFrQVopB0WSsQ","name":"Produce Plus Market and Deli","categories":"Grocery, Restaurants, Food, Delis","state":"PA","city":"Bellvue","review_count":3,"rank":2,"stars":4.5},"geometry":{"coordinates":[-80.0548347,40.494983],"type":"Point"}}
{"type":"Feature","properties":{"business_id":"z6yxgJ8UW0UF7dJr65rC4w","name":"Nellie's Southern Kitchen","categories":"Soul Food, Southern, Restaurants, Nightlife, Breakfast & Brunch, Arts & Entertainment, Music Venues","state":"NC","city":"Belmont","review_count":471,"rank":1,"stars":3.5},"geometry":{"coordinates":[-81.0374035,35.2435405],"type":"Point"}}
{"type":"Feature","properties":{"business_id":"z2Yivr-C0K0H2sLNXvnZyg","name":"Peace -N- Hominy Q","categories":"Southern, Burgers, Appliances, Hot Dogs, Breakfast & Brunch, Home & Garden, American (Traditional), Shopping, Barbeque, Restaurants","state":"NC","city":"Belmont","review_count":452,"rank":2,"stars":4.5},"geometry":{"coordinates":[-81.0285592,35.2430105],"type":"Point"}}
{"type":"Feature","properties":{"business_id":"kfwAKuRFdWKRl42hpsimuQ","name":"The String Bean","categories":"Event Planning & Services, Caterers, Beer, Wine & Spirits, Grocery, Restaurants, Food, Sandwiches, Delis","state":"NC","city":"Belmont","review_count":332,"rank":3,"stars":4.0},"geometry":{"coordinates":[-81.0376627,35.2443065],"type":"Point"}}
{"type":"Feature","properties":{"business_id":"RC2qzj0fTyUaeDtOHfNmkA","name":"Boston Pizza","categories":"Pizza, Restaurants, Sandwiches, Salad","state":"QC","city":"Vaudreuil","review_count":4,"rank":1,"stars":3.0},"geometry":{"coordinates":[-74.040497,45.407197],"type":"Point"}}
{"type":"Feature","properties":{"business_id":"njsFiFg6EeE-eMFCWo3HHg","name":"PoutineVille","categories":"Fast Food, Poutineries, Steakhouses, Burgers, Sandwiches, Restaurants","state":"QC","city":"Vaudreuil","review_count":3,"rank":2,"stars":3.5},"geometry":{"coordinates":[-74.0408645948,45.4117564924],"type":"Point"}}
{"type":"Feature","properties":{"business_id":"eKKKvRkmxkZhQi1po9pD6g","name":"Duke & Devines","categories":"Bars, Nightlife, Irish Pub, Restaurants, Pubs","state":"QC","city":"Vaudreuil-Dorion","review_count":15,"rank":1,"stars":4.0},"geometry":{"coordinates":[-74.027006289,45.3997886666],"type":"Point"}}
{"type":"Feature","properties":{"business_id":"uxSDMsU3uP88Dh454bUa7A","name":"Carlos et Pepe's","categories":"Bars, Nightlife, Mexican, Restaurants","state":"QC","city":"Vaudreuil-Dorion","review_count":14,"rank":2,"stars":2.5},"geometry":{"coordinates":[-74.0310709924,45.411868121],"type":"Point"}}
{"type":"Feature","properties":{"business_id":"tr2-7zoY7UyYVsQBjbmqlQ","name":"La Belle et La Boeuf","categories":"Burgers, Restaurants","state":"QC","city":"Vaudreuil-Dorion","review_count":12,"rank":3,"stars":4.0},"geometry":{"coordinates":[-74.031368,45.412053],"type":"Point"}}
{"type":"Feature","properties":{"business_id":"jCzrbfboRc3D-9_Gr0Wm9w","name":"SongCook's","categories":"Japanese, Chinese, Korean, Restaurants","state":"ON","city":"Vaughan","review_count":355,"rank":1,"stars":4.0},"geometry":{"coordinates":[-79.4222626441,43.7984081459],"type":"Point"}}
{"type":"Feature","properties":{"business_id":"WFB1fn8rWNukmmIfTg6AMw","name":"Ay Caramba, Eh","categories":"Mexican, Restaurants, Latin American","state":"ON","city":"Vaughan","review_count":291,"rank":2,"stars":4.5},"geometry":{"coordinates":[-79.5490928,43.8285439],"type":"Point"}}
{"type":"Feature","properties":{"business_id":"5fg-RNWNbqyGn8b8wqe4QQ","name":"168 Sushi Asian Buffet","categories":"Sushi Bars, Japanese, Thai, Restaurants, Asian Fusion, Chinese, Buffets","state":"ON","city":"Vaughan","review_count":262,"rank":3,"stars":3.5},"geometry":{"coordinates":[-79.471494,43.78738],"type":"Point"}}
{"type":"Feature","properties":{"business_id":"DmgWQ9UiAEfovtDpa_-OKw","name":"Open German Italian Flair","categories":"American (Traditional), Italian, Restaurants, German, Food","state":"PA","city":"Venetia","review_count":39,"rank":1,"stars":3.5},"geometry":{"coordinates":[-80.0380305,40.2348998],"type":"Point"}}
{"type":"Feature","properties":{"business_id":"eq361K11v9zhH459lomlWw","name":"The Country Store","categories":"Restaurants, Delis, Food, Diners, Convenience Stores, Grocery","state":"PA","city":"Venetia","review_count":12,"rank":2,"stars":5.0},"geometry":{"coordinates":[-80.0381570309,40.2456467942],"type":"Point"}}
{"type":"Feature","properties":{"business_id":"V_nF4KP-0EFVjSgM1Wqd1Q","name":"Victoria's Fudge-a-licious","categories":"Specialty Food, Chocolatiers & Shops, Candy Stores, Ice Cream & Frozen Yogurt, Food","state":"PA","city":"Venetia","review_count":3,"rank":3,"stars":5.0},"geometry":{"coordinates":[-80.0796655,40.2785519],"type":"Point"}}
{"type":"Feature","properties":{"business_id":"bNt_GCxZjWZne1odwDicLg","name":"Winking Lizard Tavern","categories":"American (Traditional), Bars, Restaurants, Nightlife","state":"OH","city":"Bedford","review_count":94,"rank":1,"stars":3.5},"geometry":{"coordinates":[-81.5000036,41.4238142],"type":"Point"}}
{"type":"Feature","properties":{"business_id":"Te-BqwJZt8S0fu9ltlq3Eg","name":"Los Gallos Mexican Restaurant","categories":"Restaurants, Mexican","state":"OH","city":"Bedford","review_count":90,"rank":2,"stars":3.5},"geometry":{"coordinates":[-81.537136,41.3925592],"type":"Point"}}
{"type":"Feature","properties":{"business_id":"R4fBpgWzxwmLtT6cDMvgcg","name":"Las Americas","categories":"Hair Salons, Mexican, Latin American, Peruvian, Food, Beauty & Spas, Grocery, Restaurants","state":"OH","city":"Bedford","review_count":35,"rank":3,"stars":4.5},"geometry":{"coordinates":[-81.497417,41.408098],"type":"Point"}}
{"type":"Feature","properties":{"business_id":"ZtdjC89LeVOoLR0IBS6wbQ","name":"Barry","categories":"Fast Food, Hot Dogs, Restaurants, Burgers","state":"QC","city":"Bedford","review_count":5,"rank":1,"stars":4.5},"geometry":{"coordinates":[-72.990557,45.1212577],"type":"Point"}}
{"type":"Feature","properties":{"business_id":"Avd8p01gYJEnA5OywiyM4A","name":"Restaurant Pizzeria Bedford","categories":"Pizza, Restaurants","state":"QC","city":"Bedford","review_count":3,"rank":2,"stars":4.5},"geometry":{"coordinates":[-72.9886279,45.1209748],"type":"Point"}}
{"type":"Feature","properties":{"business_id":"Ugijlp7lB0joHKeVEcltdA","name":"Café Rouge","categories":"Food, Restaurants, Specialty Food, Breakfast & Brunch, Cafes, Coffee Roasteries","state":"QC","city":"Bedford","review_count":3,"rank":2,"stars":4.5},"geometry":{"coordinates":[-72.9881442,45.1213402],"type":"Point"}}
{"type":"Feature","properties":{"business_id":"wi-T1EAilETniAbuiSBJ2A","name":"South East Gears & Cheers","categories":"American (Traditional), Burgers, Sandwiches, Sports Bars, Arts & Entertainment, Restaurants, Wine Bars, Beer, Wine & Spirits, American (New), Food, Bars, Nightlife, Cocktail Bars, Music Venues, Soup, Breakfast & Brunch","state":"OH","city":"Bedford Heights","review_count":59,"rank":1,"stars":3.0},"geometry":{"coordinates":[-81.5145101,41.4175121],"type":"Point"}}
{"type":"Feature","properties":{"business_id":"lun-Ud4ctC_Khe8N--n-Kg","name":"Lizardville Beer Store & Whiskey Bar","categories":"Food, Beer, Wine & Spirits, Restaurants, Nightlife, Whiskey Bars, Chicken Wings, Beer Bar, Bars","state":"OH","city":"Bedford Heights","review_count":56,"rank":2,"stars":4.0},"geometry":{"coordinates":[-81.5000036,41.4238142],"type":"Point"}}
{"type":"Feature","properties":{"business_id":"mSWNf1muSy9wgGtMRgt7Fg","name":"Zeppe's Tavern & Pizzeria","categories":"Event Planning & Services, Wraps, Italian, Sandwiches, Bars, Caterers, Restaurants, Pizza, Nightlife, American (Traditional)","state":"OH","city":"Bedford Heights","review_count":25,"rank":3,"stars":3.5},"geometry":{"coordinates":[-81.4968538208,41.4236915634],"type":"Point"}}
{"type":"Feature","properties":{"business_id":"PGsrhKu41CWhs152bctWkQ","name":"Swensons Drive-In","categories":"Food, Burgers, Sandwiches, Fast Food, Desserts, Restaurants","state":"OH","city":"Akron","review_count":289,"rank":1,"stars":4.5},"geometry":{"coordinates":[-81.495662,41.1145312],"type":"Point"}}
{"type":"Feature","properties":{"business_id":"9WJd4cqm3ghYA2RxShj3xA","name":"Bomba Tacos & Rum","categories":"Desserts, Nightlife, Bars, Restaurants, Food, Latin American","state":"OH","city":"Akron","review_count":264,"rank":2,"stars":4.0},"geometry":{"coordinates":[-81.6382378712,41.1342696794],"type":"Point"}}
{"type":"Feature","properties":{"business_id":"4RFiHQ5-p3mR5RHFQh0PfA","name":"Rice Paper","categories":"Thai, Restaurants","state":"OH","city":"Akron","review_count":187,"rank":3,"stars":4.5},"geometry":{"coordinates":[-81.6377332088,41.136390527],"type":"Point"}}
{"type":"Feature","properties":{"business_id":"lE7rlU_kOvLhhOGFEutgVA","name":"Hooters","categories":"Nightlife, Restaurants, Bars, American (Traditional), Sports Bars, Chicken Wings","state":"AB","city":"Alberta","review_count":8,"rank":1,"stars":2.5},"geometry":{"coordinates":[-114.0657281,51.0128779],"type":"Point"}}
{"type":"Feature","properties":{"business_id":"tJRDll5yqpZwehenzE2cSg","name":"Ransom Bay Inn B & B","categories":"Hotels, Hotels & Travel, Event Planning & Services, Bed & Breakfast, Restaurants, American (Traditional)","state":"VT","city":"Alburg","review_count":5,"rank":1,"stars":5.0},"geometry":{"coordinates":[-73.2703918,44.9538777],"type":"Point"}}
{"type":"Feature","properties":{"business_id":"W8N-jHFE-scka656EU3btA","name":"Wild Rice","categories":"Asian Fusion, Restaurants","state":"PA","city":"Allentown","review_count":19,"rank":1,"stars":4.0},"geometry":{"coordinates":[-80.0317822,40.4008043],"type":"Point"}}
{"type":"Feature","properties":{"business_id":"OQ_2_JzEqJrjG5z93cEqmQ","name":"OTB At the Boathouse","categories":"American (Traditional), Restaurants, Sandwiches, Vegetarian, American (New)","state":"PA","city":"Allison Park","review_count":295,"rank":1,"stars":3.5},"geometry":{"coordinates":[-80.007391423,40.6046132195],"type":"Point"}}
{"type":"Feature","properties":{"business_id":"XsYLY9LLaFB45MW88AyUHg","name":"Caliente Pizza & Draft House","categories":"Pizza, Restaurants, Food, Beer, Wine & Spirits","state":"PA","city":"Allison Park","review_count":92,"rank":2,"stars":3.0},"geometry":{"coordinates":[-79.946683,40.594618],"type":"Point"}}
{"type":"Feature","properties":{"business_id":"wuEJ2XIM97g9iIhDRQYoYA","name":"K Asian Bistro","categories":"Japanese, Asian Fusion, Sushi Bars, Restaurants, Cafes, Thai","state":"PA","city":"Allison Park","review_count":92,"rank":2,"stars":4.5},"geometry":{"coordinates":[-79.9469005,40.5936265],"type":"Point"}}
{"type":"Feature","properties":{"business_id":"GD42Z3Xz7rGHZ9nLFOKO-w","name":"Noce Gourmet Pizzeria","categories":"Pizza, Restaurants","state":"OH","city":"Tremont","review_count":8,"rank":1,"stars":3.5},"geometry":{"coordinates":[-81.6872061,41.4772131],"type":"Point"}}
{"type":"Feature","properties":{"business_id":"Q1hNkPjwuA0zPde5EnFxzw","name":"World Famous Iron Horse Saloon","categories":"Bars, Nightlife, Event Planning & Services, Fish & Chips, Restaurants, Caterers","state":"OH","city":"Troy Township","review_count":27,"rank":1,"stars":2.5},"geometry":{"coordinates":[-81.156408,41.387421],"type":"Point"}}
{"type":"Feature","properties":{"business_id":"1Bc4KYox4Fux-aLV4OfFnA","name":"Shelly Pie","categories":"Restaurants, American (New), Pizza, Italian","state":"PA","city":"Turtle Creek","review_count":125,"rank":1,"stars":4.0},"geometry":{"coordinates":[-79.8255414265,40.4041538608],"type":"Point"}}
{"type":"Feature","properties":{"business_id":"vAyQDNs9lu_8hT20lleGqg","name":"China Cafe","categories":"Chinese, Restaurants","state":"PA","city":"Turtle Creek","review_count":21,"rank":2,"stars":2.5},"geometry":{"coordinates":[-79.834881,40.425353],"type":"Point"}}
{"type":"Feature","properties":{"business_id":"JMp6kPOrnBp9HC_4SRbarg","name":"Mama Meatball's Pizzeria","categories":"Soup, Italian, Pizza, Restaurants, Caterers, Food Delivery Services, Event Planning & Services, Food","state":"PA","city":"Turtle Creek","review_count":19,"rank":3,"stars":4.0},"geometry":{"coordinates":[-79.8344482,40.4239307],"type":"Point"}}
{"type":"Feature","properties":{"business_id":"bqiBdnyfYxTc4r8hY28q1g","name":"Mi Veracruz Mexican Grill","categories":"Mexican, Restaurants","state":"IL","city":"Tuscola","review_count":43,"rank":1,"stars":4.0},"geometry":{"coordinates":[-88.2895915,39.8002946],"type":"Point"}}
{"type":"Feature","properties":{"business_id":"-8O8sVCnaIKHP-596zN9UA","name":"Blue Canyon Kitchen & Tavern","categories":"Restaurants, American (Traditional), American (New)","state":"OH","city":"Twinsburg","review_count":206,"rank":1,"stars":3.5},"geometry":{"coordinates":[-81.4555928,41.312851],"type":"Point"}}
{"type":"Feature","properties":{"business_id":"ZnYNjy5ehz7osA-UhqZSbA","name":"Fresh Start Diner","categories":"Restaurants, Diners","state":"OH","city":"Twinsburg","review_count":112,"rank":2,"stars":4.5},"geometry":{"coordinates":[-81.4422208,41.3129936],"type":"Point"}}
{"type":"Feature","properties":{"business_id":"IFaRfrlwhQo4gILB0wmA-g","name":"Original Steaks and Hoagies","categories":"Restaurants, Cheesesteaks, Pizza, Sandwiches","state":"OH","city":"Twinsburg","review_count":107,"rank":3,"stars":4.0},"geometry":{"coordinates":[-81.4640065,41.3316218],"type":"Point"}}
{"type":"Feature","properties":{"business_id":"WbJ1LRQdOuYYlRLyTkuuxw","name":"Tupelo Honey","categories":"Southern, Restaurants, American (New), Breakfast & Brunch","state":"NC","city":"Charlotte","review_count":2028,"rank":1,"stars":4.0},"geometry":{"coordinates":[-80.8587519,35.2112069],"type":"Point"}}
{"type":"Feature","properties":{"business_id":"gG9z6zr_49LocyCTvSFg0w","name":"Amélie's French Bakery & Café","categories":"Coffee & Tea, Cafes, Restaurants, Food, Patisserie/Cake Shop, Bakeries, Breakfast & Brunch","state":"NC","city":"Charlotte","review_count":1808,"rank":2,"stars":4.0},"geometry":{"coordinates":[-80.812057,35.241145],"type":"Point"}}
{"type":"Feature","properties":{"business_id":"RAh9WCQAuocM7hYM5_6tnw","name":"The Cowfish Sushi Burger Bar","categories":"Restaurants, Burgers, Sushi Bars, Asian Fusion","state":"NC","city":"Charlotte","review_count":1791,"rank":3,"stars":4.5},"geometry":{"coordinates":[-80.827953314,35.1527248376],"type":"Point"}}
{"type":"Feature","properties":{"business_id":"Ku_qQVoMA02kFZiu55_UwA","name":"The Brass Tap - South End","categories":"Nightlife, Restaurants, American (New), Beer, Wine & Spirits, Beer Bar, Bars, Food, Breakfast & Brunch, Beer Gardens","state":"SC","city":"Charlotte","review_count":166,"rank":1,"stars":3.0},"geometry":{"coordinates":[-80.8565574344,35.2165705597],"type":"Point"}}
{"type":"Feature","properties":{"business_id":"0euwvUfYNkEw_D5vafuAow","name":"Cheesecake Carousel","categories":"Food, Cupcakes, Food Delivery Services, Chocolatiers & Shops, Ice Cream & Frozen Yogurt, Specialty Food, Local Flavor, Event Planning & Services, Yelp Events, Food Trucks, Desserts, Caterers, Bakeries","state":"SC","city":"Charlotte","review_count":26,"rank":2,"stars":4.0},"geometry":{"coordinates":[-80.8421292,35.2273202],"type":"Point"}}
{"type":"Feature","properties":{"business_id":"2SmVDHidtlfAF9bXBn4XwQ","name":"Pizza Hut","categories":"Pizza, Restaurants, Italian, Chicken Wings","state":"TX","city":"Charlotte","review_count":16,"rank":1,"stars":1.5},"geometry":{"coordinates":[-80.7781905634,35.0953368],"type":"Point"}}
{"type":"Feature","properties":{"business_id":"dy2yHbFhA-wtF71tEQ_gGQ","name":"Lal Kella Tandoori","categories":"Restaurants, Indian","state":"QC","city":"Chatauguay","review_count":5,"rank":1,"stars":4.5},"geometry":{"coordinates":[-73.714577,45.360652],"type":"Point"}}
{"type":"Feature","properties":{"business_id":"4ChfChMuKaCFb0Gxr0gj3A","name":"Chez Tony's","categories":"Sandwiches, Pizza, Restaurants","state":"QC","city":"Chateauguay","review_count":7,"rank":1,"stars":2.5},"geometry":{"coordinates":[-73.73017,45.360513],"type":"Point"}}
{"type":"Feature","properties":{"business_id":"Vcu-rDLi-VHautyy9u_uVA","name":"Super Gyro","categories":"Greek, Mediterranean, Restaurants","state":"QC","city":"Chateauguay","review_count":6,"rank":2,"stars":4.0},"geometry":{"coordinates":[-73.7254899,45.3599279],"type":"Point"}}
{"type":"Feature","properties":{"business_id":"eN85fyOmq5f5WJCS0lJJPA","name":"Le Lotus","categories":"Restaurants, Vietnamese","state":"QC","city":"Chateauguay","review_count":5,"rank":3,"stars":3.0},"geometry":{"coordinates":[-73.741279,45.361216],"type":"Point"}}
{"type":"Feature","properties":{"business_id":"Ma_jYcmBXWH4DClYNoWJSQ","name":"Holstein Restaurant and Bar","categories":"Comfort Food, Farmers Market, Food, American (New), Diners, Restaurants, American (Traditional), Breakfast & Brunch","state":"WI","city":"Brooklyn","review_count":12,"rank":1,"stars":4.0},"geometry":{"coordinates":[-89.3666992188,42.8543014526],"type":"Point"}}
{"type":"Feature","properties":{"business_id":"gyCHpPhwXJksHOJ8yaQfkg","name":"Down Home Cookhouse","categories":"American (Traditional), Restaurants","state":"WI","city":"Brooklyn","review_count":9,"rank":2,"stars":5.0},"geometry":{"coordinates":[-89.369529672,42.8591239933],"type":"Point"}}
{"type":"Feature","properties":{"business_id":"PZuxcxJW1y4-epEbfPh2QA","name":"Three Brothers Pizza","categories":"Pizza, Restaurants, Breakfast & Brunch","state":"WI","city":"Brooklyn","review_count":4,"rank":3,"stars":4.0},"geometry":{"coordinates":[-89.3691589,42.8588428],"type":"Point"}}
{"type":"Feature","properties":{"business_id":"NjhCjFtNANQvcD8G0flL0w","name":"Cap'n Taco Restaurants","categories":"Tex-Mex, Mexican, Restaurants, Vegetarian","state":"OH","city":"Brookpark","review_count":56,"rank":1,"stars":4.0},"geometry":{"coordinates":[-81.8107219,41.4182515],"type":"Point"}}
{"type":"Feature","properties":{"business_id":"_LQHT49q2srGRa4sj97mkQ","name":"AMF Brookgate Lanes","categories":"Arts & Entertainment, Venues & Event Spaces, Arcades, Event Planning & Services, Active Life, Nightlife, Bowling","state":"OH","city":"Brookpark","review_count":12,"rank":2,"stars":4.0},"geometry":{"coordinates":[-81.8007432,41.4051097],"type":"Point"}}
{"type":"Feature","properties":{"business_id":"RHhio6zarLCeYrsyKna23w","name":"Subway Restaurants","categories":"Restaurants, Sandwiches, Fast Food","state":"OH","city":"Brookpark","review_count":8,"rank":3,"stars":2.0},"geometry":{"coordinates":[-81.7893558741,41.4182403121],"type":"Point"}}
{"type":"Feature","properties":{"business_id":"-juOL0eJC6kvf5RLEjoPvA","name":"La Maison Kam Fung","categories":"Dim Sum, Restaurants, Chinese","state":"QC","city":"Brossard","review_count":83,"rank":1,"stars":3.5},"geometry":{"coordinates":[-73.4642979,45.4616328],"type":"Point"}}
{"type":"Feature","properties":{"business_id":"JD55YRLwptXJVkMRekbzNg","name":"Pho MC","categories":"Vietnamese, Barbeque, Restaurants, Soup","state":"QC","city":"Brossard","review_count":67,"rank":2,"stars":4.0},"geometry":{"coordinates":[-73.471791,45.448805],"type":"Point"}}
{"type":"Feature","properties":{"business_id":"yvYCSzQm9tjZoBV_gJS7bQ","name":"Juliette & Chocolat","categories":"Restaurants, Desserts, Cafes, Food, Specialty Food, Chocolatiers & Shops","state":"QC","city":"Brossard","review_count":43,"rank":3,"stars":3.0},"geometry":{"coordinates":[-73.4375949724,45.4462786949],"type":"Point"}}
{"type":"Feature","properties":{"business_id":"rSKWpGKiaGkMZeX6ixb2Og","name":"Pizzeria Sofia","categories":"Pizza, Restaurants, Italian","state":"QC","city":"Brossard","review_count":43,"rank":3,"stars":3.5},"geometry":{"coordinates":[-73.437818,45.4455712],"type":"Point"}}
{"type":"Feature","properties":{"business_id":"MWmuV3o6qcnYCktB755_-Q","name":"Kelly's Cafe","categories":"Coffee & Tea, Food, Restaurants, Ice Cream & Frozen Yogurt, Creperies","state":"OH","city":"Brunswick","review_count":122,"rank":1,"stars":4.5},"geometry":{"coordinates":[-81.840153,41.230028],"type":"Point"}}
{"type":"Feature","properties":{"business_id":"ix8Xv6sHk0F0e8wJ5_a9Og","name":"Larb Thai Restaurant","categories":"Nightlife, Bars, Restaurants, Cocktail Bars, Thai","state":"OH","city":"Brunswick","review_count":111,"rank":2,"stars":4.5},"geometry":{"coordinates":[-81.8416246343,41.2630106222],"type":"Point"}}
{"type":"Feature","properties":{"business_id":"POgTu9ieZzOBafGMJ0MZow","name":"Mucho Buenos","categories":"Mexican, Restaurants","state":"OH","city":"Brunswick","review_count":85,"rank":3,"stars":4.5},"geometry":{"coordinates":[-81.8077899,41.2370797],"type":"Point"}}
{"type":"Feature","properties":{"business_id":"kFzq1hy_G3GCrPZcL6p4Wg","name":"Barley Jacks Pizza","categories":"Restaurants, Burgers, Pizza, Sandwiches","state":"OH","city":"Brunswick Hills","review_count":37,"rank":1,"stars":4.0},"geometry":{"coordinates":[-81.8787351,41.237826],"type":"Point"}}
{"type":"Feature","properties":{"business_id":"by9Vuifv_1mYzDvwVUReJg","name":"The Vic Bar + Kitchen","categories":"Restaurants, American (New), Breakfast & Brunch","state":"AZ","city":"Buckeye","review_count":180,"rank":1,"stars":3.5},"geometry":{"coordinates":[-112.5119109525,33.5131742393],"type":"Point"}}
{"type":"Feature","properties":{"business_id":"5J541aaHaZequPMiQPVShQ","name":"Tempo Urban Bistro","categories":"Restaurants, Food, American (New), Coffee & Tea, Bars, Beer Bar, Nightlife","state":"AZ","city":"Buckeye","review_count":173,"rank":2,"stars":4.0},"geometry":{"coordinates":[-112.5128746,33.4959165],"type":"Point"}}
{"type":"Feature","properties":{"business_id":"jiMczBApMAxnjuhi_EMiog","name":"Ciao Grazie Pizzeria Winebar","categories":"Wine Bars, Pizza, Bars, Nightlife, Restaurants, Italian","state":"AZ","city":"Buckeye","review_count":156,"rank":3,"stars":4.0},"geometry":{"coordinates":[-112.51259,33.4957479],"type":"Point"}}
{"type":"Feature","properties":{"business_id":"XjwgMrBeBeOKQTYiXfRYLQ","name":"Driscoll Yough Twister","categories":"Burgers, Restaurants","state":"PA","city":"Buena Vista","review_count":8,"rank":1,"stars":3.0},"geometry":{"coordinates":[-79.811681,40.243921],"type":"Point"}}
{"type":"Feature","properties":{"business_id":"3eil_0lyAwHLsnIoob6Wdg","name":"Restaurant Grégoire","categories":"African, Fast Food, Restaurants","state":"QC","city":"Mercier","review_count":10,"rank":1,"stars":4.0},"geometry":{"coordinates":[-73.747929,45.307318],"type":"Point"}}
{"type":"Feature","properties":{"business_id":"pNv73cPS3Xcx8Weac5ZKrQ","name":"Fromagerie Ruban Bleu","categories":"Specialty Food, Food, Cheese Shops","state":"QC","city":"Mercier","review_count":4,"rank":2,"stars":4.5},"geometry":{"coordinates":[-73.761832,45.313306],"type":"Point"}}
{"type":"Feature","properties":{"business_id":"cF43fpxRuBdXWAyXmqnoxw","name":"Burger King","categories":"Fast Food, Restaurants, Burgers","state":"AZ","city":"Mes","review_count":9,"rank":1,"stars":2.0},"geometry":{"coordinates":[-111.6539626,33.3642863],"type":"Point"}}
{"type":"Feature","properties":{"business_id":"e4NQLZynhSmvwl38hC4m-A","name":"Backyard Taco","categories":"Mexican, Restaurants, Food","state":"AZ","city":"Mesa","review_count":1362,"rank":1,"stars":4.5},"geometry":{"coordinates":[-111.7982123,33.4227198],"type":"Point"}}
{"type":"Feature","properties":{"business_id":"ohEnmKpF7i2_ujme1p_vUQ","name":"Cornish Pasty","categories":"Restaurants, British","state":"AZ","city":"Mesa","review_count":1213,"rank":2,"stars":4.5},"geometry":{"coordinates":[-111.876147,33.362838],"type":"Point"}}
{"type":"Feature","properties":{"business_id":"LYgAf_vpMQU6JqBcTXg-Sw","name":"Bobby Q - Mesa","categories":"Burgers, Barbeque, American (New), Restaurants, Gluten-Free","state":"AZ","city":"Mesa","review_count":1185,"rank":3,"stars":4.5},"geometry":{"coordinates":[-111.8061349,33.3850902],"type":"Point"}}
{"type":"Feature","properties":{"business_id":"BbVvT3E_y9TZpzTtIpXNkw","name":"Juicetown Jailhouse","categories":"Food, Juice Bars & Smoothies, Food Trucks","state":"AZ","city":"Metro Phoenix","review_count":14,"rank":1,"stars":4.0},"geometry":{"coordinates":[-111.92615,33.4872628],"type":"Point"}}
{"type":"Feature","properties":{"business_id":"IGs9SsR-ZjhszZuArhttLQ","name":"Fat Head's Brewery","categories":"Beer Tours, Tours, Breweries, Food, Hotels & Travel","state":"OH","city":"Middleburg Heights","review_count":290,"rank":1,"stars":4.0},"geometry":{"coordinates":[-81.821292,41.377702],"type":"Point"}}
{"type":"Feature","properties":{"business_id":"DGK2scJteV6vyvJ2xeOYag","name":"Brew Garden","categories":"Bars, Sports Bars, Food, Beer Gardens, Nightlife, Smokehouse","state":"OH","city":"Middleburg Heights","review_count":126,"rank":2,"stars":2.5},"geometry":{"coordinates":[-81.831286,41.372573],"type":"Point"}}
{"type":"Feature","properties":{"business_id":"UDiMCb4LKowlozI5mhtO_A","name":"Rivals Sports Grille","categories":"American (New), Bars, Sports Bars, Nightlife, American (Traditional), Restaurants","state":"OH","city":"Middleburg Heights","review_count":115,"rank":3,"stars":4.0},"geometry":{"coordinates":[-81.8046297,41.3853645],"type":"Point"}}
{"type":"Feature","properties":{"business_id":"XokFheZVsMVer_VJITQAHw","name":"El Vaquero","categories":"Restaurants, Mexican","state":"NC","city":"Locust","review_count":44,"rank":1,"stars":4.0},"geometry":{"coordinates":[-80.4596612,35.2561107],"type":"Point"}}
{"type":"Feature","properties":{"business_id":"CpDjYQh3yCbDuH6idbGV1g","name":"Tailgator's Sports Grill","categories":"Bars, Sports Bars, Nightlife, Restaurants, American (Traditional)","state":"NC","city":"Locust","review_count":32,"rank":2,"stars":2.5},"geometry":{"coordinates":[-80.4527612,35.255525],"type":"Point"}}
{"type":"Feature","properties":{"business_id":"SiGyWGhxJQmD0OX9DHe7XA","name":"The Daily Grind Coffeehouse","categories":"Coffee & Tea, Food","state":"NC","city":"Locust","review_count":21,"rank":3,"stars":4.0},"geometry":{"coordinates":[-80.452506,35.255654],"type":"Point"}}
{"type":"Feature","properties":{"business_id":"eargTRIm9QK2Og4y3qouYQ","name":"Le Péché Matinal","categories":"Gluten-Free, Breakfast & Brunch, Restaurants","state":"QC","city":"Longueuil","review_count":56,"rank":1,"stars":4.5},"geometry":{"coordinates":[-73.51223,45.536997],"type":"Point"}}
{"type":"Feature","properties":{"business_id":"IFlUDCzCdyNzO9I0ZMJB6w","name":"L'Gros Luxe","categories":"Sandwiches, Burgers, Cocktail Bars, Breakfast & Brunch, Bars, Canadian (New), Cafes, Restaurants, Nightlife","state":"QC","city":"Longueuil","review_count":26,"rank":2,"stars":3.0},"geometry":{"coordinates":[-73.51042,45.538108],"type":"Point"}}
{"type":"Feature","properties":{"business_id":"nm4abb_14L3y0TBizNgq7A","name":"Comme par Hasard","categories":"Restaurants, Comfort Food, French","state":"QC","city":"Longueuil","review_count":20,"rank":3,"stars":4.0},"geometry":{"coordinates":[-73.509938,45.537746],"type":"Point"}}
{"type":"Feature","properties":{"business_id":"NsF54LE_cc0OhFGPVkwDJw","name":"Jackalope Lakeside","categories":"American (New), Restaurants, Seafood, American (Traditional)","state":"OH","city":"Lorain","review_count":92,"rank":1,"stars":3.0},"geometry":{"coordinates":[-82.174125,41.4731165],"type":"Point"}}
{"type":"Feature","properties":{"business_id":"dOEMnyvSk8njKJfqsDaqMA","name":"Diso's Bistro","categories":"Restaurants, American (New)","state":"OH","city":"Lorain","review_count":62,"rank":2,"stars":4.5},"geometry":{"coordinates":[-82.1860421,41.4322877],"type":"Point"}}
{"type":"Feature","properties":{"business_id":"zm8u9z2KCwEkNiCD59UQ3Q","name":"Brown Bag Burgers & Beer","categories":"Restaurants, Salad, Desserts, Beer Bar, Bars, Nightlife, Burgers, Food","state":"OH","city":"Lorain","review_count":51,"rank":3,"stars":4.0},"geometry":{"coordinates":[-82.2045400912,41.4282153355],"type":"Point"}}
{"type":"Feature","properties":{"business_id":"J_NA-_WNLAJQg7eZwn1dWw","name":"Sesame Inn","categories":"Chinese, Restaurants","state":"PA","city":"Mc Murray","review_count":52,"rank":1,"stars":3.5},"geometry":{"coordinates":[-80.1013775,40.2950002],"type":"Point"}}
{"type":"Feature","properties":{"business_id":"Gz76BIuluMYH2Z7ZyZljMA","name":"Pizzaz Italian Restaurant","categories":"Pizza, Italian, Restaurants","state":"PA","city":"Mc Murray","review_count":33,"rank":2,"stars":3.0},"geometry":{"coordinates":[-80.098078,40.302145],"type":"Point"}}
{"type":"Feature","properties":{"business_id":"LLGCa1g8owtW7xa0BbKDug","name":"Mm! Mm! Pizza","categories":"Pizza, Restaurants","state":"PA","city":"Mc Murray","review_count":15,"rank":3,"stars":3.5},"geometry":{"coordinates":[-80.1226631,40.2802968],"type":"Point"}}
{"type":"Feature","properties":{"business_id":"_sUPPLcw7U1FrNSQ0_r6zg","name":"The McAdenville Table & Market","categories":"Cocktail Bars, Food, Bars, Beer, Wine & Spirits, Restaurants, American (New), Nightlife","state":"NC","city":"McAdenville","review_count":74,"rank":1,"stars":4.0},"geometry":{"coordinates":[-81.0773259401,35.258633],"type":"Point"}}
{"type":"Feature","properties":{"business_id":"-PO8-_JzzUw-vgpyqIq3sQ","name":"Terra Mia","categories":"Bars, Italian, Restaurants, Nightlife","state":"NC","city":"McAdenville","review_count":7,"rank":2,"stars":2.0},"geometry":{"coordinates":[-81.0774904,35.2586167],"type":"Point"}}
{"type":"Feature","properties":{"business_id":"w0sWslTe7kE4_GyjPgXAcQ","name":"Spruced Goose Station","categories":"Breakfast & Brunch, Food, Bakeries, Restaurants, Sandwiches","state":"NC","city":"McAdenville","review_count":6,"rank":3,"stars":4.5},"geometry":{"coordinates":[-81.0764968,35.2581016],"type":"Point"}}
{"type":"Feature","properties":{"business_id":"xqbezDPlrz4NyPL6B3DPUg","name":"Deer Creek Winery - McCandless","categories":"Food, Arts & Entertainment, Tasting Classes, Education, Wine Tasting Classes, Wineries, Shopping, Wine Tasting Room, Outlet Stores","state":"PA","city":"McCandless","review_count":9,"rank":1,"stars":3.5},"geometry":{"coordinates":[-80.0213975,40.5701329],"type":"Point"}}
{"type":"Feature","properties":{"business_id":"rk12aZmkYJGv-N6kFLey6Q","name":"Luciano's Pizza & Six Pack To Go","categories":"Italian, Food, Restaurants, Beer, Wine & Spirits, Pizza","state":"PA","city":"McCandless Township","review_count":80,"rank":1,"stars":3.5},"geometry":{"coordinates":[-80.0070468,40.5676073],"type":"Point"}}
{"type":"Feature","properties":{"business_id":"tPyKZPLJ-Wrm4CrEJbxFuA","name":"DiBella's Subs","categories":"Salad, Delis, Sandwiches, Restaurants, American (Traditional)","state":"PA","city":"McCandless Township","review_count":42,"rank":2,"stars":4.0},"geometry":{"coordinates":[-80.024298082,40.5692129916],"type":"Point"}}
{"type":"Feature","properties":{"business_id":"XxvYzyNvcMKo7aVEUI0fBg","name":"North Park Boathouse","categories":"Parks, Active Life, American (New), Sandwiches, Restaurants","state":"PA","city":"McCandless Township","review_count":11,"rank":3,"stars":4.5},"geometry":{"coordinates":[-80.0058962,40.6051199],"type":"Point"}}
{"type":"Feature","properties":{"business_id":"M4IDswLnQ8YeVxzYdWv_Qw","name":"Escudo Express","categories":"Restaurants, Portuguese","state":"QC","city":"Boisbriand","review_count":16,"rank":1,"stars":5.0},"geometry":{"coordinates":[-73.8142717257,45.6187961242],"type":"Point"}}
{"type":"Feature","properties":{"business_id":"-8AoSGOdZyDdTpT2oqX3zQ","name":"Jack Astor's Bar & Grill","categories":"American (Traditional), Pizza, Canadian (New), Bars, Restaurants, Nightlife, Burgers, Sports Bars","state":"QC","city":"Boisbriand","review_count":15,"rank":2,"stars":3.5},"geometry":{"coordinates":[-73.848171,45.628706],"type":"Point"}}
{"type":"Feature","properties":{"business_id":"WXtRzknCTnhsIBV2_7EZ3g","name":"La Belle et la Boeuf","categories":"Restaurants, Steakhouses, American (Traditional)","state":"QC","city":"Boisbriand","review_count":14,"rank":3,"stars":3.5},"geometry":{"coordinates":[-73.8481265775,45.6271693895],"type":"Point"}}
{"type":"Feature","properties":{"business_id":"zqF_OvUWK9mGHKouArn4EQ","name":"Hole-E-Burger Bar","categories":"Restaurants, Burgers","state":"ON","city":"Bolton","review_count":31,"rank":1,"stars":4.0},"geometry":{"coordinates":[-79.7101451,43.8587057],"type":"Point"}}
{"type":"Feature","properties":{"business_id":"hZrFndKcerOfDa3-APbIGQ","name":"Sushi Date","categories":"Restaurants, Food, Sushi Bars, Specialty Food","state":"ON","city":"Bolton","review_count":28,"rank":2,"stars":3.0},"geometry":{"coordinates":[-79.737271,43.8800983],"type":"Point"}}
{"type":"Feature","properties":{"business_id":"CI5CAJPfD2IpP_Znm1_KiA","name":"Sushi Hama","categories":"Japanese, Food, Sushi Bars, Restaurants, Food Delivery Services","state":"ON","city":"Bolton","review_count":24,"rank":3,"stars":3.5},"geometry":{"coordinates":[-79.7105158,43.8590727],"type":"Point"}}
{"type":"Feature","properties":{"business_id":"Vu_UPRDFFEptT2YXcVthkA","name":"Bond Head Family Restaurant & Pizzeria","categories":"Fish & Chips, Restaurants, Pizza, Sandwiches","state":"ON","city":"Bond Head","review_count":3,"rank":1,"stars":2.5},"geometry":{"coordinates":[-79.6767353,44.0897025],"type":"Point"}}
{"type":"Feature","properties":{"business_id":"juvlELvm29L6hO3gvDCRJg","name":"IKEA","categories":"Restaurants, Mattresses, Furniture Stores, Shopping, Home & Garden, Kitchen & Bath","state":"QC","city":"Boucherville","review_count":25,"rank":1,"stars":4.0},"geometry":{"coordinates":[-73.401138,45.57263],"type":"Point"}}
{"type":"Feature","properties":{"business_id":"03gM4aaiio6Hymf1HgfMeQ","name":"Lulu Bistro","categories":"Restaurants, Gastropubs","state":"QC","city":"Boucherville","review_count":17,"rank":2,"stars":4.0},"geometry":{"coordinates":[-73.430776,45.591864],"type":"Point"}}
{"type":"Feature","properties":{"business_id":"9XF1lIPA7EVw8n30gvSwUQ","name":"Sushi Hamachi","categories":"Restaurants, Japanese, Sushi Bars","state":"QC","city":"Boucherville","review_count":17,"rank":2,"stars":4.5},"geometry":{"coordinates":[-73.4394154,45.6110705],"type":"Point"}}
{"type":"Feature","properties":{"business_id":"FByZsT1Sob5Vf1AYJFPxPg","name":"Desi Masala","categories":"Indian, Pakistani, Restaurants","state":"XWY","city":"Leeds","review_count":5,"rank":1,"stars":4.5},"geometry":{"coordinates":[-79.3763454,43.6528212],"type":"Point"}}
{"type":"Feature","properties":{"business_id":"WB8BmFMORvshjb7tBw0e0Q","name":"Azul Bar Y Cantina","categories":"Mexican, Restaurants","state":"PA","city":"Leetsdale","review_count":151,"rank":1,"stars":3.5},"geometry":{"coordinates":[-80.2102528,40.5664905],"type":"Point"}}
{"type":"Feature","properties":{"business_id":"Y6ujotEhfTZd2JPZmsQ-Ow","name":"Mike's Place","categories":"Nightlife, American (Traditional), Beer, Wine & Spirits, Sports Bars, Bars, Italian, Pizza, Restaurants, American (New), Food","state":"PA","city":"Leetsdale","review_count":16,"rank":2,"stars":4.0},"geometry":{"coordinates":[-80.2098654,40.5623645],"type":"Point"}}
{"type":"Feature","properties":{"business_id":"php_sWMWyXs7Qi5UyTUrLg","name":"Asian Star","categories":"Pan Asian, Asian Fusion, Restaurants, Food, Specialty Food, Ethnic Food, Chinese","state":"PA","city":"Leetsdale","review_count":16,"rank":2,"stars":3.5},"geometry":{"coordinates":[-80.205455,40.559405],"type":"Point"}}
{"type":"Feature","properties":{"business_id":"wp4_fzgPHKqJX8k4eedcvw","name":"Pizza Hut","categories":"Chicken Wings, Restaurants, Pizza, Italian","state":"CA","city":"Lemon Grove","review_count":59,"rank":1,"stars":2.0},"geometry":{"coordinates":[-117.0236004889,32.7424426303],"type":"Point"}}
{"type":"Feature","properties":{"business_id":"oHI9n_ocZyzuQgXlr2GUAQ","name":"Pizza Papa Gerald","categories":"Pizza, Restaurants","state":"QC","city":"Les Coteaux","review_count":3,"rank":1,"stars":5.0},"geometry":{"coordinates":[-74.21454,45.2584155],"type":"Point"}}
{"type":"Feature","properties":{"business_id":"0_NctIcWd5i3hHqUczifOQ","name":"Deux Grains Au Moulin","categories":"Cafes, Restaurants","state":"QC","city":"Les Cèdres","review_count":3,"rank":1,"stars":4.5},"geometry":{"coordinates":[-74.0569203,45.3081498],"type":"Point"}}
{"type":"Feature","properties":{"business_id":"v6S761fLfZGRGTywr3GIOw","name":"Avling Kitchen & Brewery","categories":"Restaurants, Food, Breweries, Brewpubs","state":"ON","city":"Leslieville","review_count":18,"rank":1,"stars":4.5},"geometry":{"coordinates":[-79.3381067,43.6616012],"type":"Point"}}
{"type":"Feature","properties":{"business_id":"XOvQUSHUjE0KkUuwDUR5OA","name":"Gil's Cafe","categories":"Restaurants, American (New)","state":"PA","city":"Library","review_count":30,"rank":1,"stars":3.5},"geometry":{"coordinates":[-79.9973014,40.2909535],"type":"Point"}}
{"type":"Feature","properties":{"business_id":"UCwBfHy7YpYJdzoeYDCSqw","name":"Castle Tavern South","categories":"Restaurants, American (Traditional)","state":"PA","city":"Library","review_count":24,"rank":2,"stars":3.0},"geometry":{"coordinates":[-80.0283573,40.2913918],"type":"Point"}}
{"type":"Feature","properties":{"business_id":"6yGSXuQdqsLiOZkOmd1Jsg","name":"Hot Shots South Park Saloon","categories":"American (Traditional), Sports Bars, Bars, Nightlife, Restaurants","state":"PA","city":"Library","review_count":15,"rank":3,"stars":4.0},"geometry":{"coordinates":[-80.0197939,40.2864121],"type":"Point"}}
{"type":"Feature","properties":{"business_id":"JEM6eUFkt-DlCSWARmkzrg","name":"Chuck E. Cheese's","categories":"Pizza, Restaurants, Event Planning & Services, Party & Event Planning, Arts & Entertainment, Active Life, Indoor Playcentre, Arcades, Kids Activities","state":"ON","city":"Willowdale","review_count":12,"rank":1,"stars":2.5},"geometry":{"coordinates":[-79.4019882,43.7635263],"type":"Point"}}
{"type":"Feature","properties":{"business_id":"3QTz9p2XKBBYhM2m2FjmgQ","name":"Brioche Dorée","categories":"Coffee & Tea, Food, Bakeries","state":"ON","city":"Willowdale","review_count":8,"rank":2,"stars":4.0},"geometry":{"coordinates":[-79.416364,43.7801678],"type":"Point"}}
{"type":"Feature","properties":{"business_id":"owwyD-STlSkH7U3NXMVJDg","name":"McDonald's","categories":"Restaurants, Burgers, Fast Food, Coffee & Tea, Food","state":"ON","city":"Willowdale","review_count":7,"rank":3,"stars":1.5},"geometry":{"coordinates":[-79.4466315,43.7899167],"type":"Point"}}
{"type":"Feature","properties":{"business_id":"AEoWScs-gYsXSUUmDbseFg","name":"The Cabin of Willowick","categories":"Seafood, Event Planning & Services, Sushi Bars, Party & Event Planning, Caterers, Restaurants, Steakhouses, American (Traditional), American (New), Diners","state":"OH","city":"Willowick","review_count":79,"rank":1,"stars":3.5},"geometry":{"coordinates":[-81.4836299,41.6291087],"type":"Point"}}
{"type":"Feature","properties":{"business_id":"3ropqVM-UMYXun6WGbi1hA","name":"Peties Family Restaurant","categories":"American (New), Restaurants","state":"OH","city":"Willowick","review_count":73,"rank":2,"stars":4.0},"geometry":{"coordinates":[-81.4746425,41.6359559],"type":"Point"}}
{"type":"Feature","properties":{"business_id":"NFTOaufaF6oHsshUROAp8g","name":"Dino's III","categories":"Italian, Pizza, Restaurants","state":"OH","city":"Willowick","review_count":48,"rank":3,"stars":4.0},"geometry":{"coordinates":[-81.4570418,41.6198188],"type":"Point"}}
{"type":"Feature","properties":{"business_id":"ZMH9VRSRdGsECRjxFYpLqA","name":"Johnny's Fine Italian Dining","categories":"Restaurants, Salad, Soup, Italian, American (Traditional)","state":"PA","city":"Wilmerding","review_count":33,"rank":1,"stars":3.0},"geometry":{"coordinates":[-79.8100605,40.3927887],"type":"Point"}}
{"type":"Feature","properties":{"business_id":"C2mqIEnUWeo1UOcW00nWtA","name":"Station Brake Cafe","categories":"Seafood, Sandwiches, Restaurants, Bars, Karaoke, American (Traditional), Nightlife, Lounges","state":"PA","city":"Wilmerding","review_count":16,"rank":2,"stars":4.0},"geometry":{"coordinates":[-79.8101944,40.3934655],"type":"Point"}}
{"type":"Feature","properties":{"business_id":"5gXk0hdWrnJ-4hwTL5cIcg","name":"Spitfirez Catering","categories":"Bartenders, Barbeque, Restaurants, Caterers, Event Planning & Services, Sandwiches, Food, Soup, Food Delivery Services","state":"PA","city":"Wilmerding","review_count":10,"rank":3,"stars":4.0},"geometry":{"coordinates":[-79.806074,40.395472],"type":"Point"}}
{"type":"Feature","properties":{"business_id":"7Z6TqwoJLfmHQoPIMhKq2w","name":"Cooper's CSA Farm & Maze","categories":"Local Flavor, Food, Playgrounds, Active Life, Farmers Market","state":"ON","city":"Zephyr","review_count":6,"rank":1,"stars":3.5},"geometry":{"coordinates":[-79.2542552948,44.1450767119],"type":"Point"}}
{"type":"Feature","properties":{"business_id":"kKSRP5M_62fssd0kVJvBcQ","name":"Food Truck Caravan and Events","categories":"Food, Food Trucks, Caterers, Event Planning & Services, Nightlife, Restaurants, Food Court","state":"AZ","city":"cave creek","review_count":28,"rank":1,"stars":4.0},"geometry":{"coordinates":[-111.9507042,33.8333716],"type":"Point"}}
{"type":"Feature","properties":{"business_id":"ZirBQMRrUeLd_wX_LaEHOw","name":"Murphy's Kitchen & Tap","categories":"Bars, Nightlife, Chicken Wings, American (Traditional), Breakfast & Brunch, Irish Pub, American (New), Pubs, Restaurants, Irish","state":"NC","city":"charlotte","review_count":138,"rank":1,"stars":4.5},"geometry":{"coordinates":[-80.8472118527,35.2302322317],"type":"Point"}}
{"type":"Feature","properties":{"business_id":"eWF8o2dC8_Udhe5BWFfPOw","name":"The Kirtland Diner","categories":"Diners, Restaurants","state":"OH","city":"kirtland","review_count":16,"rank":1,"stars":3.5},"geometry":{"coordinates":[-81.3585984,41.621002],"type":"Point"}}
{"type":"Feature","properties":{"business_id":"doXuhA5P3SwoTFi9zAGE6A","name":"Mimi Forno Italiano","categories":"Pizza, Restaurants, Italian","state":"AZ","city":"laveen","review_count":219,"rank":1,"stars":4.5},"geometry":{"coordinates":[-112.1368136,33.3789714],"type":"Point"}}
{"type":"Feature","properties":{"business_id":"61BtQLwM5QPI9taQ20owVA","name":"Black Box Fix","categories":"Food, Restaurants, Specialty Food, Food Delivery Services, Sandwiches, Ethnic Food, Event Planning & Services, Burgers, Caterers","state":"OH","city":"lyndhurst","review_count":174,"rank":1,"stars":4.0},"geometry":{"coordinates":[-81.5014104,41.5032885],"type":"Point"}}
{"type":"Feature","properties":{"business_id":"RxcTHjsaDc0h82nk2Qc1PA","name":"Sunny Asian Food","categories":"Food, Herbs & Spices, Specialty Food, Farmers Market, Indian, Food Court, Grocery, Restaurants, International Grocery, Pan Asian","state":"OH","city":"solon","review_count":14,"rank":1,"stars":4.5},"geometry":{"coordinates":[-81.4410019,41.386254],"type":"Point"}}
{"type":"Feature","properties":{"business_id":"2xmZgzxGAFRvMEcbmXvBng","name":"Issi's Place","categories":"Vegetarian, Sushi Bars, Restaurants, Pizza, Salad","state":"OH","city":"south Euclid","review_count":4,"rank":1,"stars":5.0},"geometry":{"coordinates":[-81.5202619135,41.5017231245],"type":"Point"}}
{"type":"Feature","properties":{"business_id":"Tj2vAGe-VW5iVCZxQ-GZWg","name":"McDonald's","categories":"Restaurants, Burgers, Fast Food, Food, Coffee & Tea","state":"QC","city":"Île-Perrot","review_count":8,"rank":1,"stars":2.0},"geometry":{"coordinates":[-73.964009,45.389704],"type":"Point"}}
{"type":"Feature","properties":{"business_id":"mPuJAD2dEw3Wax-JlUnEBw","name":"Sushi Shop","categories":"Sushi Bars, Restaurants, Food, Poke","state":"QC","city":"Île-des-Soeurs","review_count":5,"rank":1,"stars":3.0},"geometry":{"coordinates":[-73.5430713,45.4685474],"type":"Point"}}
{"type":"Feature","properties":{"business_id":"rpK_kvpIoz-j-V-Nmn83mg","name":"Sharon James Winery","categories":"Arts & Entertainment, Wineries, Wine Bars, Food, Bars, Nightlife","state":"OH","city":"Geauga","review_count":13,"rank":1,"stars":4.0},"geometry":{"coordinates":[-81.2358734,41.4623737],"type":"Point"}}
{"type":"Feature","properties":{"business_id":"gyd70g-KwWuo0ogdatiabA","name":"Ellas Tavern","categories":"Restaurants, American (New), Bars, Dive Bars, Nightlife","state":"AZ","city":"Gelndale","review_count":9,"rank":1,"stars":3.0},"geometry":{"coordinates":[-112.2382420238,33.5381352653],"type":"Point"}}
{"type":"Feature","properties":{"business_id":"xp_3WHJDdWVlAQfRkRUuag","name":"Hungry Hollow Smokehouse & Grille","categories":"Smokehouse, Food, Caterers, Southern, Event Planning & Services, Restaurants, Barbeque","state":"ON","city":"Georgetown","review_count":64,"rank":1,"stars":4.0},"geometry":{"coordinates":[-79.9120616913,43.6502055414],"type":"Point"}}
{"type":"Feature","properties":{"business_id":"dIJ2YQqf8W9V9P_OKhlv6A","name":"The Mess Hall Poutinerie","categories":"Fast Food, Restaurants, Food, Canadian (New), Poutineries, Specialty Food","state":"ON","city":"Georgetown","review_count":36,"rank":2,"stars":4.5},"geometry":{"coordinates":[-79.9103278,43.6503002],"type":"Point"}}
{"type":"Feature","properties":{"business_id":"f9U5b9iwLhpmW-MGUij0_Q","name":"Yoyo Japanese Restaurant","categories":"Japanese, Restaurants","state":"ON","city":"Georgetown","review_count":25,"rank":3,"stars":4.5},"geometry":{"coordinates":[-79.8827046,43.6484851],"type":"Point"}}
{"type":"Feature","properties":{"business_id":"zaQWCvCcNj8HI4YcfLzmgw","name":"Narcisi Winery","categories":"Wine Tasting Room, Arts & Entertainment, Food, Wineries, Restaurants, Flowers & Gifts, Shopping, Italian, Gift Shops","state":"PA","city":"Gibsonia","review_count":156,"rank":1,"stars":3.5},"geometry":{"coordinates":[-79.8944464195,40.6094286205],"type":"Point"}}
{"type":"Feature","properties":{"business_id":"XT3dn-9UsGhiEy-_ZU_M_Q","name":"Barrel Junction","categories":"Nightlife, Food, Bars, Restaurants, Comfort Food, Sports Bars, Barbeque, Burgers","state":"PA","city":"Gibsonia","review_count":85,"rank":2,"stars":4.0},"geometry":{"coordinates":[-79.93983,40.633089],"type":"Point"}}
{"type":"Feature","properties":{"business_id":"uRNQ4z2QQPX7tqWpMjiuTw","name":"Emiliano's Mexican Restaurant","categories":"Mexican, Restaurants, Nightlife, Bars","state":"PA","city":"Gibsonia","review_count":83,"rank":3,"stars":3.5},"geometry":{"coordinates":[-79.9485481,40.6195723],"type":"Point"}}
{"type":"Feature","properties":{"business_id":"Dl3ty7Rt2WeBIAUoBF0EXg","name":"Stash Café","categories":"Restaurants, Polish","state":"QC","city":"Montreal","review_count":321,"rank":1,"stars":4.5},"geometry":{"coordinates":[-73.555256,45.502654],"type":"Point"}}
{"type":"Feature","properties":{"business_id":"gYAM9MZ_s-YKIUZSZ2Evyg","name":"Les 3 Brasseurs","categories":"Breweries, Bars, Food, French, Nightlife, Gastropubs, Restaurants, Pubs, Brasseries","state":"QC","city":"Montreal","review_count":298,"rank":2,"stars":3.0},"geometry":{"coordinates":[-73.570661,45.502125],"type":"Point"}}
{"type":"Feature","properties":{"business_id":"VqT-IURXmVS_fVRLTKxTFQ","name":"Cacao 70","categories":"Specialty Food, Desserts, Chocolatiers & Shops, Food, Canadian (New), Cafes, American (New), Restaurants, Breakfast & Brunch","state":"QC","city":"Montreal","review_count":272,"rank":3,"stars":4.0},"geometry":{"coordinates":[-73.582297,45.491476],"type":"Point"}}
{"type":"Feature","properties":{"business_id":"-OJpWcHRLoC_cHI6zNp73g","name":"Pizzarella Restaurant","categories":"Pizza, Restaurants","state":"QC","city":"Montreal-Est","review_count":5,"rank":1,"stars":3.5},"geometry":{"coordinates":[-73.5552268,45.6425628],"type":"Point"}}
{"type":"Feature","properties":{"business_id":"Fe7BcdqP3TdAFkEdZSD1DA","name":"Chez Ma Tante","categories":"Hot Dogs, Poutineries, Restaurants","state":"QC","city":"Montreal-Nord","review_count":27,"rank":1,"stars":4.0},"geometry":{"coordinates":[-73.6438685,45.57946],"type":"Point"}}
{"type":"Feature","properties":{"business_id":"6KyDIOGT9EAzq1w4kb77ow","name":"Da Bologna","categories":"Restaurants, Pizza, Fast Food, Italian","state":"QC","city":"Montreal-Nord","review_count":17,"rank":2,"stars":4.5},"geometry":{"coordinates":[-73.6247307,45.6003202],"type":"Point"}}
{"type":"Feature","properties":{"business_id":"4ClHZF8c1gyik0TPJ9K9OQ","name":"Casserole Kréole","categories":"Caribbean, Haitian, Restaurants","state":"QC","city":"Montreal-Nord","review_count":7,"rank":3,"stars":4.5},"geometry":{"coordinates":[-73.6307483,45.5968355],"type":"Point"}}
{"type":"Feature","properties":{"business_id":"Atqif5vTX33z57TQiynAZA","name":"Pâtisserie de la Gare","categories":"Food, Bakeries, Tea Rooms, Event Planning & Services, Caterers","state":"QC","city":"Montreal-Ouest","review_count":9,"rank":1,"stars":2.0},"geometry":{"coordinates":[-73.6451752,45.4526861],"type":"Point"}}
{"type":"Feature","properties":{"business_id":"I725elRtUai4W-0cTwDoJQ","name":"Pasteizza","categories":"Salad, Pizza, Restaurants","state":"QC","city":"Montreal-Ouest","review_count":7,"rank":2,"stars":3.5},"geometry":{"coordinates":[-73.6453847589,45.4530189886],"type":"Point"}}
{"type":"Feature","properties":{"business_id":"8py_ay7vlYg1GV4Jgk-Kvg","name":"Emma’s","categories":"Bakeries, Food, Ice Cream & Frozen Yogurt","state":"QC","city":"Montreal-Ouest","review_count":4,"rank":3,"stars":4.0},"geometry":{"coordinates":[-73.6472573,45.453444],"type":"Point"}}
{"type":"Feature","properties":{"business_id":"WGV6afEYSOE1kzh_v8pO5Q","name":"Brasserie Artisanale Albion","categories":"Breweries, Food, Bars, Nightlife","state":"QC","city":"Joliette","review_count":6,"rank":1,"stars":4.5},"geometry":{"coordinates":[-73.4393760189,46.0253429673],"type":"Point"}}
{"type":"Feature","properties":{"business_id":"YDD-Z1mNCHsNegYBpBAbNw","name":"Brulerie du Roy","categories":"Coffee & Tea, Restaurants, Breakfast & Brunch, Food, Sandwiches, Cafes","state":"QC","city":"Joliette","review_count":6,"rank":1,"stars":4.0},"geometry":{"coordinates":[-73.4397881,46.025426],"type":"Point"}}
{"type":"Feature","properties":{"business_id":"SY-tkMJOgHqgbUd1tD-yBQ","name":"Restaurant Cambodiana","categories":"Asian Fusion, Restaurants, Vietnamese, Thai","state":"QC","city":"Joliette","review_count":3,"rank":3,"stars":4.5},"geometry":{"coordinates":[-73.437797,46.023012],"type":"Point"}}
{"type":"Feature","properties":{"business_id":"oJB2cOkhYZeb16C7FhuAsg","name":"Restaurant La Belle Excuse","categories":"Restaurants","state":"QC","city":"Joliette","review_count":3,"rank":3,"stars":5.0},"geometry":{"coordinates":[-73.441948,46.025038],"type":"Point"}}
{"type":"Feature","properties":{"business_id":"_NrL-yPTPgjcxvyjj1vCIA","name":"Tekka Sushi","categories":"Restaurants, Sushi Bars","state":"QC","city":"Joliette","review_count":3,"rank":3,"stars":3.5},"geometry":{"coordinates":[-73.438382,46.024605],"type":"Point"}}
{"type":"Feature","properties":{"business_id":"JYzzraHxJZy5atvx2hW0Uw","name":"The Rail Coal Fire Bistro","categories":"Food, Chicken Wings, Beer, Wine & Spirits, Breakfast & Brunch, Burgers, Restaurants, Pizza, Mediterranean","state":"QC","city":"Kahnawake","review_count":15,"rank":1,"stars":4.5},"geometry":{"coordinates":[-73.706163,45.37703],"type":"Point"}}
{"type":"Feature","properties":{"business_id":"2h2qW4-rLr2dahfSL6oDaw","name":"Robbie's","categories":"Burgers, Restaurants, Steakhouses","state":"QC","city":"Kahnawake","review_count":11,"rank":2,"stars":4.0},"geometry":{"coordinates":[-73.706218,45.375823],"type":"Point"}}
{"type":"Feature","properties":{"business_id":"-MGDuIAhmU8N9vO0WC7Bvw","name":"Playground Poker Club","categories":"Arts & Entertainment, Casinos, Performing Arts, Nightlife, Music Venues","state":"QC","city":"Kahnawake","review_count":5,"rank":3,"stars":4.5},"geometry":{"coordinates":[-73.706358,45.376836],"type":"Point"}}
{"type":"Feature","properties":{"business_id":"JZGObzUxfOsotOkp1pecdQ","name":"Crispys Bar and Grill","categories":"American (Traditional), Food, Beer, Wine & Spirits, American (New), Pubs, Nightlife, Bars, Restaurants","state":"NC","city":"Kannapolis","review_count":150,"rank":1,"stars":4.5},"geometry":{"coordinates":[-80.6008656465,35.4499762479],"type":"Point"}}
{"type":"Feature","properties":{"business_id":"TDFNuRJ_45hW18mu-V12JQ","name":"El Amigo Mexican Restaurant","categories":"Mexican, Restaurants","state":"NC","city":"Kannapolis","review_count":73,"rank":2,"stars":4.0},"geometry":{"coordinates":[-80.611313,35.4698293],"type":"Point"}}
{"type":"Feature","properties":{"business_id":"ebncQzjSDKXfB26b0t9pDw","name":"Forty-Six","categories":"Food, Breakfast & Brunch, Restaurants, Diners, Seafood, American (New)","state":"NC","city":"Kannapolis","review_count":62,"rank":3,"stars":4.0},"geometry":{"coordinates":[-80.624986,35.498195],"type":"Point"}}
{"type":"Feature","properties":{"business_id":"4m7JeLnlv69jgC2nenPiPQ","name":"North Star Restaurant","categories":"Restaurants, Pizza, American (Traditional)","state":"PA","city":"McDonald","review_count":18,"rank":1,"stars":3.5},"geometry":{"coordinates":[-80.262913,40.431379],"type":"Point"}}
{"type":"Feature","properties":{"business_id":"oV9_slU6cQnVxhYj_6ZYdw","name":"Valentour's Family Restaurant and Pub","categories":"Italian, Bars, Pubs, Nightlife, Restaurants","state":"PA","city":"McDonald","review_count":16,"rank":2,"stars":4.0},"geometry":{"coordinates":[-80.2351537,40.3683156],"type":"Point"}}
{"type":"Feature","properties":{"business_id":"YJA8z0m0B8K9zQrmBoHaeA","name":"MA's Ice Cream Shop","categories":"Food, Ice Cream & Frozen Yogurt","state":"PA","city":"McDonald","review_count":8,"rank":3,"stars":5.0},"geometry":{"coordinates":[-80.2373157,40.3677415],"type":"Point"}}
{"type":"Feature","properties":{"business_id":"aYE-oZFvSOHsyAtcpf0frQ","name":"Palenque Mexican Bar & Grill","categories":"Restaurants, Mexican","state":"WI","city":"McFarland","review_count":75,"rank":1,"stars":4.5},"geometry":{"coordinates":[-89.3030575,43.0142636],"type":"Point"}}
{"type":"Feature","properties":{"business_id":"H8mq-5oLkF9jlfyYi3vvOw","name":"Maple Tree Supper Club","categories":"American (Traditional), Supper Clubs, Restaurants, Sandwiches, Breakfast & Brunch","state":"WI","city":"McFarland","review_count":46,"rank":2,"stars":3.5},"geometry":{"coordinates":[-89.3038259,43.0124836],"type":"Point"}}
{"type":"Feature","properties":{"business_id":"ix-CkoFcqTX7hi62ZqGXJQ","name":"Angelo's","categories":"Italian, Restaurants, Pizza","state":"WI","city":"McFarland","review_count":43,"rank":3,"stars":4.5},"geometry":{"coordinates":[-89.301829,43.013609],"type":"Point"}}
{"type":"Feature","properties":{"business_id":"Mem13A3C202RzT53npn4NA","name":"Pierogies Plus","categories":"Polish, Event Planning & Services, Restaurants, Caterers","state":"PA","city":"McKees Rocks","review_count":81,"rank":1,"stars":4.5},"geometry":{"coordinates":[-80.0599363,40.4688708],"type":"Point"}}
{"type":"Feature","properties":{"business_id":"s_CFR6l-ecfGZ3tw16PJDQ","name":"Doughboy's Pizza","categories":"Restaurants, Chicken Wings, Italian, Pizza","state":"PA","city":"McKees Rocks","review_count":76,"rank":2,"stars":4.0},"geometry":{"coordinates":[-80.0604534,40.4709595],"type":"Point"}}
{"type":"Feature","properties":{"business_id":"T96EG2iK3ZSv9ACiSFw4cw","name":"Fuji Sushi & Grill","categories":"Restaurants, Sushi Bars","state":"PA","city":"McKees Rocks","review_count":59,"rank":3,"stars":3.5},"geometry":{"coordinates":[-80.1461382564,40.4440194463],"type":"Point"}}
{"type":"Feature","properties":{"business_id":"Or7FgbgY8ML30zgYj_DCwA","name":"Made In Mexico","categories":"Restaurants, Mexican","state":"ON","city":"Newmarket","review_count":211,"rank":1,"stars":3.5},"geometry":{"coordinates":[-79.4573212,44.0536911],"type":"Point"}}
{"type":"Feature","properties":{"business_id":"PAZC7ENEmDDgNMZngJSxxg","name":"Hungry Brew Hops","categories":"Gastropubs, Restaurants, Pubs, Beer, Wine & Spirits, Bars, Nightlife, Food","state":"ON","city":"Newmarket","review_count":166,"rank":2,"stars":4.0},"geometry":{"coordinates":[-79.4568744,44.053022],"type":"Point"}}
{"type":"Feature","properties":{"business_id":"DX88zzF2uG63hDZavRDJDQ","name":"Ground Burger Bar","categories":"Beer, Wine & Spirits, Food, Burgers, Restaurants","state":"ON","city":"Newmarket","review_count":131,"rank":3,"stars":4.0},"geometry":{"coordinates":[-79.4555359685,44.0522862359],"type":"Point"}}
{"type":"Feature","properties":{"business_id":"_bKlU11Ehew_wAntByYGRA","name":"Chip+Malt","categories":"Seafood, Burgers, Restaurants, Fish & Chips, British","state":"ON","city":"Newmarket","review_count":131,"rank":3,"stars":4.5},"geometry":{"coordinates":[-79.4571837479,44.0532620707],"type":"Point"}}
{"type":"Feature","properties":{"business_id":"pdGbbysWAjxHtyXePV1oHQ","name":"Cappuccino Bakery","categories":"Restaurants, Bakeries, Italian, Food","state":"ON","city":"Nobleton","review_count":22,"rank":1,"stars":3.0},"geometry":{"coordinates":[-79.6527885,43.9022007],"type":"Point"}}
{"type":"Feature","properties":{"business_id":"W4szEjTd3IQ8kipsh283zQ","name":"Raffaele's Cantina","categories":"Italian, Restaurants","state":"ON","city":"Nobleton","review_count":15,"rank":2,"stars":3.5},"geometry":{"coordinates":[-79.6523706427,43.9020233178],"type":"Point"}}
{"type":"Feature","properties":{"business_id":"sDwwMNFTwYybM4FD26hVNQ","name":"Misoya Sushi","categories":"Japanese, Restaurants, Sushi Bars","state":"ON","city":"Nobleton","review_count":13,"rank":3,"stars":4.0},"geometry":{"coordinates":[-79.6491016092,43.9027176034],"type":"Point"}}
{"type":"Feature","properties":{"business_id":"H6ojJjHSxNIhuLhHnAoKYQ","name":"Smoke's Poutinerie","categories":"Restaurants, Poutineries","state":"ON","city":"North  York","review_count":11,"rank":1,"stars":2.5},"geometry":{"coordinates":[-79.4107932,43.7593403],"type":"Point"}}
{"type":"Feature","properties":{"business_id":"A-FEhlzyCp0E7Ryxqq97fA","name":"Najat's Cuisine Authentic Lebanese Food","categories":"Middle Eastern, Restaurants, Lebanese","state":"PA","city":"North Braddock","review_count":3,"rank":1,"stars":3.5},"geometry":{"coordinates":[-79.8392375,40.4051248],"type":"Point"}}
{"type":"Feature","properties":{"business_id":"8S_6ltVRDCXp58xAAlVPAw","name":"Starbucks","categories":"Food, Coffee & Tea","state":"NC","city":"North Charlotte","review_count":15,"rank":1,"stars":3.5},"geometry":{"coordinates":[-80.850626,35.35248],"type":"Point"}}
{"type":"Feature","properties":{"business_id":"8HrPdEsrS1IlbYnARhUscg","name":"Cidrerie Michel Jodoin","categories":"Food, Local Flavor, Cideries, Beer, Wine & Spirits","state":"QC","city":"Rougemont","review_count":5,"rank":1,"stars":5.0},"geometry":{"coordinates":[-73.0377709852,45.4566533055],"type":"Point"}}
{"type":"Feature","properties":{"business_id":"f5Pg89x-2xek78E9KHMhNg","name":"Lakeside Coffee","categories":"Sandwiches, Restaurants, Salad, Coffee & Tea, Food","state":"NY","city":"Rouses Point","review_count":22,"rank":1,"stars":4.5},"geometry":{"coordinates":[-73.3641541,44.9931808],"type":"Point"}}
{"type":"Feature","properties":{"business_id":"BmZu5ackYYCrgQIaJ3-r9A","name":"Angelo's Pizza & Grill","categories":"American (Traditional), Pizza, Italian, Restaurants, Breakfast & Brunch","state":"NY","city":"Rouses Point","review_count":21,"rank":2,"stars":3.0},"geometry":{"coordinates":[-73.3683259164,44.9832840757],"type":"Point"}}
{"type":"Feature","properties":{"business_id":"6ipr7nnwrzf_o3MGD-8nlA","name":"Gino's Pizza","categories":"Restaurants, Pizza","state":"NY","city":"Rouses Point","review_count":17,"rank":3,"stars":4.5},"geometry":{"coordinates":[-73.3657087,44.9958866],"type":"Point"}}
{"type":"Feature","properties":{"business_id":"7w2Z3pA5hahdmuA40kauBg","name":"Adonis","categories":"Specialty Food, Grocery, Meat Shops, Fruits & Veggies, Food","state":"QC","city":"Roxboro","review_count":12,"rank":1,"stars":3.0},"geometry":{"coordinates":[-73.814233,45.501725],"type":"Point"}}
{"type":"Feature","properties":{"business_id":"pmRVru2mRapVGSDUFszM2A","name":"Masaya","categories":"Mediterranean, Restaurants","state":"QC","city":"Roxboro","review_count":3,"rank":2,"stars":2.0},"geometry":{"coordinates":[-73.8109387715,45.5105342271],"type":"Point"}}
{"type":"Feature","properties":{"business_id":"zza5aje9ElBdWOO3Qtfk_Q","name":"Janette's Spicy Island","categories":"Caribbean, Restaurants","state":"QC","city":"Roxboro","review_count":3,"rank":2,"stars":5.0},"geometry":{"coordinates":[-73.8065088,45.5103907],"type":"Point"}}
{"type":"Feature","properties":{"business_id":"glKJGrTjFFky9USreDxUaA","name":"Elwood's Pub","categories":"Bars, Food, Nightlife, American (Traditional), Pubs, Beer, Wine & Spirits, Restaurants, Gastropubs","state":"PA","city":"Rural Ridge","review_count":21,"rank":1,"stars":4.5},"geometry":{"coordinates":[-79.8279636,40.5892428],"type":"Point"}}
{"type":"Feature","properties":{"business_id":"_AqONUa91mBuuxS4bgSRBA","name":"Deer Creek Diner","categories":"American (New), Restaurants","state":"PA","city":"Russellton","review_count":46,"rank":1,"stars":4.5},"geometry":{"coordinates":[-79.8326944,40.617626],"type":"Point"}}
{"type":"Feature","properties":{"business_id":"j65Mnw8aFJkYgkt_UR5BOw","name":"Matt's Sub Shack and Pizza","categories":"Restaurants, Sandwiches, Burgers, Pizza","state":"PA","city":"Russellton","review_count":7,"rank":2,"stars":5.0},"geometry":{"coordinates":[-79.8352871,40.6194238],"type":"Point"}}
{"type":"Feature","properties":{"business_id":"dM3m0V21cKrk6eE0832C5A","name":"Tomasino's Restaurant","categories":"Restaurants, Italian","state":"PA","city":"Russellton","review_count":4,"rank":3,"stars":5.0},"geometry":{"coordinates":[-79.828989,40.598391],"type":"Point"}}
{"type":"Feature","properties":{"business_id":"lh3wksdskWTwVVWA8_xkRw","name":"Starr Road Mushroom Market & Catering","categories":"Restaurants, Event Planning & Services, Caterers, Delis","state":"PA","city":"Russellton","review_count":4,"rank":3,"stars":5.0},"geometry":{"coordinates":[-79.8425606,40.6169279],"type":"Point"}}
{"type":"Feature","properties":{"business_id":"jxFYZlq8r_iNv4FWp4_nhQ","name":"Refresquería La Paloma","categories":"Mexican, Shaved Ice, Desserts, Food, Restaurants","state":"AZ","city":"Somerton","review_count":3,"rank":1,"stars":4.0},"geometry":{"coordinates":[-112.0788006,33.5442575],"type":"Point"}}
{"type":"Feature","properties":{"business_id":"NliWba-ulb7USmQ3m_JWYw","name":"Amherst Diner","categories":"American (Traditional), Restaurants","state":"OH","city":"South Amherst","review_count":13,"rank":1,"stars":4.0},"geometry":{"coordinates":[-82.2182146087,41.363109126],"type":"Point"}}
{"type":"Feature","properties":{"business_id":"0uwQIGlKICIYuRtayVnh7g","name":"Piada Italian Street Food","categories":"Restaurants, Italian, Wraps, Street Vendors, Food, Salad","state":"OH","city":"South Euclid","review_count":120,"rank":1,"stars":3.5},"geometry":{"coordinates":[-81.5382926825,41.5022809065],"type":"Point"}}
{"type":"Feature","properties":{"business_id":"W6E6i-J4cuFx7i-MnlJt_A","name":"Pacific Grill","categories":"Restaurants, Japanese, Burmese, Asian Fusion","state":"OH","city":"South Euclid","review_count":96,"rank":2,"stars":4.0},"geometry":{"coordinates":[-81.5390746,41.5016075],"type":"Point"}}
{"type":"Feature","properties":{"business_id":"Zs8LPufciU-jDpbAVFqKcA","name":"China Gate","categories":"Chinese, Restaurants","state":"OH","city":"South Euclid","review_count":77,"rank":3,"stars":4.0},"geometry":{"coordinates":[-81.5391659,41.5024063],"type":"Point"}}
{"type":"Feature","properties":{"business_id":"k-tg18rWRibZ4jKpoqhb0Q","name":"Bonchon - SW Las Vegas","categories":"Korean, Asian Fusion, Restaurants, Chicken Wings","state":"NV","city":"South Las Vegas","review_count":435,"rank":1,"stars":3.5},"geometry":{"coordinates":[-115.2429631,36.0717327],"type":"Point"}}
{"type":"Feature","properties":{"business_id":"n9Bg4kePT4SBwcX2OQv_8w","name":"The Chocolate Bar","categories":"Bars, Nightlife, Cocktail Bars","state":"NV","city":"South Las Vegas","review_count":125,"rank":2,"stars":4.0},"geometry":{"coordinates":[-115.1745465,36.1023786],"type":"Point"}}
{"type":"Feature","properties":{"business_id":"Kg00kM0jvMYKKZYrh7Yvrg","name":"The South Park Clubhouse","categories":"American (New), Sports Bars, Food, Bars, Nightlife, Restaurants, American (Traditional)","state":"PA","city":"South Park","review_count":47,"rank":1,"stars":2.5},"geometry":{"coordinates":[-79.995636,40.302095],"type":"Point"}}
{"type":"Feature","properties":{"business_id":"yGdO0huBvnAhyEX7fZO7og","name":"Honeymoon Chinese Restaurant","categories":"Restaurants, Chinese","state":"PA","city":"South Park","review_count":20,"rank":2,"stars":3.5},"geometry":{"coordinates":[-80.028886148,40.290431829],"type":"Point"}}
{"type":"Feature","properties":{"business_id":"dDW4Ou_cT1aBMA5JcRuCSQ","name":"Ya Ya's Pizza","categories":"Restaurants, Pizza","state":"PA","city":"South Park","review_count":17,"rank":3,"stars":4.0},"geometry":{"coordinates":[-80.0228009,40.2865208],"type":"Point"}}
{"type":"Feature","properties":{"business_id":"IK71t8Do5-XEgLmjEdVNnA","name":"Shand Thai","categories":"Restaurants, Thai","state":"QC","city":"Oka","review_count":4,"rank":1,"stars":3.0},"geometry":{"coordinates":[-74.095037654,45.4610002695],"type":"Point"}}
{"type":"Feature","properties":{"business_id":"vCt9JMQjcZmYM2v2b992zg","name":"Labonté de la pomme - Verger & Miellerie","categories":"Local Flavor, Food, Specialty Food, Fruits & Veggies","state":"QC","city":"Oka","review_count":4,"rank":1,"stars":4.0},"geometry":{"coordinates":[-74.0840419,45.4937642],"type":"Point"}}
{"type":"Feature","properties":{"business_id":"JoQLHnT8z4VmpLVITiqqjA","name":"La panière d'Alexie","categories":"Restaurants, French","state":"QC","city":"Oka","review_count":3,"rank":3,"stars":2.5},"geometry":{"coordinates":[-74.0847121933,45.462475225],"type":"Point"}}
{"type":"Feature","properties":{"business_id":"kDkCBjWHidMJATuHRZDNKw","name":"Jude Pomme","categories":"Fruits & Veggies, Specialty Food, Food","state":"QC","city":"Oka","review_count":3,"rank":3,"stars":4.5},"geometry":{"coordinates":[-74.0723011954,45.5207897474],"type":"Point"}}
{"type":"Feature","properties":{"business_id":"HuHWoQ2mCRR6Cn0bear9Sw","name":"Scéna","categories":"Restaurants, Arts & Entertainment","state":"QC","city":"Old Port of Montreal","review_count":4,"rank":1,"stars":3.0},"geometry":{"coordinates":[-73.5495671,45.5043179],"type":"Point"}}
{"type":"Feature","properties":{"business_id":"cdLjMoQPRtdWN4g6LW650w","name":"Matteo's Casual Italian","categories":"Caterers, Cocktail Bars, Event Planning & Services, Nightlife, Italian, Wine Bars, Restaurants, Bars, Pizza","state":"OH","city":"Olmsted Falls","review_count":153,"rank":1,"stars":4.0},"geometry":{"coordinates":[-81.9017388,41.3747475],"type":"Point"}}
{"type":"Feature","properties":{"business_id":"rkQEar8WP8gNtv-OPvLD1A","name":"Moosehead Hoof & Ladder","categories":"Restaurants, American (Traditional), Burgers","state":"OH","city":"Olmsted Falls","review_count":145,"rank":2,"stars":3.5},"geometry":{"coordinates":[-81.9009126,41.3758666],"type":"Point"}}
{"type":"Feature","properties":{"business_id":"Xs37o78aby0o-Wmvh5yYPg","name":"Taqueria Junction","categories":"Mexican, Bars, Restaurants, Nightlife","state":"OH","city":"Olmsted Falls","review_count":82,"rank":3,"stars":3.0},"geometry":{"coordinates":[-81.9020043,41.3736698],"type":"Point"}}
{"type":"Feature","properties":{"business_id":"nGD94nE6GJSM9qaroe6v_A","name":"Razzle's","categories":"Bars, Sports Bars, Restaurants, Nightlife, American (Traditional), Pool Halls","state":"OH","city":"Olmsted Township","review_count":39,"rank":1,"stars":3.0},"geometry":{"coordinates":[-81.945803,41.373874],"type":"Point"}}
{"type":"Feature","properties":{"business_id":"Ce9ej6x2UbcoSIz-O5-fTQ","name":"Shaker's MarketPlace","categories":"Grocery, Food","state":"OH","city":"Olmsted Township","review_count":14,"rank":2,"stars":3.5},"geometry":{"coordinates":[-81.9424849,41.3719855],"type":"Point"}}
{"type":"Feature","properties":{"business_id":"tHsrPOEx-VY6a6urWWT0Xw","name":"Lily Chinese Restaurant","categories":"Restaurants, Chinese","state":"OH","city":"Olmsted Township","review_count":14,"rank":2,"stars":2.0},"geometry":{"coordinates":[-81.9424849,41.3719855],"type":"Point"}}
{"type":"Feature","properties":{"business_id":"6kD0vTLj3oZJm7kXRSvfKw","name":"Sorrento Ristorante & Pizzeria","categories":"Restaurants, Italian, Bars, Pizza, Nightlife, Wine Bars, Beer, Wine & Spirits, Food","state":"OH","city":"Sheffield Village","review_count":84,"rank":1,"stars":3.5},"geometry":{"coordinates":[-82.080759,41.4269951],"type":"Point"}}
{"type":"Feature","properties":{"business_id":"5YyLWps6xL372Lj2hRlPQw","name":"Quaker Steak & Lube","categories":"American (Traditional), Steakhouses, Chicken Wings, Restaurants, Burgers","state":"OH","city":"Sheffield Village","review_count":70,"rank":2,"stars":3.0},"geometry":{"coordinates":[-82.0858277287,41.425227407],"type":"Point"}}
{"type":"Feature","properties":{"business_id":"-49WY_TEa9ZEcRk_GnuLog","name":"Cracker Barrel Old Country Store","categories":"American (Traditional), Caterers, Southern, Comfort Food, Event Planning & Services, Breakfast & Brunch, Restaurants","state":"OH","city":"Sheffield Village","review_count":40,"rank":3,"stars":3.5},"geometry":{"coordinates":[-82.0809292,41.4258406],"type":"Point"}}
{"type":"Feature","properties":{"business_id":"xNb9hHoykUqjpOgUjnaeGg","name":"Pick ‘n Save","categories":"Food, Grocery","state":"WI","city":"Shorewood Hills","review_count":12,"rank":1,"stars":3.0},"geometry":{"coordinates":[-89.4494563059,43.076548219],"type":"Point"}}
{"type":"Feature","properties":{"business_id":"TljiUnO5i-9_iH5x-mWZ7A","name":"Sidney Dairy Barn","categories":"Food, Ice Cream & Frozen Yogurt","state":"IL","city":"Sidney","review_count":23,"rank":1,"stars":4.5},"geometry":{"coordinates":[-88.077981,40.025767],"type":"Point"}}
{"type":"Feature","properties":{"business_id":"aCu7P6VZLefnXGYjVejwsA","name":"Sidney Saloon","categories":"Restaurants, Pizza, Sandwiches, Nightlife, Bars","state":"IL","city":"Sidney","review_count":3,"rank":2,"stars":4.5},"geometry":{"coordinates":[-88.0731402908,40.0246558276],"type":"Point"}}
{"type":"Feature","properties":{"business_id":"oJTSBiliPgkIhss2ZqJ_xA","name":"Burntwood Tavern","categories":"American (New), Restaurants","state":"OH","city":"Solon","review_count":199,"rank":1,"stars":3.5},"geometry":{"coordinates":[-81.4398775,41.3910684],"type":"Point"}}
{"type":"Feature","properties":{"business_id":"en2o4Y4kdDHIDc5P82EXBw","name":"Simply Greek","categories":"Mediterranean, Greek, Event Planning & Services, Burgers, Caterers, Restaurants","state":"OH","city":"Solon","review_count":188,"rank":2,"stars":4.5},"geometry":{"coordinates":[-81.4391071,41.3846181],"type":"Point"}}
{"type":"Feature","properties":{"business_id":"_6n27rKvvDiPzWjcF24onA","name":"56 Kitchen","categories":"American (New), Nightlife, Sandwiches, Restaurants, Cocktail Bars, Wine Bars, Bars, Pizza","state":"OH","city":"Solon","review_count":176,"rank":3,"stars":4.5},"geometry":{"coordinates":[-81.440066,41.3864229],"type":"Point"}}
{"type":"Feature","properties":{"business_id":"OOWBEsqS5x8qcHceyc_znA","name":"Au P'tit Cochon Santé","categories":"Restaurants, French, Coffee & Tea, Food, Sandwiches, Breakfast & Brunch","state":"QC","city":"Rosemere","review_count":11,"rank":1,"stars":4.0},"geometry":{"coordinates":[-73.795944,45.6303662],"type":"Point"}}
{"type":"Feature","properties":{"business_id":"pf4McQa-lUW6cp6AWrGevQ","name":"Tomo","categories":"Sushi Bars, Japanese, Restaurants","state":"QC","city":"Rosemere","review_count":11,"rank":1,"stars":4.0},"geometry":{"coordinates":[-73.8033141308,45.6251692167],"type":"Point"}}
{"type":"Feature","properties":{"business_id":"VoaZRM80ydlYGMGJQ8O1CQ","name":"Restaurant Zibo","categories":"Italian, Restaurants","state":"QC","city":"Rosemere","review_count":5,"rank":3,"stars":4.0},"geometry":{"coordinates":[-73.8069601,45.6267849],"type":"Point"}}
{"type":"Feature","properties":{"business_id":"Y3Nn4HM3LB8YAAHbm_pL0Q","name":"Toi Moi & Café","categories":"Food, Restaurants, Bakeries, Desserts, Coffee & Tea, Breakfast & Brunch","state":"QC","city":"Rosemère","review_count":13,"rank":1,"stars":4.0},"geometry":{"coordinates":[-73.8040876659,45.6255632854],"type":"Point"}}
{"type":"Feature","properties":{"business_id":"ry8bTDAJm-yd7ULXaVuVMA","name":"Piatti","categories":"Italian, Restaurants","state":"QC","city":"Rosemère","review_count":8,"rank":2,"stars":4.0},"geometry":{"coordinates":[-73.8119906,45.6194784],"type":"Point"}}
{"type":"Feature","properties":{"business_id":"DMoUNuP6UZBzIhEwYAaB6A","name":"Reveil Matin","categories":"Restaurants, Breakfast & Brunch, Diners","state":"QC","city":"Rosemère","review_count":6,"rank":3,"stars":4.0},"geometry":{"coordinates":[-73.8091846593,45.6278540633],"type":"Point"}}
{"type":"Feature","properties":{"business_id":"7ADjU1ZmRfUeMebjbYU3kw","name":"The Cheesecake Factory","categories":"Desserts, Restaurants, Seafood, Food, American (New), American (Traditional), Salad","state":"PA","city":"Ross Township","review_count":188,"rank":1,"stars":3.0},"geometry":{"coordinates":[-80.0087394,40.5445585],"type":"Point"}}
{"type":"Feature","properties":{"business_id":"kPwYdRKp1-W1-tUR8iylxw","name":"Aladdin's Eatery","categories":"Juice Bars & Smoothies, Mediterranean, Restaurants, Food, Desserts, Vegetarian, Middle Eastern","state":"PA","city":"Ross Township","review_count":94,"rank":2,"stars":4.0},"geometry":{"coordinates":[-80.0104952522,40.5303379939],"type":"Point"}}
{"type":"Feature","properties":{"business_id":"7Qpn2DvgIUpOJQdI4DXETQ","name":"Panera Bread","categories":"Soup, Restaurants, Breakfast & Brunch, Sandwiches, Salad, Bagels, Bakeries, Food","state":"PA","city":"Ross Township","review_count":20,"rank":3,"stars":2.5},"geometry":{"coordinates":[-80.0131005049,40.5371514898],"type":"Point"}}
{"type":"Feature","properties":{"business_id":"cWPk6POuAaK8eYrwZVt5TQ","name":"The Red Caboose","categories":"Food, Restaurants, Fast Food","state":"PA","city":"Rostraver","review_count":39,"rank":1,"stars":4.5},"geometry":{"coordinates":[-79.8415839672,40.2126619327],"type":"Point"}}
{"type":"Feature","properties":{"business_id":"kncFN31ryK_7-qC2UpTRwg","name":"L'Oeufrier","categories":"Restaurants, Food, Breakfast & Brunch","state":"QC","city":"Montreal-West","review_count":22,"rank":1,"stars":3.0},"geometry":{"coordinates":[-73.6454838368,45.4530554196],"type":"Point"}}
{"type":"Feature","properties":{"business_id":"h5Fz8LxRi7EISSg68ef74Q","name":"Trattoria Micco","categories":"Cafes, Food, Restaurants, Desserts, Italian","state":"QC","city":"Montreal-West","review_count":8,"rank":2,"stars":4.5},"geometry":{"coordinates":[-73.6457061768,45.4529647827],"type":"Point"}}
{"type":"Feature","properties":{"business_id":"89rvD88blGt_2qIWHq2WOg","name":"Allegria","categories":"Restaurants, Italian, Food","state":"QC","city":"Montreal-West","review_count":3,"rank":3,"stars":2.5},"geometry":{"coordinates":[-73.6454933,45.4530462],"type":"Point"}}
{"type":"Feature","properties":{"business_id":"8KmqWgL0UEdxJFwTZ_YZvQ","name":"Swensons Drive-In","categories":"Sandwiches, Fast Food, Burgers, American (Traditional), Restaurants","state":"OH","city":"Montrose","review_count":108,"rank":1,"stars":4.5},"geometry":{"coordinates":[-81.6397571,41.1345883],"type":"Point"}}
{"type":"Feature","properties":{"business_id":"VahYIkK6nH3jTPrJUfZnlw","name":"McDonald's","categories":"Fast Food, Food, Coffee & Tea, Restaurants, Burgers","state":"OH","city":"Montrose","review_count":22,"rank":2,"stars":1.5},"geometry":{"coordinates":[-81.6387519939,41.136411217],"type":"Point"}}
{"type":"Feature","properties":{"business_id":"I_eD8xEVals_6ujsPCrM1g","name":"Bar Champs","categories":"Nightlife, Sports Bars, Bars","state":"QC","city":"Montrèal","review_count":29,"rank":1,"stars":3.0},"geometry":{"coordinates":[-73.5788999,45.5166343],"type":"Point"}}
{"type":"Feature","properties":{"business_id":"-LGt-x1o1--A-cdn5zmaog","name":"Chatime","categories":"Food, Bubble Tea, Tea Rooms","state":"QC","city":"Montrèal","review_count":6,"rank":2,"stars":2.5},"geometry":{"coordinates":[-73.586337,45.489825],"type":"Point"}}
{"type":"Feature","properties":{"business_id":"0W4lkclzZThpx3V65bVgig","name":"Schwartz's","categories":"Sandwiches, Specialty Food, Restaurants, Food, Cheese Shops, Imported Food, Delis, Ethnic Food","state":"QC","city":"Montréal","review_count":2667,"rank":1,"stars":4.0},"geometry":{"coordinates":[-73.577642,45.516353],"type":"Point"}}
{"type":"Feature","properties":{"business_id":"5T6kFKFycym_GkhgOiysIw","name":"La Banquise","categories":"Fast Food, Diners, Restaurants, Poutineries","state":"QC","city":"Montréal","review_count":1945,"rank":2,"stars":4.0},"geometry":{"coordinates":[-73.574769,45.525354],"type":"Point"}}
{"type":"Feature","properties":{"business_id":"46Ld9Qc9nAx_A0jwclNZiw","name":"Olive & Gourmando","categories":"Bakeries, Cafes, Restaurants, Food, Sandwiches, Breakfast & Brunch, Soup","state":"QC","city":"Montréal","review_count":1385,"rank":3,"stars":4.5},"geometry":{"coordinates":[-73.5564745927,45.501197],"type":"Point"}}
{"type":"Feature","properties":{"business_id":"mGb55Zvkb3D8yooZpRkz3w","name":"Georgio's Oven Fresh Pizza","categories":"Restaurants, Chicken Wings, Salad, Pizza","state":"OH","city":"Richmond Height","review_count":3,"rank":1,"stars":2.5},"geometry":{"coordinates":[-81.4979805,41.5531846],"type":"Point"}}
{"type":"Feature","properties":{"business_id":"QUdJyyDDieR_kdrCU9dPFA","name":"La Taqueria","categories":"Mexican, Food, American (New), Restaurants, Ethnic Food, Specialty Food, Local Flavor, Do-It-Yourself Food","state":"OH","city":"Richmond Heights","review_count":115,"rank":1,"stars":4.0},"geometry":{"coordinates":[-81.496081,41.5395465],"type":"Point"}}
{"type":"Feature","properties":{"business_id":"wEY7VsIFD6DtLW_wi5PKLg","name":"La Fiesta Mexican Restaurant","categories":"Local Flavor, Latin American, Mexican, Restaurants, Salad, Soup","state":"OH","city":"Richmond Heights","review_count":77,"rank":2,"stars":3.0},"geometry":{"coordinates":[-81.496081,41.5395465],"type":"Point"}}
{"type":"Feature","properties":{"business_id":"6DTnlAb9StdMkkE-uvSZ1w","name":"Irie Patties - Caribbean Street Food","categories":"Food Court, Restaurants, Caribbean, Specialty Food, Ethnic Food, Food","state":"OH","city":"Richmond Heights","review_count":26,"rank":3,"stars":4.0},"geometry":{"coordinates":[-81.492915,41.541804],"type":"Point"}}
{"type":"Feature","properties":{"business_id":"alANV-ujatCMh3vYX9H6Yg","name":"Caffe Demetre","categories":"Desserts, Cafes, Restaurants, Food, Ice Cream & Frozen Yogurt, Creperies","state":"ON","city":"Richmond Hil","review_count":92,"rank":1,"stars":3.0},"geometry":{"coordinates":[-79.4333352,43.8507483],"type":"Point"}}
{"type":"Feature","properties":{"business_id":"72GGspuzlRC4hhIgy-IFAw","name":"Subway","categories":"Restaurants, Sandwiches, Fast Food","state":"BC","city":"Richmond Hill","review_count":3,"rank":1,"stars":1.5},"geometry":{"coordinates":[-79.4135347,43.8757949],"type":"Point"}}
{"type":"Feature","properties":{"business_id":"8YG7PRoZuHeKii0rtNvJFQ","name":"Dragon Boat Fusion Cuisine","categories":"Restaurants, Asian Fusion, Dim Sum, Chinese","state":"ON","city":"Richmond Hill","review_count":537,"rank":1,"stars":3.5},"geometry":{"coordinates":[-79.3765566,43.8488029],"type":"Point"}}
{"type":"Feature","properties":{"business_id":"IRd0jvnfJ3tV6AMlYMajzw","name":"Restoran Malaysia","categories":"Restaurants, Malaysian","state":"ON","city":"Richmond Hill","review_count":518,"rank":2,"stars":3.5},"geometry":{"coordinates":[-79.413679,43.875849],"type":"Point"}}
{"type":"Feature","properties":{"business_id":"Cr5CLpmVrmzFyz_RfQ6rmA","name":"Scaddabush Italian Kitchen & Bar","categories":"Restaurants, Italian","state":"ON","city":"Richmond Hill","review_count":371,"rank":3,"stars":3.5},"geometry":{"coordinates":[-79.3743220545,43.8473734617],"type":"Point"}}
{"type":"Feature","properties":{"business_id":"yyji5NjOJro2k35XH-uoDA","name":"Subway Restaurants","categories":"Restaurants, Sandwiches, Fast Food","state":"PA","city":"N Versailles","review_count":3,"rank":1,"stars":3.0},"geometry":{"coordinates":[-79.823865,40.387513],"type":"Point"}}
{"type":"Feature","properties":{"business_id":"zBlh5vP_qkSNR5Cc6lWG4w","name":"Little Caesars Pizza","categories":"Pizza, Restaurants, Fast Food","state":"NV","city":"N. Las Vegas","review_count":41,"rank":1,"stars":1.5},"geometry":{"coordinates":[-115.1595860908,36.2180235534],"type":"Point"}}
{"type":"Feature","properties":{"business_id":"QvgkMzGOnKF6DWD3GIADmA","name":"Panda Windows & Doors","categories":"Door Sales/Installation, Glass & Mirrors, Windows Installation, Software Development, Home Services, Professional Services, Arabian, Business Consulting, Restaurants","state":"NV","city":"N. Las Vegas","review_count":14,"rank":2,"stars":3.5},"geometry":{"coordinates":[-115.1026325,36.2299295],"type":"Point"}}
{"type":"Feature","properties":{"business_id":"DyM3-_Q2AxjX4Nh6_Mc93Q","name":"Story Airways","categories":"Arts & Entertainment, Hotels & Travel, Nightlife, Tours","state":"NV","city":"N. Las Vegas","review_count":4,"rank":3,"stars":3.5},"geometry":{"coordinates":[-115.139987,35.973422],"type":"Point"}}
{"type":"Feature","properties":{"business_id":"ibhjOdswOPhnp8ReUywnEA","name":"Wendy's","categories":"Restaurants, Fast Food, Burgers","state":"NV","city":"N.Las Vegas","review_count":52,"rank":1,"stars":1.5},"geometry":{"coordinates":[-115.1593181,36.2390385],"type":"Point"}}
{"type":"Feature","properties":{"business_id":"QZjBYhI6gX-hD3d1Ed-s7Q","name":"Wendy's","categories":"Fast Food, Burgers, Hot Dogs, Restaurants","state":"OH","city":"N.Olmsted","review_count":12,"rank":1,"stars":1.0},"geometry":{"coordinates":[-81.9177204,41.4186553],"type":"Point"}}
{"type":"Feature","properties":{"business_id":"GBPZ8UB7WRmnl1deCJCaPg","name":"Wendy's","categories":"Fast Food, Restaurants, Burgers","state":"OH","city":"N.Ridgeville","review_count":8,"rank":1,"stars":2.0},"geometry":{"coordinates":[-81.9959821,41.3978423],"type":"Point"}}
{"type":"Feature","properties":{"business_id":"QNzX-iaiG2uIWQ2vOMq13A","name":"Wendy's","categories":"Fast Food, Restaurants, Burgers","state":"PA","city":"N.Versailles","review_count":7,"rank":1,"stars":1.5},"geometry":{"coordinates":[-79.82283,40.3847154],"type":"Point"}}
{"type":"Feature","properties":{"business_id":"aUAUcbbESpm_MZ1n4eY9eA","name":"Nellis AFB Commissary","categories":"American (New), Bakeries, Food, Convenience Stores, Restaurants","state":"NV","city":"NELLIS AFB","review_count":39,"rank":1,"stars":4.0},"geometry":{"coordinates":[-115.050937,36.236757],"type":"Point"}}
{"type":"Feature","properties":{"business_id":"r96XuJz56E8Oe7I83bGfZw","name":"Resto le Douglas","categories":"Diners, Breakfast & Brunch, American (Traditional), Event Planning & Services, Canadian (New), Hotels, Restaurants, Hotels & Travel","state":"QC","city":"Napierville","review_count":5,"rank":1,"stars":4.0},"geometry":{"coordinates":[-73.4479957312,45.1942849993],"type":"Point"}}
{"type":"Feature","properties":{"business_id":"8TvTnnDdKuxv_trNU_ygLA","name":"Cantine Bayeur","categories":"Food, Fast Food, Ice Cream & Frozen Yogurt, Restaurants","state":"QC","city":"Napierville","review_count":5,"rank":1,"stars":3.5},"geometry":{"coordinates":[-73.4122438,45.1929063],"type":"Point"}}
{"type":"Feature","properties":{"business_id":"ByNk-TOnPjoAKrk8NjCW9g","name":"Wendy's","categories":"Burgers, Restaurants, Fast Food","state":"PA","city":"W.Mifflin","review_count":6,"rank":1,"stars":2.5},"geometry":{"coordinates":[-79.9428923,40.3484629],"type":"Point"}}
{"type":"Feature","properties":{"business_id":"nrBnY5Ii7hS2npGSuEwETA","name":"Out West General Store","categories":"Food, Convenience Stores","state":"AZ","city":"Waddell","review_count":28,"rank":1,"stars":3.0},"geometry":{"coordinates":[-112.4277916,33.5368362],"type":"Point"}}
{"type":"Feature","properties":{"business_id":"WGQpjj6eA6mRBxp4XST6Ig","name":"White Tank Library","categories":"Restaurants, Public Services & Government, Pizza, Libraries","state":"AZ","city":"Waddell","review_count":25,"rank":2,"stars":5.0},"geometry":{"coordinates":[-112.4977823,33.5669749],"type":"Point"}}
{"type":"Feature","properties":{"business_id":"uKihD16CylVhVB3-50qFhA","name":"Rousseau Farming","categories":"Farmers Market, Food","state":"AZ","city":"Waddell","review_count":6,"rank":3,"stars":3.5},"geometry":{"coordinates":[-112.4079123,33.5668994],"type":"Point"}}
{"type":"Feature","properties":{"business_id":"b0fx52xMfzArj4aJBsalBQ","name":"Kasai Japanese Restaurant","categories":"Japanese, Sushi Bars, Restaurants","state":"OH","city":"Wadsworth","review_count":116,"rank":1,"stars":4.0},"geometry":{"coordinates":[-81.7365236,41.0578118],"type":"Point"}}
{"type":"Feature","properties":{"business_id":"zydbdBR6-CM8UZ6WkW1DWA","name":"Marie's Restaurant","categories":"Pizza, Italian, Chicken Wings, Restaurants","state":"OH","city":"Wadsworth","review_count":72,"rank":2,"stars":3.0},"geometry":{"coordinates":[-81.72819,41.052332],"type":"Point"}}
{"type":"Feature","properties":{"business_id":"I0PbVOZW3uHBQwUsoiT4Sw","name":"El Patron's","categories":"Restaurants, Mexican","state":"OH","city":"Wadsworth","review_count":25,"rank":3,"stars":4.0},"geometry":{"coordinates":[-81.7258714758,41.0537225098],"type":"Point"}}
{"type":"Feature","properties":{"business_id":"v1CscQ5oHCRGVyaIcWPf0A","name":"Applebee's Grill + Bar","categories":"Restaurants, Salad, Sports Bars, American (Traditional), Nightlife, Bars, Steakhouses, Burgers","state":"OH","city":"Wadsworth","review_count":25,"rank":3,"stars":3.0},"geometry":{"coordinates":[-81.729462,41.050746],"type":"Point"}}
{"type":"Feature","properties":{"business_id":"SwOmVhXZa5kvyTp53rUwKg","name":"White Box Pizzeria","categories":"Pizza, Event Planning & Services, Food, Restaurants, Food Delivery Services, Caterers","state":"OH","city":"Wadsworth","review_count":25,"rank":3,"stars":4.0},"geometry":{"coordinates":[-81.7255046344,41.0542567866],"type":"Point"}}
{"type":"Feature","properties":{"business_id":"jSoXCOgEZ97KSaMsbiJdPg","name":"Pizza Hut","categories":"Pizza, Restaurants, Italian, Chicken Wings","state":"HI","city":"Wahiawa","review_count":51,"rank":1,"stars":2.0},"geometry":{"coordinates":[-158.0255252123,21.4972578207],"type":"Point"}}
